Time,Yaw,Pitch,Roll,a_x,a_y,a_z,Pressure,Altitude,launch_detected,kf_velocity,kf_altitude,er_velocity,er_altitude,predicted_apogee,trigger_achieved,fins_retracted,er_apogee_pred
1437.571746,-179.44,-11.81,137.64,-0.20,-0.64,0.70,99.76,428.82,0,-0.00,428.82,nan,nan,428.82,0,0,428.82
1437.591163,-179.45,-11.81,137.64,-0.20,-0.64,0.71,99.78,425.51,0,-0.00,428.81,nan,nan,425.51,0,0,425.51
1437.600846,-179.45,-11.81,137.64,-0.20,-0.64,0.71,99.78,425.51,0,-0.00,428.80,nan,nan,425.51,0,0,425.51
1437.610637,-179.45,-11.81,137.64,-0.20,-0.64,0.70,99.77,427.72,0,-0.00,428.80,nan,nan,427.72,0,0,427.72
1437.620310,-179.45,-11.81,137.64,-0.20,-0.64,0.70,99.78,425.51,0,-0.01,428.79,nan,nan,425.51,0,0,425.51
1437.629954,-179.45,-11.81,137.64,-0.20,-0.64,0.70,99.78,425.51,0,-0.01,428.78,nan,nan,425.51,0,0,425.51
1437.639705,-179.45,-11.81,137.64,-0.20,-0.64,0.70,99.78,425.51,0,-0.02,428.77,nan,nan,425.51,0,0,425.51
1437.649464,-179.45,-11.81,137.64,-0.20,-0.64,0.70,99.77,427.72,0,-0.03,428.77,nan,nan,427.72,0,0,427.72
1437.659537,-179.45,-11.81,137.64,-0.20,-0.64,0.70,99.78,425.51,0,-0.04,428.76,nan,nan,425.51,0,0,425.51
1437.669494,-179.46,-11.81,137.64,-0.19,-0.64,0.70,99.76,428.82,0,-0.04,428.76,nan,nan,428.82,0,0,428.82
1437.679154,-179.46,-11.81,137.64,-0.19,-0.64,0.70,99.76,428.82,0,-0.04,428.76,nan,nan,428.82,0,0,428.82
1437.688810,-179.46,-11.81,137.64,-0.20,-0.64,0.71,99.78,425.51,0,-0.07,428.75,nan,nan,425.51,0,0,425.51
1437.698454,-179.46,-11.82,137.64,-0.20,-0.64,0.71,99.76,428.82,1,-0.07,428.75,nan,nan,428.82,0,0,nan
1437.711034,-179.46,-11.82,137.64,-0.20,-0.64,0.71,99.76,428.82,1,-0.07,428.75,nan,nan,428.82,0,0,nan
1437.717857,-179.46,-11.82,137.64,-0.20,-0.64,0.70,99.79,422.46,1,-0.15,428.72,nan,nan,422.46,0,0,nan
1437.732878,-179.47,-11.81,137.64,-0.20,-0.64,0.70,99.78,425.51,1,-0.20,428.70,nan,nan,425.51,0,0,nan
1437.738399,-179.47,-11.81,137.64,-0.20,-0.64,0.70,99.78,425.51,1,-0.25,428.68,nan,nan,425.51,0,0,nan
1437.748197,-179.47,-11.81,137.64,-0.20,-0.64,0.70,99.78,425.51,1,-0.31,428.66,nan,nan,425.51,0,0,nan
1437.757951,-179.47,-11.81,137.64,-0.20,-0.64,0.70,99.76,428.82,1,-0.31,428.66,nan,nan,428.82,0,0,nan
1437.767780,-179.47,-11.81,137.64,-0.20,-0.64,0.70,99.79,421.08,1,-0.49,428.61,nan,nan,421.08,0,0,nan
1437.777670,-179.47,-11.82,137.64,-0.20,-0.64,0.70,99.78,425.51,1,-0.57,428.58,nan,nan,425.51,0,0,nan
1437.787656,-179.47,-11.82,137.64,-0.20,-0.64,0.70,99.78,424.40,1,-0.68,428.55,nan,nan,424.40,0,0,nan
1437.802668,-179.48,-11.82,137.65,-0.20,-0.64,0.71,99.76,428.82,1,-0.68,428.54,nan,nan,428.82,0,0,nan
1437.811804,-179.48,-11.82,137.65,-0.20,-0.64,0.71,99.76,428.82,1,-0.67,428.54,nan,nan,428.82,0,0,nan
1437.817715,-179.48,-11.82,137.65,-0.20,-0.64,0.71,99.76,428.82,1,-0.66,428.53,nan,nan,428.82,0,0,nan
1437.827630,-179.48,-11.82,137.65,-0.20,-0.64,0.71,99.78,425.51,1,-0.77,428.50,nan,nan,425.51,0,0,nan
1437.837924,-179.48,-11.82,137.65,-0.20,-0.64,0.70,99.78,424.40,1,-0.94,428.45,nan,nan,424.40,0,0,nan
1437.852713,-179.48,-11.82,137.65,-0.20,-0.64,0.70,99.78,425.51,1,-1.07,428.40,nan,nan,425.51,0,0,nan
1437.859316,-179.48,-11.82,137.65,-0.20,-0.64,0.70,99.78,425.51,1,-1.20,428.36,nan,nan,425.51,0,0,nan
1437.867918,-179.48,-11.81,137.65,-0.20,-0.64,0.70,99.76,428.82,1,-1.18,428.35,nan,nan,428.82,0,0,nan
1437.877671,-179.48,-11.81,137.64,-0.20,-0.64,0.70,99.78,425.51,1,-1.33,428.30,nan,nan,425.51,0,0,nan
1437.887700,-179.49,-11.81,137.64,-0.20,-0.64,0.70,99.78,425.51,1,-1.48,428.24,nan,nan,425.51,0,0,nan
1437.902596,-179.49,-11.81,137.64,-0.20,-0.64,0.70,99.78,425.51,1,-1.64,428.19,nan,nan,425.51,0,0,nan
1437.911996,-179.49,-11.81,137.64,-0.20,-0.64,0.70,99.78,425.51,1,-1.81,428.13,nan,nan,425.51,0,0,nan
1437.917826,-179.49,-11.81,137.64,-0.20,-0.64,0.70,99.78,425.51,1,-1.97,428.06,nan,nan,425.51,0,0,nan
1437.927796,-179.49,-11.81,137.64,-0.20,-0.64,0.70,99.78,425.51,1,-2.14,427.99,nan,nan,425.51,0,0,nan
1437.937979,-179.50,-11.81,137.64,-0.20,-0.64,0.70,99.78,425.51,1,-2.31,427.92,nan,nan,425.51,0,0,nan
1437.949127,-179.50,-11.81,137.65,-0.20,-0.64,0.70,99.78,425.51,1,-2.48,427.85,nan,nan,425.51,0,0,nan
1437.957801,-179.50,-11.81,137.65,-0.20,-0.64,0.70,99.78,425.51,1,-2.66,427.77,nan,nan,425.51,0,0,nan
1437.967781,-179.50,-11.81,137.65,-0.20,-0.63,0.70,99.78,425.51,1,-2.83,427.70,nan,nan,425.51,0,0,nan
1437.977709,-179.50,-11.81,137.64,-0.20,-0.64,0.70,99.76,428.82,1,-2.74,427.70,nan,nan,428.82,0,0,nan
1437.987855,-179.50,-11.82,137.64,-0.20,-0.64,0.70,99.78,425.51,1,-2.92,427.61,nan,nan,425.51,0,0,nan
1438.002547,-179.50,-11.82,137.64,-0.19,-0.64,0.70,99.76,428.82,1,-2.81,427.62,nan,nan,428.82,0,0,nan
1438.012445,-179.50,-11.82,137.64,-0.20,-0.64,0.70,99.76,428.82,1,-2.71,427.62,nan,nan,428.82,0,0,nan
1438.017705,-179.50,-11.82,137.64,-0.20,-0.64,0.70,99.76,428.82,1,-2.60,427.63,nan,nan,428.82,0,0,nan
1438.032439,-179.50,-11.82,137.64,-0.20,-0.64,0.71,99.78,425.51,1,-2.79,427.54,nan,nan,425.51,0,0,nan
1438.037924,-179.50,-11.82,137.64,-0.20,-0.64,0.71,99.78,425.51,1,-2.97,427.46,nan,nan,425.51,0,0,nan
1438.047681,-179.51,-11.82,137.64,-0.19,-0.64,0.70,99.78,425.51,1,-3.15,427.37,nan,nan,425.51,0,0,nan
1438.057925,-179.51,-11.82,137.64,-0.19,-0.64,0.71,99.76,428.82,1,-3.01,427.38,nan,nan,428.82,0,0,nan
1438.067637,-179.51,-11.81,137.64,-0.20,-0.64,0.70,99.78,425.51,1,-3.19,427.29,0.00,426.40,425.51,0,0,425.51
1438.077988,-179.51,-11.81,137.64,-0.20,-0.63,0.70,99.78,424.40,1,-3.47,427.16,-0.61,426.31,424.40,0,0,424.40
1438.087774,-179.51,-11.81,137.64,-0.20,-0.63,0.70,99.78,424.40,1,-3.75,427.03,-15.58,426.28,424.40,0,0,424.40
1438.097752,-179.51,-11.81,137.64,-0.20,-0.63,0.70,99.76,428.82,1,-3.56,427.06,1.40,426.35,428.82,0,0,428.80
1438.107811,-179.51,-11.81,137.64,-0.20,-0.63,0.70,99.76,428.82,1,-3.38,427.09,-11.05,426.37,428.82,0,0,428.82
1438.117928,-179.51,-11.81,137.65,-0.20,-0.63,0.70,99.76,428.82,1,-3.20,427.12,23.79,426.44,428.82,0,0,437.48
1438.127672,-179.52,-11.82,137.64,-0.20,-0.64,0.70,99.79,422.46,1,-3.68,426.92,-21.71,426.38,422.46,0,0,422.46
1438.138253,-179.52,-11.82,137.64,-0.20,-0.64,0.70,99.79,422.46,1,-4.14,426.71,-14.20,426.32,422.46,0,0,422.46
1438.147918,-179.52,-11.82,137.64,-0.20,-0.64,0.70,99.76,428.82,1,-3.91,426.75,10.83,426.34,428.82,0,0,430.57
1438.158141,-179.52,-11.82,137.64,-0.20,-0.65,0.70,99.79,422.46,1,-4.36,426.55,-12.10,426.28,422.46,0,0,422.46
1438.168415,-179.52,-11.82,137.64,-0.20,-0.65,0.70,99.78,425.51,1,-4.47,426.46,0.00,426.21,425.51,0,0,425.51
1438.178436,-179.52,-11.82,137.64,-0.19,-0.64,0.71,99.78,425.51,1,-4.57,426.38,0.00,426.15,425.51,0,0,425.51
1438.188372,-179.52,-11.82,137.64,-0.20,-0.64,0.70,99.78,425.51,1,-4.66,426.30,-12.71,426.15,425.51,0,0,425.51
1438.198213,-179.52,-11.82,137.64,-0.19,-0.64,0.70,99.78,425.51,1,-4.74,426.22,11.36,426.08,425.51,0,0,427.47
1438.213325,-179.52,-11.81,137.64,-0.20,-0.64,0.70,99.78,425.51,1,-4.81,426.15,4.09,426.01,425.51,0,0,425.68
1438.218185,-179.52,-11.81,137.64,-0.20,-0.64,0.70,99.78,425.51,1,-4.87,426.07,0.56,426.07,425.51,0,0,425.40
1438.228329,-179.53,-11.81,137.64,-0.20,-0.64,0.70,99.76,428.82,1,-4.57,426.15,-3.70,426.14,428.82,0,0,428.82
1438.238366,-179.53,-11.81,137.64,-0.20,-0.64,0.70,99.78,425.51,1,-4.63,426.07,-1.54,426.14,425.51,0,0,425.51
1438.248765,-179.53,-11.81,137.64,-0.20,-0.64,0.70,99.78,425.51,1,-4.69,426.00,-1.62,426.14,425.51,0,0,425.51
1438.258600,-179.53,-11.81,137.65,-0.20,-0.63,0.70,99.78,425.51,1,-4.74,425.94,22.65,426.07,425.51,0,0,433.26
1438.268629,-179.53,-11.81,137.65,-0.20,-0.64,0.70,99.78,425.51,1,-4.78,425.87,-9.53,426.16,425.51,0,0,425.51
1438.278282,-179.53,-11.81,137.65,-0.20,-0.64,0.70,99.78,425.51,1,-4.82,425.81,-22.83,426.16,425.51,0,0,425.51
1438.287961,-179.53,-11.82,137.64,-0.20,-0.64,0.70,99.78,425.51,1,-4.85,425.75,11.71,426.19,425.51,0,0,427.61
1438.297874,-179.53,-11.82,137.64,-0.20,-0.64,0.70,99.78,425.51,1,-4.87,425.70,-21.81,426.12,425.51,0,0,425.51
1438.307798,-179.53,-11.82,137.64,-0.20,-0.64,0.70,99.78,425.51,1,-4.88,425.64,-11.00,426.05,425.51,0,0,425.51
1438.317782,-179.53,-11.82,137.64,-0.20,-0.64,0.70,99.76,428.82,1,-4.53,425.74,12.81,426.05,428.82,0,0,431.37
1438.328017,-179.53,-11.82,137.64,-0.20,-0.64,0.70,99.79,421.08,1,-5.03,425.48,-17.04,425.96,421.08,0,0,421.08
1438.337745,-179.54,-11.82,137.64,-0.19,-0.64,0.70,99.78,424.40,1,-5.14,425.39,-4.45,425.96,424.40,0,0,424.40
1438.347964,-179.54,-11.81,137.65,-0.20,-0.64,0.70,99.78,425.51,1,-5.12,425.34,-10.67,425.96,425.51,0,0,425.51
1438.358237,-179.54,-11.81,137.65,-0.20,-0.64,0.70,99.78,425.51,1,-5.10,425.30,-12.76,425.96,425.51,0,0,425.51
1438.367893,-179.54,-11.81,137.65,-0.20,-0.64,0.71,99.78,425.51,1,-5.07,425.26,14.71,425.90,425.51,0,0,428.83
1438.378384,-179.54,-11.81,137.65,-0.20,-0.64,0.70,99.78,424.40,1,-5.16,425.17,-0.59,425.88,424.40,0,0,424.40
1438.388037,-179.54,-11.81,137.65,-0.20,-0.64,0.71,99.79,422.46,1,-5.45,425.00,-22.72,425.81,422.46,0,0,422.46
1438.397684,-179.54,-11.81,137.65,-0.20,-0.64,0.70,99.77,427.72,1,-5.15,425.07,-2.43,425.86,427.72,0,0,427.72
1438.408174,-179.55,-11.81,137.65,-0.20,-0.64,0.70,99.78,425.51,1,-5.10,425.04,-11.00,425.86,425.51,0,0,425.51
1438.423020,-179.55,-11.82,137.64,-0.20,-0.64,0.70,99.78,425.51,1,-5.04,425.02,10.10,425.86,425.51,0,0,426.97
1438.427849,-179.55,-11.82,137.64,-0.20,-0.64,0.70,99.79,422.46,1,-5.31,424.85,-1.54,425.80,422.46,0,0,422.46
1438.437759,-179.55,-11.82,137.64,-0.20,-0.64,0.70,99.79,422.46,1,-5.56,424.69,-22.75,425.74,422.46,0,0,422.46
1438.447754,-179.55,-11.82,137.64,-0.20,-0.64,0.70,99.76,428.82,1,-5.11,424.83,10.16,425.80,428.82,0,0,430.31
1438.458112,-179.55,-11.82,137.65,-0.20,-0.64,0.70,99.76,428.82,1,-4.68,424.96,40.84,425.87,428.82,0,0,454.11
1438.468418,-179.55,-11.82,137.65,-0.20,-0.64,0.70,99.78,425.51,1,-4.62,424.94,-10.55,425.87,425.51,0,0,425.51
1438.478068,-179.55,-11.82,137.65,-0.20,-0.64,0.70,99.76,428.82,1,-4.20,425.08,9.04,425.87,428.82,0,0,430.08
1438.488503,-179.55,-11.82,137.65,-0.20,-0.64,0.70,99.76,428.82,1,-3.79,425.21,12.73,425.94,428.82,0,0,431.33
1438.498185,-179.55,-11.81,137.65,-0.20,-0.64,0.70,99.78,425.51,1,-3.76,425.19,0.00,425.87,425.51,0,0,425.51
1438.507855,-179.56,-11.81,137.65,-0.20,-0.64,0.70,99.77,427.72,1,-3.48,425.27,12.81,425.85,427.72,0,0,430.26
1438.517885,-179.56,-11.81,137.65,-0.20,-0.64,0.70,99.78,425.51,1,-3.46,425.25,-3.03,425.78,425.51,0,0,425.51
1438.532566,-179.55,-11.81,137.65,-0.20,-0.64,0.70,99.76,428.82,1,-3.07,425.38,-6.06,425.85,428.82,0,0,428.82
1438.542208,-179.55,-11.81,137.65,-0.20,-0.64,0.70,99.76,428.82,1,-2.70,425.51,19.79,425.91,428.82,0,0,434.75
1438.551953,-179.56,-11.81,137.65,-0.20,-0.64,0.70,99.78,425.51,1,-2.70,425.48,0.00,425.91,425.51,0,0,425.51
1438.561683,-179.56,-11.81,137.65,-0.20,-0.64,0.70,99.78,425.51,1,-2.69,425.46,11.36,425.85,425.51,0,0,427.47
1438.566593,-179.56,-11.81,137.65,-0.20,-0.64,0.70,99.78,425.51,1,-2.68,425.43,1.64,425.85,425.51,0,0,425.51
1438.578065,-179.56,-11.81,137.64,-0.20,-0.64,0.70,99.78,425.51,1,-2.67,425.41,-22.87,425.87,425.51,0,0,425.51
1438.588708,-179.56,-11.81,137.64,-0.20,-0.64,0.70,99.78,424.40,1,-2.78,425.34,-5.87,425.87,424.40,0,0,424.40
1438.598364,-179.56,-11.81,137.64,-0.20,-0.64,0.70,99.76,428.82,1,-2.40,425.47,23.78,425.87,428.82,0,0,437.48
1438.608120,-179.56,-11.81,137.64,-0.20,-0.64,0.70,99.78,425.51,1,-2.40,425.45,-23.75,425.80,425.51,0,0,425.51
1438.617795,-179.56,-11.81,137.65,-0.20,-0.64,0.70,99.77,427.72,1,-2.15,425.53,21.52,425.78,427.72,0,0,434.84
1438.627930,-179.57,-11.81,137.65,-0.20,-0.64,0.70,99.78,425.51,1,-2.16,425.51,14.67,425.84,425.51,0,0,428.81
1438.642695,-179.57,-11.81,137.65,-0.20,-0.64,0.71,99.78,425.51,1,-2.15,425.49,-8.20,425.90,425.51,0,0,425.51
1438.652353,-179.57,-11.81,137.65,-0.20,-0.64,0.70,99.78,425.51,1,-2.15,425.47,7.39,425.84,425.51,0,0,426.27
1438.662161,-179.57,-11.81,137.65,-0.20,-0.64,0.70,99.78,425.51,1,-2.14,425.45,-12.79,425.90,425.51,0,0,425.51
1438.671820,-179.57,-11.81,137.65,-0.20,-0.64,0.70,99.78,425.51,1,-2.14,425.43,1.55,425.90,425.51,0,0,425.50
1438.681543,-179.57,-11.81,137.65,-0.20,-0.64,0.70,99.78,424.40,1,-2.24,425.37,16.34,425.88,424.40,0,0,428.39
1438.691230,-179.57,-11.81,137.65,-0.20,-0.64,0.70,99.78,425.51,1,-2.23,425.35,-7.16,425.88,425.51,0,0,425.51
1438.700982,-179.57,-11.81,137.65,-0.20,-0.64,0.70,99.76,428.82,1,-1.85,425.49,12.33,425.94,428.82,0,0,431.18
1438.710615,-179.57,-11.81,137.64,-0.20,-0.64,0.70,99.77,426.61,1,-1.73,425.52,4.17,425.96,426.61,0,0,426.80
1438.720344,-179.57,-11.81,137.64,-0.20,-0.64,0.70,99.76,428.82,1,-1.38,425.66,26.92,426.03,428.82,0,0,439.89
1438.729989,-179.57,-11.81,137.64,-0.20,-0.64,0.71,99.76,428.82,1,-1.04,425.79,6.41,426.03,428.82,0,0,429.46
1438.739658,-179.57,-11.81,137.64,-0.20,-0.64,0.70,99.78,425.51,1,-1.07,425.77,0.00,426.03,425.51,0,0,425.51
1438.749875,-179.57,-11.81,137.64,-0.20,-0.64,0.70,99.78,425.51,1,-1.10,425.75,-19.42,426.03,425.51,0,0,425.51
1438.759527,-179.57,-11.81,137.65,-0.20,-0.64,0.71,99.76,428.82,1,-0.76,425.88,19.99,426.10,428.82,0,0,434.89
1438.769171,-179.57,-11.80,137.65,-0.20,-0.64,0.70,99.76,428.82,1,-0.45,426.01,2.05,426.16,428.82,0,0,428.86
1438.778846,-179.57,-11.80,137.65,-0.20,-0.64,0.70,99.76,428.82,1,-0.15,426.13,2.35,426.23,428.82,0,0,428.90
1438.788561,-179.58,-11.80,137.65,-0.20,-0.63,0.70,99.76,428.82,1,0.14,426.26,13.11,426.30,428.67,0,0,431.35
1438.798253,-179.58,-11.80,137.65,-0.20,-0.63,0.70,99.76,428.82,1,0.42,426.38,5.95,426.36,428.70,0,0,429.37
1438.807898,-179.58,-11.80,137.65,-0.20,-0.64,0.70,99.76,428.82,1,0.68,426.49,17.50,426.43,428.73,0,0,433.51
1438.817924,-179.58,-11.81,137.65,-0.20,-0.64,0.70,99.79,422.46,1,0.25,426.31,-26.84,426.30,422.33,0,0,422.46
1438.827707,-179.58,-11.81,137.65,-0.20,-0.64,0.70,99.78,424.40,1,0.04,426.23,-28.57,426.37,424.24,0,0,424.40
1438.837758,-179.58,-11.81,137.65,-0.20,-0.64,0.70,99.78,425.51,1,-0.04,426.19,6.78,426.39,425.51,0,0,426.09
1438.852690,-179.58,-11.81,137.65,-0.20,-0.64,0.70,99.78,425.51,1,-0.11,426.16,-8.82,426.39,425.51,0,0,425.51
1438.862342,-179.58,-11.81,137.64,-0.20,-0.64,0.71,99.78,425.51,1,-0.18,426.13,-1.74,426.39,425.51,0,0,425.51
1438.872091,-179.58,-11.81,137.65,-0.20,-0.64,0.70,99.79,422.46,1,-0.58,425.96,-0.57,426.33,422.46,0,0,422.46
1438.881803,-179.58,-11.81,137.65,-0.20,-0.64,0.70,99.79,422.46,1,-0.95,425.79,-7.86,426.29,422.46,0,0,422.46
1438.891457,-179.58,-11.81,137.65,-0.20,-0.64,0.70,99.78,425.51,1,-0.98,425.77,-23.51,426.35,425.51,0,0,425.51
1438.901096,-179.58,-11.80,137.65,-0.20,-0.63,0.70,99.78,425.51,1,-1.01,425.75,-1.62,426.31,425.51,0,0,425.51
1438.910760,-179.58,-11.80,137.65,-0.20,-0.63,0.70,99.78,425.51,1,-1.03,425.73,-8.92,426.31,425.51,0,0,425.51
1438.920405,-179.58,-11.81,137.65,-0.20,-0.64,0.70,99.76,428.82,1,-0.70,425.86,10.98,426.37,428.82,0,0,430.64
1438.930605,-179.58,-11.81,137.65,-0.20,-0.64,0.70,99.78,425.51,1,-0.74,425.84,-1.16,426.43,425.51,0,0,425.51
1438.940360,-179.58,-11.81,137.65,-0.20,-0.64,0.70,99.76,428.82,1,-0.41,425.97,11.36,426.56,428.82,0,0,430.79
1438.954900,-179.58,-11.81,137.65,-0.20,-0.64,0.70,99.79,422.46,1,-0.79,425.80,11.37,426.43,422.46,0,0,424.44
1438.959744,-179.58,-11.81,137.65,-0.20,-0.64,0.70,99.79,422.46,1,-1.15,425.64,-17.73,426.31,422.46,0,0,422.46
1438.969392,-179.58,-11.81,137.65,-0.20,-0.64,0.70,99.78,425.51,1,-1.17,425.62,0.00,426.31,425.51,0,0,425.51
1438.979046,-179.59,-11.81,137.65,-0.20,-0.65,0.70,99.78,425.51,1,-1.18,425.61,0.00,426.24,425.51,0,0,425.51
1438.988733,-179.59,-11.81,137.65,-0.20,-0.65,0.70,99.78,425.51,1,-1.19,425.59,-10.93,426.17,425.51,0,0,425.51
1438.999036,-179.59,-11.81,137.64,-0.20,-0.64,0.70,99.78,425.51,1,-1.19,425.57,8.34,426.17,425.51,0,0,426.56
1439.008694,-179.59,-11.81,137.65,-0.20,-0.64,0.70,99.76,428.82,1,-0.84,425.71,4.10,426.20,428.82,0,0,429.00
1439.018644,-179.59,-11.81,137.65,-0.20,-0.64,0.70,99.78,425.51,1,-0.86,425.70,-20.93,426.20,425.51,0,0,425.51
1439.028294,-179.59,-11.80,137.65,-0.20,-0.64,0.70,99.79,422.46,1,-1.21,425.54,-11.95,426.07,422.46,0,0,422.46
1439.037968,-179.59,-11.80,137.65,-0.20,-0.64,0.70,99.79,422.46,1,-1.54,425.38,-11.95,425.94,422.46,0,0,422.46
1439.047868,-179.59,-11.81,137.64,-0.20,-0.64,0.70,99.78,425.51,1,-1.53,425.37,-23.97,425.94,425.51,0,0,425.51
1439.062580,-179.59,-11.81,137.64,-0.20,-0.64,0.70,99.78,425.51,1,-1.51,425.37,0.00,425.94,425.51,0,0,425.51
1439.072287,-179.59,-11.81,137.64,-0.20,-0.64,0.70,99.78,424.40,1,-1.62,425.31,-27.68,425.92,424.40,0,0,424.40
1439.081965,-179.59,-11.81,137.64,-0.20,-0.64,0.71,99.78,424.40,1,-1.71,425.25,7.61,425.90,424.40,0,0,425.23
1439.091646,-179.59,-11.81,137.64,-0.20,-0.64,0.71,99.78,424.40,1,-1.80,425.19,-12.96,425.90,424.40,0,0,424.40
1439.101525,-179.59,-11.81,137.64,-0.20,-0.64,0.70,99.78,425.51,1,-1.77,425.19,-20.93,425.83,425.51,0,0,425.51
1439.111179,-179.59,-11.81,137.64,-0.20,-0.64,0.71,99.78,425.51,1,-1.73,425.19,10.04,425.83,425.51,0,0,426.94
1439.120858,-179.59,-11.81,137.64,-0.19,-0.65,0.71,99.78,425.51,1,-1.70,425.19,3.66,425.79,425.51,0,0,425.59
1439.130505,-179.60,-11.80,137.64,-0.20,-0.64,0.70,99.78,425.51,1,-1.66,425.19,0.00,425.79,425.51,0,0,425.51
1439.140347,-179.60,-11.80,137.64,-0.20,-0.64,0.70,99.78,425.51,1,-1.62,425.18,-12.59,425.79,425.51,0,0,425.51
1439.150274,-179.60,-11.80,137.64,-0.20,-0.64,0.70,99.78,425.51,1,-1.59,425.18,11.33,425.79,425.51,0,0,427.46
1439.169720,-179.60,-11.80,137.64,-0.20,-0.63,0.70,99.78,425.51,1,-1.55,425.18,21.13,425.79,425.51,0,0,432.36
1439.179395,-179.60,-11.80,137.65,-0.20,-0.64,0.70,99.78,425.51,1,-1.51,425.18,10.75,425.79,425.51,0,0,427.23
1439.189035,-179.60,-11.80,137.65,-0.20,-0.64,0.70,99.79,422.46,1,-1.81,425.04,-21.15,425.75,422.46,0,0,422.46
1439.198736,-179.60,-11.80,137.65,-0.20,-0.64,0.70,99.78,425.51,1,-1.75,425.05,0.00,425.75,425.51,0,0,425.51
1439.208428,-179.60,-11.80,137.65,-0.20,-0.64,0.70,99.78,425.51,1,-1.70,425.05,4.07,425.68,425.51,0,0,425.68
1439.218071,-179.60,-11.81,137.65,-0.20,-0.64,0.70,99.78,425.51,1,-1.65,425.06,-10.49,425.66,425.51,0,0,425.51
1439.227829,-179.60,-11.81,137.65,-0.20,-0.64,0.70,99.79,422.46,1,-1.93,424.92,-10.76,425.53,422.46,0,0,422.46
1439.237707,-179.60,-11.81,137.65,-0.20,-0.64,0.70,99.78,425.51,1,-1.87,424.93,-14.62,425.47,425.51,0,0,425.51
1439.247669,-179.60,-11.81,137.65,-0.20,-0.64,0.70,99.78,425.51,1,-1.80,424.94,10.37,425.47,425.51,0,0,427.08
1439.257847,-179.60,-11.81,137.65,-0.20,-0.64,0.70,99.77,426.61,1,-1.62,425.00,14.07,425.49,426.61,0,0,429.62
1439.272806,-179.60,-11.81,137.64,-0.20,-0.64,0.70,99.78,425.51,1,-1.56,425.01,0.00,425.42,425.51,0,0,425.51
1439.278303,-179.61,-11.81,137.64,-0.20,-0.64,0.70,99.76,428.82,1,-1.14,425.17,12.02,425.42,428.82,0,0,431.05
1439.288516,-179.60,-11.81,137.64,-0.20,-0.64,0.70,99.78,425.51,1,-1.10,425.18,0.00,425.36,425.51,0,0,425.51
1439.298199,-179.60,-11.81,137.64,-0.20,-0.64,0.70,99.78,425.51,1,-1.07,425.18,0.00,425.29,425.51,0,0,425.51
1439.307856,-179.60,-11.81,137.64,-0.20,-0.64,0.70,99.76,428.82,1,-0.67,425.34,2.61,425.29,428.82,0,0,428.92
1439.318503,-179.60,-11.81,137.65,-0.20,-0.64,0.70,99.76,428.82,1,-0.29,425.50,24.55,425.29,428.82,0,0,438.08
1439.328167,-179.60,-11.80,137.65,-0.20,-0.64,0.70,99.78,425.51,1,-0.29,425.49,0.00,425.35,425.51,0,0,425.51
1439.337808,-179.60,-11.80,137.65,-0.20,-0.64,0.71,99.78,425.51,1,-0.29,425.49,9.46,425.37,425.51,0,0,426.89
1439.348900,-179.60,-11.80,137.65,-0.20,-0.64,0.70,99.78,425.51,1,-0.28,425.49,0.00,425.37,425.51,0,0,425.51
1439.358593,-179.60,-11.80,137.65,-0.20,-0.64,0.70,99.78,424.40,1,-0.40,425.44,7.39,425.35,424.40,0,0,425.17
1439.378834,-179.60,-11.81,137.65,-0.20,-0.64,0.70,99.78,425.51,1,-0.39,425.44,-6.22,425.35,425.51,0,0,425.51
1439.388517,-179.60,-11.81,137.65,-0.19,-0.64,0.70,99.78,425.51,1,-0.39,425.43,3.55,425.41,425.51,0,0,425.57
1439.398224,-179.60,-11.81,137.65,-0.20,-0.64,0.70,99.76,428.82,1,-0.02,425.59,11.42,425.54,428.82,0,0,430.81
1439.408561,-179.60,-11.81,137.65,-0.20,-0.64,0.70,99.76,428.82,1,0.34,425.74,15.75,425.60,428.69,0,0,432.66
1439.418270,-179.61,-11.80,137.65,-0.20,-0.64,0.71,99.76,428.82,1,0.67,425.89,0.00,425.67,428.73,0,0,428.82
1439.427923,-179.61,-11.80,137.65,-0.20,-0.64,0.70,99.78,425.51,1,0.63,425.88,10.53,425.67,425.41,0,0,427.14
1439.438042,-179.61,-11.80,137.65,-0.20,-0.64,0.70,99.78,425.51,1,0.59,425.86,0.00,425.60,425.40,0,0,425.51
1439.447766,-179.61,-11.80,137.65,-0.20,-0.64,0.70,99.78,425.51,1,0.55,425.85,-11.85,425.60,425.40,0,0,425.51
1439.457724,-179.61,-11.80,137.65,-0.20,-0.64,0.70,99.78,425.51,1,0.51,425.84,-1.39,425.54,425.40,0,0,425.51
1439.467724,-179.61,-11.80,137.65,-0.20,-0.64,0.70,99.78,425.51,1,0.47,425.83,11.14,425.60,425.39,0,0,427.38
1439.487561,-179.61,-11.80,137.65,-0.20,-0.64,0.70,99.78,425.51,1,0.44,425.82,0.00,425.66,425.39,0,0,425.51
1439.492391,-179.61,-11.80,137.65,-0.20,-0.64,0.70,99.78,425.51,1,0.40,425.81,10.22,425.66,425.39,0,0,427.02
1439.502059,-179.61,-11.81,137.65,-0.20,-0.64,0.70,99.78,425.51,1,0.37,425.80,3.86,425.66,425.38,0,0,425.63
1439.511826,-179.61,-11.81,137.65,-0.20,-0.64,0.70,99.78,425.51,1,0.34,425.79,-3.69,425.66,425.38,0,0,425.51
1439.521530,-179.61,-11.81,137.65,-0.20,-0.64,0.70,99.76,428.82,1,0.67,425.93,12.46,425.73,428.73,0,0,431.23
1439.531203,-179.62,-11.81,137.65,-0.20,-0.64,0.71,99.78,425.51,1,0.62,425.92,-3.00,425.66,425.41,0,0,425.51
1439.540887,-179.62,-11.81,137.65,-0.20,-0.64,0.71,99.76,428.82,1,0.94,426.06,10.33,425.73,428.75,0,0,430.37
1439.550533,-179.62,-11.81,137.65,-0.20,-0.64,0.71,99.78,425.51,1,0.87,426.04,-2.23,425.79,425.43,0,0,425.51
1439.560176,-179.62,-11.81,137.65,-0.20,-0.64,0.71,99.78,423.57,1,0.60,425.94,-0.43,425.81,423.47,0,0,423.57
1439.569860,-179.62,-11.81,137.65,-0.20,-0.64,0.71,99.78,425.51,1,0.56,425.92,0.00,425.81,425.40,0,0,425.51
1439.589271,-179.62,-11.80,137.65,-0.20,-0.64,0.70,99.78,424.40,1,0.39,425.86,-14.29,425.79,424.28,0,0,424.40
1439.598921,-179.62,-11.80,137.65,-0.20,-0.63,0.70,99.78,425.51,1,0.35,425.84,0.00,425.81,425.38,0,0,425.51
1439.608561,-179.62,-11.80,137.65,-0.20,-0.63,0.70,99.79,422.46,1,-0.02,425.69,-10.80,425.77,422.46,0,0,422.46
1439.618234,-179.62,-11.80,137.65,-0.20,-0.63,0.70,99.79,422.46,1,-0.37,425.54,-22.00,425.73,422.46,0,0,422.46
1439.627911,-179.62,-11.80,137.65,-0.20,-0.64,0.70,99.78,425.51,1,-0.37,425.53,-9.81,425.73,425.51,0,0,425.51
1439.637848,-179.62,-11.81,137.65,-0.20,-0.64,0.70,99.78,425.51,1,-0.38,425.53,0.00,425.73,425.51,0,0,425.51
1439.647798,-179.62,-11.81,137.65,-0.20,-0.64,0.70,99.76,428.82,1,-0.02,425.68,12.19,425.80,428.82,0,0,431.12
1439.657813,-179.63,-11.81,137.65,-0.20,-0.65,0.71,99.78,425.51,1,-0.04,425.67,-12.16,425.80,425.51,0,0,425.51
1439.667704,-179.63,-11.81,137.65,-0.20,-0.64,0.70,99.78,425.51,1,-0.05,425.66,13.57,425.80,425.51,0,0,428.26
1439.677859,-179.63,-11.81,137.65,-0.20,-0.64,0.70,99.76,428.82,1,0.29,425.81,0.00,425.86,428.69,0,0,428.82
1439.692717,-179.63,-11.81,137.65,-0.20,-0.64,0.70,99.76,428.82,1,0.62,425.95,22.54,425.93,428.72,0,0,436.66
1439.698250,-179.63,-11.80,137.65,-0.20,-0.64,0.70,99.79,422.46,1,0.24,425.80,-14.89,425.87,422.33,0,0,422.46
1439.707975,-179.63,-11.80,137.65,-0.20,-0.64,0.70,99.76,428.82,1,0.57,425.94,-5.32,426.00,428.72,0,0,428.82
1439.717819,-179.63,-11.80,137.65,-0.20,-0.64,0.70,99.79,422.46,1,0.19,425.78,-18.46,425.94,422.32,0,0,422.46
1439.733795,-179.63,-11.80,137.65,-0.20,-0.64,0.70,99.77,427.72,1,0.40,425.88,4.76,425.98,427.60,0,0,428.02
1439.738669,-179.63,-11.80,137.65,-0.20,-0.64,0.70,99.77,427.72,1,0.60,425.96,20.18,426.02,427.62,0,0,433.92
1439.748431,-179.63,-11.81,137.65,-0.20,-0.64,0.70,99.76,428.82,1,0.91,426.10,14.95,426.15,428.75,0,0,432.26
1439.759230,-179.63,-11.81,137.65,-0.20,-0.64,0.70,99.78,425.51,1,0.84,426.08,-9.47,426.15,425.43,0,0,425.51
1439.772296,-179.63,-11.81,137.65,-0.20,-0.64,0.70,99.76,428.82,1,1.14,426.22,12.33,426.22,428.77,0,0,431.17
1439.782405,-179.63,-11.81,137.65,-0.20,-0.65,0.71,99.78,425.51,1,1.06,426.20,-12.32,426.20,425.45,0,0,425.51
1439.808322,-179.63,-11.81,137.65,-0.20,-0.65,0.70,99.77,426.61,1,1.11,426.23,14.34,426.22,426.56,0,0,429.75
1439.818009,-179.63,-11.81,137.65,-0.20,-0.64,0.70,99.78,425.51,1,1.03,426.20,0.00,426.15,425.45,0,0,425.51
1439.828065,-179.63,-11.81,137.65,-0.20,-0.64,0.70,99.78,425.51,1,0.95,426.18,-11.04,426.15,425.44,0,0,425.51
1439.838128,-179.63,-11.80,137.65,-0.20,-0.64,0.70,99.76,428.82,1,1.24,426.31,0.00,426.22,428.78,0,0,428.82
1439.848164,-179.63,-11.80,137.65,-0.20,-0.64,0.70,99.78,425.51,1,1.15,426.29,20.41,426.15,425.46,0,0,431.86
1439.858182,-179.63,-11.80,137.65,-0.20,-0.64,0.70,99.78,425.51,1,1.06,426.26,-31.23,426.09,425.45,0,0,425.51
1439.868240,-179.63,-11.80,137.65,-0.20,-0.64,0.70,99.78,425.51,1,0.98,426.24,20.64,426.09,425.44,0,0,432.02
1439.878130,-179.63,-11.80,137.65,-0.20,-0.64,0.70,99.77,426.61,1,1.02,426.26,-7.33,426.11,426.55,0,0,426.61
1439.887941,-179.63,-11.80,137.65,-0.20,-0.64,0.70,99.78,424.40,1,0.81,426.19,-4.37,426.09,424.32,0,0,424.40
1439.917618,-179.63,-11.81,137.65,-0.19,-0.64,0.71,99.78,425.51,1,0.74,426.16,1.30,426.11,425.42,0,0,425.48
1439.927795,-179.63,-11.81,137.65,-0.20,-0.65,0.71,99.77,426.61,1,0.78,426.19,14.37,426.13,426.53,0,0,429.76
1439.938554,-179.63,-11.81,137.65,-0.20,-0.64,0.71,99.76,428.82,1,1.07,426.32,10.09,426.20,428.77,0,0,430.28
1439.948217,-179.64,-11.81,137.65,-0.20,-0.64,0.70,99.78,425.51,1,0.98,426.29,20.63,426.13,425.44,0,0,432.02
1439.958092,-179.64,-11.81,137.65,-0.20,-0.64,0.70,99.78,425.51,1,0.89,426.27,-3.69,426.06,425.43,0,0,425.51
1439.967879,-179.64,-11.81,137.65,-0.20,-0.63,0.70,99.78,425.51,1,0.81,426.24,3.24,426.00,425.43,0,0,425.51
1439.977901,-179.64,-11.80,137.65,-0.20,-0.64,0.70,99.78,425.51,1,0.73,426.21,-9.74,426.00,425.42,0,0,425.51
1439.987742,-179.64,-11.80,137.65,-0.20,-0.64,0.70,99.78,425.51,1,0.65,426.19,-11.08,426.00,425.41,0,0,425.51
1439.997803,-179.64,-11.81,137.65,-0.20,-0.64,0.70,99.78,425.51,1,0.58,426.16,9.73,426.00,425.40,0,0,426.82
1440.022433,-179.64,-11.81,137.65,-0.19,-0.64,0.70,99.78,425.51,1,0.50,426.14,-9.73,426.00,425.40,0,0,425.51
1440.032150,-179.64,-11.81,137.65,-0.20,-0.64,0.71,99.78,425.51,1,0.43,426.11,-10.02,426.00,425.39,0,0,425.51
1440.041801,-179.64,-11.81,137.65,-0.20,-0.64,0.70,99.78,425.51,1,0.37,426.09,5.57,426.00,425.38,0,0,425.98
1440.051589,-179.64,-11.81,137.65,-0.20,-0.64,0.70,99.78,425.51,1,0.30,426.06,-3.11,426.00,425.38,0,0,425.51
1440.061269,-179.64,-11.81,137.65,-0.20,-0.64,0.70,99.78,425.51,1,0.24,426.04,5.68,426.00,425.37,0,0,426.00
1440.070912,-179.65,-11.80,137.64,-0.20,-0.64,0.70,99.78,425.51,1,0.18,426.02,-9.87,426.00,425.36,0,0,425.51
1440.080629,-179.65,-11.80,137.64,-0.20,-0.64,0.70,99.78,425.51,1,0.13,426.00,-14.59,425.93,425.36,0,0,425.51
1440.090326,-179.65,-11.80,137.64,-0.20,-0.64,0.70,99.78,425.51,1,0.07,425.97,0.00,425.93,425.35,0,0,425.51
1440.099996,-179.65,-11.80,137.64,-0.20,-0.64,0.70,99.78,425.51,1,0.02,425.95,0.00,425.86,425.35,0,0,425.51
1440.124409,-179.65,-11.80,137.65,-0.20,-0.64,0.71,99.78,425.51,1,-0.03,425.93,-8.92,425.86,425.51,0,0,425.51
1440.129237,-179.65,-11.80,137.65,-0.20,-0.64,0.70,99.78,425.51,1,-0.07,425.91,0.00,425.90,425.51,0,0,425.51
1440.138911,-179.65,-11.80,137.65,-0.20,-0.64,0.70,99.78,425.51,1,-0.12,425.89,-3.26,425.90,425.51,0,0,425.51
1440.148592,-179.65,-11.80,137.65,-0.20,-0.64,0.70,99.78,425.51,1,-0.16,425.87,0.00,425.93,425.51,0,0,425.51
1440.158307,-179.65,-11.80,137.65,-0.20,-0.64,0.70,99.78,424.40,1,-0.32,425.80,-4.07,425.90,424.40,0,0,424.40
1440.168044,-179.65,-11.80,137.65,-0.20,-0.64,0.70,99.78,425.51,1,-0.35,425.79,-8.99,425.96,425.51,0,0,425.51
1440.177926,-179.65,-11.80,137.65,-0.20,-0.64,0.70,99.78,425.51,1,-0.38,425.77,0.00,426.03,425.51,0,0,425.51
1440.187939,-179.66,-11.80,137.65,-0.20,-0.64,0.70,99.78,425.51,1,-0.41,425.75,0.00,426.03,425.51,0,0,425.51
1440.197915,-179.66,-11.80,137.65,-0.20,-0.64,0.71,99.78,425.51,1,-0.44,425.74,0.00,426.03,425.51,0,0,425.51
1440.208043,-179.66,-11.80,137.65,-0.20,-0.64,0.71,99.78,425.51,1,-0.46,425.72,-3.02,425.96,425.51,0,0,425.51
1440.232921,-179.66,-11.80,137.65,-0.20,-0.64,0.70,99.76,428.82,1,-0.12,425.86,13.91,426.03,428.82,0,0,431.74
1440.242629,-179.66,-11.80,137.65,-0.20,-0.64,0.70,99.78,425.51,1,-0.16,425.85,0.00,426.03,425.51,0,0,425.51
1440.252469,-179.67,-11.80,137.65,-0.20,-0.64,0.70,99.78,425.51,1,-0.20,425.83,-3.40,425.96,425.51,0,0,425.51
1440.262254,-179.67,-11.80,137.65,-0.20,-0.64,0.70,99.78,425.51,1,-0.23,425.81,-10.27,425.89,425.51,0,0,425.51
1440.271922,-179.67,-11.80,137.65,-0.20,-0.64,0.70,99.78,425.51,1,-0.27,425.79,0.00,425.95,425.51,0,0,425.51
1440.281601,-179.67,-11.80,137.65,-0.20,-0.64,0.70,99.76,428.82,1,0.06,425.93,11.62,425.95,428.67,0,0,430.89
1440.291281,-179.67,-11.80,137.65,-0.20,-0.64,0.70,99.79,422.46,1,-0.31,425.77,-10.66,425.95,422.46,0,0,422.46
1440.301059,-179.67,-11.80,137.65,-0.20,-0.64,0.70,99.78,425.51,1,-0.34,425.76,3.88,425.91,425.51,0,0,425.64
1440.310706,-179.67,-11.80,137.65,-0.20,-0.64,0.70,99.78,425.51,1,-0.37,425.74,-3.25,425.86,425.51,0,0,425.51
1440.331545,-179.67,-11.80,137.65,-0.20,-0.64,0.71,99.76,428.82,1,-0.03,425.88,10.79,425.86,428.82,0,0,430.56
1440.341210,-179.67,-11.80,137.65,-0.20,-0.64,0.71,99.76,428.82,1,0.29,426.02,10.82,425.93,428.69,0,0,430.57
1440.350882,-179.68,-11.80,137.65,-0.20,-0.64,0.70,99.76,428.82,1,0.59,426.15,10.84,425.93,428.72,0,0,430.58
1440.360527,-179.68,-11.80,137.65,-0.20,-0.64,0.71,99.79,422.46,1,0.19,425.99,-9.97,425.87,422.32,0,0,422.46
1440.370185,-179.68,-11.80,137.65,-0.20,-0.64,0.70,99.78,425.51,1,0.14,425.97,-12.08,425.85,425.36,0,0,425.51
1440.379849,-179.68,-11.80,137.65,-0.20,-0.64,0.70,99.76,428.82,1,0.45,426.10,21.74,425.91,428.71,0,0,436.10
1440.389585,-179.68,-11.80,137.65,-0.20,-0.64,0.70,99.78,425.51,1,0.38,426.08,0.00,425.91,425.38,0,0,425.51
1440.399250,-179.68,-11.80,137.65,-0.20,-0.64,0.70,99.78,425.51,1,0.32,426.05,0.00,425.85,425.38,0,0,425.51
1440.408913,-179.68,-11.80,137.65,-0.20,-0.64,0.70,99.76,428.82,1,0.62,426.19,12.10,425.91,428.72,0,0,431.08
1440.418556,-179.68,-11.80,137.65,-0.20,-0.64,0.70,99.76,428.82,1,0.91,426.31,0.00,425.98,428.75,0,0,428.82
1440.442774,-179.69,-11.80,137.65,-0.20,-0.64,0.70,99.78,425.51,1,0.82,426.29,20.58,425.98,425.43,0,0,431.99
1440.452428,-179.69,-11.80,137.65,-0.20,-0.64,0.70,99.78,425.51,1,0.73,426.26,-9.38,425.96,425.42,0,0,425.51
1440.462103,-179.69,-11.80,137.65,-0.20,-0.64,0.70,99.78,425.51,1,0.65,426.23,0.00,425.98,425.41,0,0,425.51
1440.472031,-179.69,-11.80,137.65,-0.20,-0.64,0.70,99.78,425.51,1,0.57,426.20,-11.80,425.98,425.40,0,0,425.51
1440.481674,-179.69,-11.80,137.65,-0.20,-0.64,0.70,99.78,425.51,1,0.50,426.17,0.96,425.96,425.39,0,0,425.44
1440.491353,-179.69,-11.80,137.65,-0.20,-0.64,0.70,99.78,425.51,1,0.42,426.15,-2.23,425.89,425.39,0,0,425.51
1440.501087,-179.69,-11.80,137.65,-0.20,-0.64,0.71,99.78,425.51,1,0.35,426.12,20.40,425.89,425.38,0,0,431.86
1440.510727,-179.69,-11.80,137.65,-0.20,-0.64,0.70,99.78,425.51,1,0.28,426.10,-8.81,425.89,425.37,0,0,425.51
1440.520404,-179.69,-11.80,137.65,-0.20,-0.64,0.70,99.78,425.51,1,0.22,426.07,-11.79,425.89,425.37,0,0,425.51
1440.617245,-179.70,-11.81,137.65,-0.20,-0.64,0.70,99.78,425.51,1,0.16,426.05,9.65,425.89,425.36,0,0,426.95
1440.622069,-179.70,-11.81,137.65,-0.20,-0.64,0.70,99.78,425.51,1,0.10,426.02,-10.58,425.89,425.35,0,0,425.51
1440.782918,-179.73,-11.80,137.65,-0.20,-0.64,0.70,99.79,422.46,1,-0.29,425.86,-8.50,425.83,422.46,0,0,422.46
1440.865131,-179.73,-11.80,137.66,-0.20,-0.64,0.70,99.78,425.51,1,-0.33,425.84,6.88,425.83,425.51,0,0,426.12
1440.869957,-179.73,-11.80,137.66,-0.19,-0.64,0.70,99.78,425.51,1,-0.36,425.82,10.61,425.83,425.51,0,0,427.17
1440.879598,-179.73,-11.80,137.66,-0.19,-0.64,0.70,99.78,425.51,1,-0.40,425.80,0.00,425.83,425.51,0,0,425.51
1440.889240,-179.73,-11.80,137.66,-0.20,-0.64,0.70,99.76,428.82,1,-0.07,425.94,-5.82,425.90,428.82,0,0,428.82
1440.908598,-179.74,-11.80,137.66,-0.20,-0.64,0.70,99.78,425.51,1,-0.12,425.92,8.90,425.90,425.51,0,0,426.73
1440.918753,-179.74,-11.80,137.66,-0.20,-0.64,0.70,99.78,425.51,1,-0.16,425.90,0.00,425.90,425.51,0,0,425.51
1440.928396,-179.74,-11.80,137.65,-0.20,-0.64,0.70,99.79,422.46,1,-0.54,425.74,-3.48,425.84,422.46,0,0,422.46
1440.938050,-179.74,-11.80,137.65,-0.20,-0.64,0.70,99.79,422.46,1,-0.89,425.58,-13.85,425.78,422.46,0,0,422.46
1440.947698,-179.74,-11.80,137.65,-0.20,-0.64,0.70,99.78,425.51,1,-0.90,425.57,-10.37,425.78,425.51,0,0,425.51
1440.958353,-179.74,-11.80,137.65,-0.20,-0.64,0.70,99.77,426.61,1,-0.78,425.61,-9.11,425.80,426.61,0,0,426.61
1440.967994,-179.74,-11.80,137.65,-0.20,-0.64,0.70,99.77,426.61,1,-0.67,425.65,11.09,425.82,426.61,0,0,428.47
1440.977956,-179.74,-11.81,137.65,-0.20,-0.64,0.70,99.78,425.51,1,-0.69,425.63,0.00,425.82,425.51,0,0,425.51
1440.987706,-179.74,-11.81,137.65,-0.20,-0.64,0.71,99.79,422.46,1,-1.03,425.48,-6.84,425.76,422.46,0,0,422.46
1441.002457,-179.74,-11.81,137.65,-0.20,-0.64,0.70,99.76,428.82,1,-0.67,425.62,8.21,425.85,428.82,0,0,429.83
1441.021797,-179.74,-11.80,137.65,-0.19,-0.64,0.70,99.78,425.51,1,-0.68,425.61,0.00,425.85,425.51,0,0,425.51
1441.031450,-179.75,-11.80,137.65,-0.20,-0.64,0.70,99.77,426.61,1,-0.57,425.65,0.04,425.87,426.61,0,0,426.45
1441.041134,-179.75,-11.80,137.65,-0.20,-0.64,0.70,99.78,425.51,1,-0.59,425.64,-14.51,425.87,425.51,0,0,425.51
1441.050793,-179.75,-11.80,137.65,-0.20,-0.64,0.70,99.76,428.82,1,-0.24,425.78,15.37,425.94,428.82,0,0,432.47
1441.060750,-179.75,-11.80,137.65,-0.20,-0.64,0.70,99.78,425.51,1,-0.27,425.77,0.00,425.94,425.51,0,0,425.51
1441.070419,-179.75,-11.80,137.65,-0.20,-0.64,0.70,99.78,425.51,1,-0.30,425.75,10.71,425.87,425.51,0,0,427.21
1441.080061,-179.75,-11.80,137.65,-0.20,-0.64,0.70,99.78,425.51,1,-0.32,425.74,7.37,425.87,425.51,0,0,426.27
1441.090491,-179.75,-11.81,137.65,-0.20,-0.64,0.70,99.76,428.82,1,0.01,425.88,8.28,425.94,428.66,0,0,429.86
1441.100395,-179.75,-11.81,137.65,-0.20,-0.64,0.70,99.76,428.82,1,0.34,426.02,7.78,426.00,428.69,0,0,429.71
1441.111362,-179.75,-11.81,137.65,-0.20,-0.64,0.70,99.78,425.51,1,0.28,426.00,-2.65,426.00,425.37,0,0,425.51
1441.135677,-179.75,-11.81,137.65,-0.20,-0.64,0.70,99.78,425.51,1,0.23,425.98,1.21,425.94,425.37,0,0,425.47
1441.140503,-179.75,-11.81,137.65,-0.20,-0.64,0.70,99.76,428.82,1,0.54,426.11,20.80,426.06,428.71,0,0,435.45
1441.150173,-179.75,-11.81,137.65,-0.20,-0.64,0.70,99.76,428.82,1,0.83,426.24,-4.10,426.13,428.74,0,0,428.82
1441.159988,-179.76,-11.80,137.65,-0.20,-0.64,0.70,99.76,428.82,1,1.11,426.37,16.35,426.20,428.77,0,0,432.82
1441.169671,-179.76,-11.80,137.65,-0.20,-0.64,0.70,99.78,425.51,1,1.02,426.34,2.37,426.13,425.45,0,0,425.58
1441.179589,-179.76,-11.80,137.65,-0.20,-0.64,0.70,99.78,425.51,1,0.92,426.31,3.32,426.06,425.44,0,0,425.53
1441.189465,-179.76,-11.80,137.65,-0.20,-0.64,0.70,99.78,425.51,1,0.83,426.28,-11.95,426.00,425.43,0,0,425.51
1441.199109,-179.76,-11.80,137.65,-0.20,-0.64,0.70,99.78,425.51,1,0.75,426.26,9.68,426.06,425.42,0,0,426.80
1441.208773,-179.76,-11.80,137.65,-0.20,-0.64,0.70,99.78,425.51,1,0.67,426.23,-9.67,426.06,425.41,0,0,425.51
1441.218630,-179.76,-11.80,137.65,-0.20,-0.64,0.70,99.78,425.51,1,0.59,426.20,0.00,425.99,425.40,0,0,425.51
1441.244906,-179.76,-11.80,137.65,-0.20,-0.64,0.70,99.76,428.82,1,0.87,426.33,0.00,426.06,428.75,0,0,428.82
1441.249737,-179.76,-11.80,137.65,-0.20,-0.64,0.70,99.76,428.82,1,1.14,426.45,19.61,426.12,428.77,0,0,434.62
1441.259431,-179.76,-11.80,137.65,-0.20,-0.64,0.70,99.78,425.51,1,1.04,426.42,19.58,426.06,425.45,0,0,431.29
1441.269140,-179.76,-11.80,137.65,-0.20,-0.64,0.70,99.78,425.51,1,0.94,426.39,0.00,425.99,425.44,0,0,425.51
1441.278813,-179.76,-11.80,137.65,-0.20,-0.64,0.70,99.78,425.51,1,0.84,426.35,-15.10,425.99,425.43,0,0,425.51
1441.288453,-179.76,-11.80,137.65,-0.20,-0.64,0.70,99.78,425.51,1,0.75,426.32,-5.58,425.99,425.42,0,0,425.51
1441.298216,-179.76,-11.80,137.65,-0.20,-0.64,0.70,99.78,425.51,1,0.66,426.29,-2.37,425.99,425.41,0,0,425.51
1441.307883,-179.76,-11.80,137.65,-0.20,-0.64,0.70,99.76,428.82,1,0.93,426.42,30.44,426.06,428.75,0,0,442.97
1441.318174,-179.76,-11.80,137.65,-0.20,-0.64,0.70,99.76,428.82,1,1.19,426.54,2.05,426.12,428.78,0,0,428.87
1441.327856,-179.76,-11.80,137.65,-0.20,-0.64,0.71,99.76,428.82,1,1.44,426.66,11.98,426.19,428.80,0,0,431.03
1441.352360,-179.77,-11.80,137.65,-0.20,-0.64,0.70,99.78,425.51,1,1.31,426.62,-3.50,426.19,425.48,0,0,425.51
1441.362068,-179.77,-11.80,137.65,-0.20,-0.64,0.70,99.78,425.51,1,1.19,426.58,0.00,426.19,425.46,0,0,425.51
1441.371749,-179.77,-11.80,137.65,-0.20,-0.64,0.70,99.78,425.51,1,1.07,426.54,-10.49,426.19,425.45,0,0,425.51
1441.381433,-179.77,-11.80,137.65,-0.20,-0.64,0.70,99.78,425.51,1,0.96,426.50,-12.14,426.19,425.44,0,0,425.51
1441.391139,-179.77,-11.80,137.65,-0.20,-0.64,0.70,99.78,425.51,1,0.85,426.46,-2.22,426.19,425.43,0,0,425.51
1441.400832,-179.77,-11.80,137.65,-0.20,-0.64,0.70,99.79,422.46,1,0.41,426.28,-0.98,426.19,422.35,0,0,422.46
1441.410492,-179.77,-11.80,137.65,-0.20,-0.64,0.70,99.79,422.46,1,-0.00,426.11,-20.57,426.13,422.46,0,0,422.46
1441.420160,-179.77,-11.80,137.65,-0.20,-0.64,0.70,99.78,425.51,1,-0.07,426.08,-9.82,426.13,425.51,0,0,425.51
1441.429888,-179.77,-11.80,137.65,-0.20,-0.64,0.70,99.78,425.51,1,-0.13,426.05,0.00,426.13,425.51,0,0,425.51
1441.454526,-179.77,-11.80,137.65,-0.20,-0.64,0.70,99.78,425.51,1,-0.19,426.03,0.00,426.06,425.51,0,0,425.51
1441.460319,-179.77,-11.80,137.65,-0.20,-0.64,0.70,99.78,425.51,1,-0.25,426.00,-21.39,426.06,425.51,0,0,425.51
1441.470059,-179.77,-11.80,137.65,-0.20,-0.64,0.70,99.78,425.51,1,-0.30,425.98,-10.91,426.06,425.51,0,0,425.51
1441.479713,-179.77,-11.80,137.65,-0.20,-0.64,0.70,99.79,422.46,1,-0.69,425.81,-20.93,426.06,422.46,0,0,422.46
1441.489436,-179.77,-11.80,137.65,-0.20,-0.64,0.70,99.79,422.46,1,-1.05,425.65,-0.61,426.06,422.46,0,0,422.46
1441.499114,-179.78,-11.80,137.65,-0.20,-0.64,0.70,99.79,422.46,1,-1.40,425.49,-11.09,426.00,422.46,0,0,422.46
1441.508819,-179.78,-11.80,137.65,-0.20,-0.64,0.70,99.78,425.51,1,-1.39,425.47,0.00,425.98,425.51,0,0,425.51
1441.518505,-179.78,-11.80,137.65,-0.20,-0.64,0.70,99.78,425.51,1,-1.39,425.46,0.00,425.96,425.51,0,0,425.51
1441.528157,-179.78,-11.80,137.65,-0.20,-0.64,0.71,99.78,425.51,1,-1.38,425.45,0.00,425.96,425.51,0,0,425.51
1441.537837,-179.78,-11.80,137.65,-0.20,-0.64,0.70,99.77,426.61,1,-1.25,425.49,15.13,426.04,426.61,0,0,430.14
1441.562976,-179.79,-11.80,137.65,-0.20,-0.64,0.70,99.78,425.51,1,-1.25,425.48,-10.41,425.98,425.51,0,0,425.51
1441.567808,-179.79,-11.80,137.65,-0.20,-0.64,0.70,99.78,425.51,1,-1.25,425.47,-19.77,425.98,425.51,0,0,425.51
1441.577688,-179.79,-11.80,137.65,-0.20,-0.64,0.70,99.77,426.61,1,-1.12,425.51,3.74,425.98,426.61,0,0,426.72
1441.587911,-179.79,-11.80,137.65,-0.20,-0.64,0.70,99.78,425.51,1,-1.12,425.50,0.00,425.98,425.51,0,0,425.51
1441.597881,-179.79,-11.80,137.65,-0.20,-0.64,0.70,99.78,425.51,1,-1.12,425.49,0.00,425.91,425.51,0,0,425.51
1441.607697,-179.79,-11.80,137.65,-0.20,-0.64,0.71,99.78,425.51,1,-1.12,425.48,0.00,425.91,425.51,0,0,425.51
1441.617686,-179.79,-11.80,137.65,-0.20,-0.64,0.70,99.76,428.82,1,-0.75,425.63,23.03,425.98,428.82,0,0,436.88
1441.628100,-179.79,-11.80,137.65,-0.20,-0.64,0.70,99.78,425.51,1,-0.76,425.61,-7.53,425.98,425.51,0,0,425.51
1441.637743,-179.79,-11.80,137.65,-0.20,-0.64,0.71,99.78,425.51,1,-0.77,425.60,-7.59,425.91,425.51,0,0,425.51
1441.647650,-179.79,-11.80,137.65,-0.20,-0.64,0.70,99.76,428.82,1,-0.42,425.74,-6.62,425.91,428.82,0,0,428.82
1441.677093,-179.79,-11.80,137.65,-0.20,-0.64,0.70,99.78,425.51,1,-0.45,425.73,0.00,425.91,425.51,0,0,425.51
1441.681925,-179.79,-11.80,137.65,-0.20,-0.64,0.70,99.79,422.46,1,-0.80,425.57,-9.89,425.85,422.46,0,0,422.46
1441.691572,-179.79,-11.80,137.65,-0.19,-0.64,0.70,99.78,425.51,1,-0.81,425.56,-3.59,425.78,425.51,0,0,425.51
1441.701255,-179.79,-11.80,137.65,-0.20,-0.64,0.70,99.78,425.51,1,-0.81,425.55,3.53,425.72,425.51,0,0,425.57
1441.710946,-179.80,-11.80,137.65,-0.20,-0.64,0.71,99.78,425.51,1,-0.82,425.54,0.00,425.65,425.51,0,0,425.51
1441.720595,-179.80,-11.80,137.65,-0.20,-0.64,0.71,99.78,425.51,1,-0.82,425.53,5.24,425.65,425.51,0,0,425.91
1441.730225,-179.80,-11.80,137.65,-0.20,-0.64,0.71,99.78,425.51,1,-0.82,425.52,12.40,425.65,425.51,0,0,427.89
1441.739906,-179.80,-11.80,137.65,-0.20,-0.64,0.70,99.76,428.82,1,-0.46,425.67,11.67,425.72,428.82,0,0,430.91
1441.749585,-179.80,-11.80,137.65,-0.20,-0.64,0.70,99.79,422.46,1,-0.81,425.51,-10.72,425.65,422.46,0,0,422.46
1441.774529,-179.80,-11.80,137.65,-0.20,-0.64,0.70,99.76,428.82,1,-0.45,425.66,0.00,425.72,428.82,0,0,428.82
1441.779364,-179.80,-11.80,137.65,-0.20,-0.64,0.70,99.78,425.51,1,-0.46,425.65,10.53,425.72,425.51,0,0,427.14
1441.789035,-179.80,-11.80,137.65,-0.20,-0.64,0.70,99.78,425.51,1,-0.48,425.64,0.00,425.65,425.51,0,0,425.51
1441.798678,-179.80,-11.81,137.65,-0.20,-0.64,0.70,99.76,428.82,1,-0.13,425.78,9.62,425.65,428.82,0,0,430.26
1441.808353,-179.80,-11.81,137.65,-0.20,-0.64,0.70,99.78,425.51,1,-0.16,425.77,20.09,425.65,425.51,0,0,431.64
1441.818221,-179.80,-11.80,137.65,-0.20,-0.64,0.71,99.78,425.51,1,-0.19,425.75,19.70,425.65,425.51,0,0,431.37
1441.828314,-179.80,-11.80,137.65,-0.20,-0.64,0.71,99.78,425.51,1,-0.22,425.74,-8.78,425.65,425.51,0,0,425.51
1441.838024,-179.80,-11.80,137.65,-0.20,-0.64,0.71,99.78,425.51,1,-0.24,425.73,0.00,425.65,425.51,0,0,425.51
1441.847741,-179.80,-11.80,137.65,-0.20,-0.64,0.70,99.78,425.51,1,-0.27,425.72,0.00,425.65,425.51,0,0,425.51
1441.858103,-179.80,-11.80,137.65,-0.20,-0.64,0.70,99.77,426.61,1,-0.17,425.75,0.83,425.61,426.61,0,0,426.53
1441.887150,-179.81,-11.80,137.65,-0.20,-0.64,0.70,99.78,425.51,1,-0.20,425.74,0.00,425.54,425.51,0,0,425.51
1441.892179,-179.81,-11.80,137.65,-0.20,-0.64,0.70,99.78,425.51,1,-0.22,425.73,-10.89,425.48,425.51,0,0,425.51
1441.901990,-179.81,-11.81,137.65,-0.20,-0.64,0.70,99.78,425.51,1,-0.25,425.72,16.79,425.48,425.51,0,0,429.77
1441.911791,-179.81,-11.81,137.65,-0.20,-0.64,0.70,99.78,425.51,1,-0.27,425.70,-21.48,425.48,425.51,0,0,425.51
1441.921436,-179.81,-11.81,137.65,-0.20,-0.64,0.71,99.78,425.51,1,-0.29,425.69,9.38,425.48,425.51,0,0,426.87
1441.931086,-179.81,-11.81,137.65,-0.19,-0.64,0.71,99.76,428.82,1,0.05,425.84,11.67,425.54,428.67,0,0,430.91
1441.940735,-179.81,-11.81,137.65,-0.19,-0.64,0.71,99.77,426.61,1,0.14,425.87,-17.45,425.57,426.46,0,0,426.61
1441.950412,-179.81,-11.81,137.65,-0.19,-0.65,0.71,99.78,425.51,1,0.10,425.86,9.72,425.63,425.35,0,0,426.82
1441.960055,-179.82,-11.80,137.65,-0.19,-0.65,0.70,99.78,425.51,1,0.06,425.84,0.00,425.69,425.35,0,0,425.51
1441.989405,-179.82,-11.80,137.65,-0.20,-0.64,0.71,99.76,428.82,1,0.38,425.98,0.57,425.75,428.70,0,0,428.72
1441.999057,-179.82,-11.80,137.65,-0.20,-0.63,0.70,99.79,422.46,1,-0.00,425.82,-9.44,425.69,422.46,0,0,422.46
1442.008898,-179.82,-11.80,137.65,-0.20,-0.63,0.71,99.78,425.51,1,-0.04,425.81,9.74,425.69,425.51,0,0,426.83
1442.018611,-179.83,-11.80,137.65,-0.20,-0.63,0.69,99.76,428.82,1,0.29,425.95,6.89,425.76,428.69,0,0,429.44
1442.028295,-179.83,-11.80,137.65,-0.20,-0.63,0.70,99.79,422.46,1,-0.09,425.79,-7.25,425.70,422.46,0,0,422.46
1442.037967,-179.83,-11.80,137.65,-0.20,-0.63,0.70,99.79,422.46,1,-0.45,425.63,-10.43,425.70,422.46,0,0,422.46
1442.047880,-179.83,-11.80,137.65,-0.20,-0.64,0.70,99.78,423.57,1,-0.67,425.53,-6.63,425.72,423.57,0,0,423.57
1442.057678,-179.83,-11.81,137.65,-0.20,-0.64,0.70,99.76,428.82,1,-0.31,425.68,11.36,425.85,428.82,0,0,430.79
1442.067799,-179.83,-11.81,137.65,-0.20,-0.64,0.70,99.77,426.61,1,-0.21,425.72,-5.87,425.87,426.61,0,0,426.61
1442.097443,-179.83,-11.81,137.65,-0.19,-0.65,0.71,99.76,428.82,1,0.13,425.86,8.85,425.94,428.67,0,0,430.03
1442.102279,-179.83,-11.81,137.65,-0.19,-0.65,0.71,99.78,425.51,1,0.09,425.85,-3.42,425.94,425.35,0,0,425.51
1442.111922,-179.84,-11.81,137.65,-0.19,-0.65,0.71,99.76,428.82,1,0.41,425.99,13.69,425.98,428.70,0,0,431.63
1442.121719,-179.84,-11.81,137.65,-0.20,-0.64,0.70,99.78,425.51,1,0.36,425.97,0.00,425.98,425.38,0,0,425.51
1442.131520,-179.84,-11.80,137.65,-0.20,-0.64,0.70,99.76,428.82,1,0.67,426.10,-10.27,426.05,428.73,0,0,428.82
1442.141516,-179.84,-11.80,137.65,-0.20,-0.64,0.70,99.76,428.82,1,0.97,426.24,31.46,426.09,428.76,0,0,443.98
1442.151168,-179.84,-11.79,137.65,-0.20,-0.63,0.69,99.78,425.51,1,0.89,426.21,-8.41,426.09,425.43,0,0,425.51
1442.160819,-179.84,-11.79,137.65,-0.20,-0.63,0.69,99.78,425.51,1,0.81,426.19,-11.66,426.09,425.43,0,0,425.51
1442.170621,-179.84,-11.79,137.65,-0.20,-0.63,0.69,99.78,425.51,1,0.73,426.16,19.86,426.09,425.42,0,0,431.49
1442.199759,-179.85,-11.80,137.65,-0.20,-0.64,0.70,99.76,428.82,1,1.02,426.29,11.22,426.09,428.76,0,0,430.73
1442.209402,-179.85,-11.81,137.65,-0.20,-0.64,0.71,99.76,428.82,1,1.30,426.42,4.73,426.16,428.79,0,0,429.12
1442.219047,-179.85,-11.81,137.65,-0.20,-0.64,0.70,99.77,426.61,1,1.32,426.44,-12.87,426.18,426.58,0,0,426.61
1442.228988,-179.85,-11.81,137.65,-0.19,-0.64,0.71,99.78,425.51,1,1.21,426.41,6.59,426.11,425.47,0,0,426.03
1442.238796,-179.85,-11.81,137.65,-0.19,-0.64,0.70,99.78,425.51,1,1.11,426.38,-8.39,426.11,425.46,0,0,425.51
1442.248777,-179.85,-11.80,137.65,-0.19,-0.64,0.70,99.78,425.51,1,1.02,426.35,8.93,426.17,425.45,0,0,426.74
1442.258466,-179.85,-11.80,137.65,-0.19,-0.64,0.70,99.78,425.51,1,0.92,426.32,-11.31,426.17,425.44,0,0,425.51
1442.268654,-179.85,-11.80,137.65,-0.20,-0.64,0.70,99.78,425.51,1,0.83,426.29,0.00,426.17,425.43,0,0,425.51
1442.278304,-179.85,-11.80,137.65,-0.20,-0.64,0.70,99.76,428.82,1,1.11,426.42,-3.05,426.24,428.77,0,0,428.82
1442.312331,-179.85,-11.80,137.65,-0.20,-0.64,0.70,99.78,425.51,1,1.01,426.39,-0.55,426.24,425.45,0,0,425.51
1442.322012,-179.85,-11.80,137.65,-0.20,-0.64,0.71,99.78,425.51,1,0.91,426.35,9.14,426.24,425.44,0,0,426.80
1442.331681,-179.85,-11.81,137.65,-0.20,-0.64,0.71,99.78,425.51,1,0.82,426.32,-10.25,426.17,425.43,0,0,425.51
1442.341339,-179.86,-11.81,137.66,-0.20,-0.64,0.71,99.79,422.46,1,0.39,426.15,0.49,426.17,422.34,0,0,422.35
1442.351182,-179.86,-11.81,137.65,-0.20,-0.64,0.71,99.78,425.51,1,0.32,426.12,-10.95,426.11,425.38,0,0,425.51
1442.361272,-179.86,-11.81,137.65,-0.20,-0.64,0.71,99.78,425.51,1,0.26,426.10,-10.92,426.11,425.37,0,0,425.51
1442.371107,-179.86,-11.80,137.65,-0.20,-0.64,0.70,99.78,425.51,1,0.19,426.07,13.91,426.11,425.36,0,0,428.43
1442.380778,-179.86,-11.80,137.65,-0.20,-0.64,0.70,99.76,428.82,1,0.49,426.20,22.37,426.11,428.71,0,0,436.54
1442.410635,-179.86,-11.81,137.65,-0.20,-0.64,0.70,99.76,428.82,1,0.78,426.33,14.99,426.17,428.74,0,0,432.28
1442.420298,-179.86,-11.81,137.65,-0.20,-0.64,0.70,99.76,428.82,1,1.05,426.45,0.51,426.24,428.77,0,0,428.71
1442.430057,-179.86,-11.81,137.65,-0.19,-0.64,0.71,99.78,425.51,1,0.94,426.42,-3.05,426.24,425.44,0,0,425.51
1442.439728,-179.86,-11.81,137.65,-0.19,-0.64,0.71,99.78,425.51,1,0.84,426.39,-10.29,426.24,425.43,0,0,425.51
1442.449767,-179.86,-11.81,137.65,-0.19,-0.64,0.71,99.76,428.82,1,1.11,426.51,0.00,426.31,428.77,0,0,428.82
1442.459481,-179.86,-11.81,137.65,-0.20,-0.64,0.71,99.77,426.61,1,1.12,426.52,3.75,426.31,426.56,0,0,426.72
1442.469201,-179.86,-11.81,137.65,-0.20,-0.64,0.71,99.78,425.51,1,1.00,426.49,0.00,426.31,425.45,0,0,425.51
1442.478858,-179.86,-11.80,137.65,-0.20,-0.64,0.70,99.76,428.82,1,1.26,426.61,2.56,426.37,428.79,0,0,428.92
1442.488555,-179.86,-11.80,137.65,-0.20,-0.64,0.70,99.76,428.82,1,1.50,426.72,12.87,426.44,428.81,0,0,431.39
1442.517724,-179.87,-11.80,137.65,-0.20,-0.64,0.69,99.78,425.51,1,1.36,426.68,-8.00,426.44,425.48,0,0,425.51
1442.528100,-179.87,-11.80,137.65,-0.20,-0.64,0.70,99.78,425.51,1,1.23,426.64,0.00,426.44,425.47,0,0,425.51
1442.537825,-179.87,-11.81,137.65,-0.20,-0.64,0.70,99.76,428.82,1,1.47,426.75,9.94,426.44,428.81,0,0,430.22
1442.548123,-179.87,-11.81,137.65,-0.20,-0.64,0.70,99.78,425.51,1,1.33,426.71,-19.58,426.42,425.48,0,0,425.51
1442.563060,-179.87,-11.81,137.65,-0.19,-0.64,0.71,99.78,425.51,1,1.20,426.66,-10.88,426.42,425.47,0,0,425.51
1442.567933,-179.87,-11.81,137.65,-0.19,-0.64,0.71,99.78,425.51,1,1.07,426.62,-5.46,426.42,425.45,0,0,425.51
1442.579299,-179.87,-11.81,137.65,-0.20,-0.64,0.71,99.78,425.51,1,0.95,426.58,8.66,426.35,425.44,0,0,426.66
1442.589091,-179.87,-11.81,137.65,-0.20,-0.64,0.71,99.76,428.82,1,1.19,426.69,11.10,426.48,428.78,0,0,430.68
1442.627550,-179.87,-11.80,137.65,-0.20,-0.64,0.70,99.77,426.61,1,1.18,426.70,-6.22,426.50,426.57,0,0,426.61
1442.632395,-179.87,-11.80,137.65,-0.20,-0.64,0.70,99.76,428.82,1,1.41,426.81,15.06,426.50,428.80,0,0,432.32
1442.637331,-179.87,-11.80,137.65,-0.20,-0.64,0.70,99.78,425.51,1,1.27,426.76,2.90,426.56,425.47,0,0,425.63
1442.648094,-179.87,-11.80,137.65,-0.20,-0.64,0.70,99.78,425.51,1,1.13,426.72,-18.48,426.62,425.46,0,0,425.51
1442.658589,-179.87,-11.80,137.65,-0.20,-0.63,0.70,99.76,429.93,1,1.48,426.88,13.21,426.75,429.92,0,0,432.50
1442.668271,-179.87,-11.80,137.66,-0.20,-0.63,0.70,99.78,425.51,1,1.33,426.83,9.95,426.68,425.48,0,0,426.91
1442.678413,-179.87,-11.81,137.66,-0.20,-0.64,0.70,99.78,425.51,1,1.18,426.78,0.00,426.66,425.46,0,0,425.51
1442.688948,-179.88,-11.81,137.66,-0.20,-0.64,0.70,99.76,428.82,1,1.41,426.88,8.14,426.66,428.80,0,0,429.81
1442.698624,-179.88,-11.81,137.66,-0.20,-0.64,0.70,99.78,425.51,1,1.25,426.83,8.88,426.66,425.47,0,0,426.72
1442.732598,-179.88,-11.81,137.65,-0.20,-0.64,0.70,99.78,425.51,1,1.11,426.78,0.00,426.59,425.46,0,0,425.51
1442.742306,-179.88,-11.81,137.65,-0.20,-0.65,0.71,99.78,425.51,1,0.97,426.73,0.00,426.59,425.44,0,0,425.51
1442.747878,-179.88,-11.81,137.65,-0.19,-0.65,0.70,99.78,425.51,1,0.83,426.69,-8.86,426.53,425.43,0,0,425.51
1442.758483,-179.88,-11.81,137.65,-0.20,-0.65,0.70,99.78,425.51,1,0.70,426.64,-19.61,426.46,425.42,0,0,425.51
1442.769487,-179.88,-11.80,137.66,-0.20,-0.64,0.70,99.77,426.61,1,0.70,426.64,0.00,426.48,426.52,0,0,426.61
1442.780102,-179.88,-11.80,137.66,-0.20,-0.64,0.70,99.77,426.61,1,0.69,426.65,-4.68,426.51,426.52,0,0,426.61
1442.790078,-179.88,-11.80,137.66,-0.20,-0.63,0.70,99.76,428.82,1,0.93,426.76,19.46,426.57,428.75,0,0,434.52
1442.800347,-179.88,-11.80,137.66,-0.20,-0.63,0.70,99.77,426.61,1,0.91,426.76,-5.21,426.53,426.54,0,0,426.61
1442.845445,-179.88,-11.81,137.66,-0.20,-0.64,0.70,99.76,429.93,1,1.26,426.92,-2.93,426.55,429.89,0,0,429.93
1442.850327,-179.88,-11.81,137.66,-0.20,-0.64,0.70,99.76,429.93,1,1.59,427.07,23.82,426.62,429.93,0,0,438.61
1442.860281,-179.88,-11.81,137.65,-0.20,-0.65,0.70,99.78,425.51,1,1.41,427.01,-8.75,426.62,425.49,0,0,425.51
1442.870037,-179.88,-11.81,137.65,-0.19,-0.64,0.70,99.76,428.82,1,1.61,427.11,-8.73,426.68,428.82,0,0,428.82
1442.881163,-179.88,-11.81,137.65,-0.19,-0.64,0.70,99.78,425.51,1,1.43,427.05,9.68,426.68,425.49,0,0,426.80
1442.890844,-179.88,-11.81,137.65,-0.19,-0.64,0.70,99.78,425.51,1,1.26,426.99,0.00,426.68,425.47,0,0,425.51
1442.900688,-179.88,-11.81,137.65,-0.19,-0.65,0.70,99.76,428.82,1,1.46,427.09,1.96,426.75,428.81,0,0,428.86
1442.945701,-179.89,-11.81,137.66,-0.19,-0.63,0.71,99.78,425.51,1,1.29,427.03,0.00,426.68,425.47,0,0,425.51
1442.950762,-179.88,-11.81,137.66,-0.20,-0.63,0.71,99.78,425.51,1,1.12,426.97,0.00,426.68,425.46,0,0,425.51
1442.960721,-179.88,-11.80,137.66,-0.20,-0.64,0.70,99.78,425.51,1,0.96,426.91,-2.89,426.68,425.44,0,0,425.51
1442.970438,-179.88,-11.80,137.66,-0.21,-0.64,0.70,99.78,425.51,1,0.80,426.86,0.00,426.68,425.43,0,0,425.35
1442.981430,-179.89,-11.80,137.66,-0.21,-0.64,0.70,99.78,425.51,1,0.66,426.80,-14.45,426.74,425.41,0,0,425.51
1442.991155,-179.89,-11.80,137.66,-0.21,-0.64,0.70,99.78,425.51,1,0.51,426.75,3.90,426.74,425.40,0,0,425.64
1443.000918,-179.88,-11.81,137.66,-0.21,-0.64,0.69,99.78,425.51,1,0.38,426.69,-20.80,426.74,425.38,0,0,425.51
1443.046692,-179.88,-11.82,137.65,-0.19,-0.64,0.71,99.78,425.51,1,0.25,426.64,-0.64,426.74,425.37,0,0,425.51
1443.051527,-179.88,-11.82,137.65,-0.19,-0.64,0.71,99.77,426.61,1,0.24,426.64,13.82,426.70,426.47,0,0,429.49
1443.061223,-179.88,-11.82,137.65,-0.19,-0.64,0.71,99.78,425.51,1,0.12,426.59,-19.63,426.63,425.36,0,0,425.51
1443.070868,-179.88,-11.82,137.65,-0.19,-0.64,0.71,99.78,425.51,1,0.00,426.54,8.22,426.57,425.35,0,0,426.52
1443.080561,-179.88,-11.82,137.65,-0.19,-0.65,0.71,99.76,428.82,1,0.25,426.65,8.74,426.63,428.69,0,0,429.99
1443.090277,-179.88,-11.82,137.65,-0.19,-0.65,0.71,99.76,428.82,1,0.49,426.75,-8.21,426.70,428.71,0,0,428.82
1443.099918,-179.88,-11.82,137.65,-0.19,-0.65,0.71,99.78,425.51,1,0.35,426.70,8.20,426.63,425.38,0,0,426.52
1443.109573,-179.88,-11.81,137.65,-0.20,-0.64,0.70,99.78,423.57,1,0.01,426.56,-6.10,426.57,423.41,0,0,423.57
1443.143588,-179.88,-11.80,137.65,-0.20,-0.64,0.70,99.76,428.82,1,0.26,426.66,9.06,426.64,428.69,0,0,430.09
1443.148413,-179.88,-11.80,137.65,-0.20,-0.64,0.70,99.76,428.82,1,0.49,426.76,9.31,426.64,428.71,0,0,430.17
1443.158067,-179.88,-11.80,137.66,-0.21,-0.64,0.70,99.76,428.82,1,0.71,426.87,9.38,426.64,428.73,0,0,430.19
1443.167830,-179.88,-11.80,137.66,-0.21,-0.64,0.70,99.78,425.51,1,0.57,426.81,-2.61,426.64,425.40,0,0,425.51
1443.177852,-179.87,-11.80,137.66,-0.21,-0.64,0.70,99.78,425.51,1,0.42,426.75,-2.62,426.64,425.39,0,0,425.51
1443.187932,-179.87,-11.81,137.65,-0.20,-0.64,0.70,99.78,425.51,1,0.29,426.70,-7.86,426.57,425.37,0,0,425.51
1443.198179,-179.87,-11.81,137.65,-0.20,-0.64,0.70,99.78,425.51,1,0.16,426.65,-6.01,426.57,425.36,0,0,425.51
1443.207961,-179.87,-11.81,137.65,-0.20,-0.64,0.70,99.78,425.51,1,0.03,426.59,-8.05,426.57,425.35,0,0,425.51
1443.217989,-179.87,-11.81,137.65,-0.20,-0.64,0.71,99.78,425.51,1,-0.09,426.54,-10.49,426.57,425.51,0,0,425.51
1443.252531,-179.87,-11.82,137.65,-0.19,-0.65,0.71,99.78,425.51,1,-0.20,426.49,-9.64,426.57,425.51,0,0,425.51
1443.257876,-179.87,-11.82,137.65,-0.19,-0.65,0.71,99.78,425.51,1,-0.31,426.45,-9.89,426.51,425.51,0,0,425.51
1443.269784,-179.87,-11.82,137.65,-0.19,-0.64,0.71,99.78,425.51,1,-0.41,426.40,7.93,426.48,425.51,0,0,426.44
1443.279536,-179.87,-11.81,137.65,-0.20,-0.64,0.70,99.76,429.93,1,-0.03,426.56,18.71,426.51,429.93,0,0,435.33
1443.289467,-179.87,-11.80,137.65,-0.21,-0.64,0.70,99.78,425.51,1,-0.14,426.51,-23.93,426.51,425.51,0,0,425.51
1443.299174,-179.87,-11.80,137.65,-0.20,-0.64,0.70,99.77,426.61,1,-0.13,426.51,1.05,426.53,426.61,0,0,426.55
1443.308959,-179.87,-11.80,137.65,-0.21,-0.63,0.70,99.77,426.61,1,-0.12,426.52,1.06,426.46,426.61,0,0,426.56
1443.318734,-179.87,-11.80,137.65,-0.21,-0.63,0.69,99.77,426.61,1,-0.11,426.52,12.06,426.48,426.61,0,0,428.86
1443.370486,-179.86,-11.83,137.65,-0.19,-0.64,0.71,99.78,425.51,1,-0.22,426.47,0.00,426.48,425.51,0,0,425.51
1443.380342,-179.86,-11.83,137.65,-0.19,-0.64,0.71,99.78,425.51,1,-0.32,426.43,0.00,426.42,425.51,0,0,425.51
1443.390202,-179.86,-11.83,137.65,-0.19,-0.65,0.71,99.78,425.51,1,-0.42,426.38,0.00,426.42,425.51,0,0,425.51
1443.399859,-179.85,-11.83,137.65,-0.19,-0.65,0.71,99.78,425.51,1,-0.52,426.33,0.00,426.42,425.51,0,0,425.51
1443.409539,-179.85,-11.83,137.65,-0.19,-0.65,0.71,99.78,425.51,1,-0.61,426.29,0.00,426.42,425.51,0,0,425.51
1443.419186,-179.85,-11.82,137.65,-0.19,-0.65,0.71,99.79,422.46,1,-1.03,426.11,-12.44,426.36,422.46,0,0,422.46
1443.453289,-179.85,-11.81,137.65,-0.20,-0.64,0.69,99.77,426.61,1,-0.97,426.12,2.83,426.38,426.61,0,0,426.73
1443.458143,-179.85,-11.81,137.65,-0.20,-0.64,0.69,99.77,426.61,1,-0.92,426.13,2.93,426.38,426.61,0,0,426.74
1443.467903,-179.85,-11.80,137.65,-0.20,-0.63,0.69,99.78,425.51,1,-0.98,426.10,-20.50,426.36,425.51,0,0,425.51
1443.477661,-179.85,-11.80,137.65,-0.20,-0.63,0.69,99.76,428.82,1,-0.68,426.21,11.73,426.36,428.82,0,0,430.94
1443.487809,-179.85,-11.80,137.65,-0.20,-0.63,0.69,99.78,425.51,1,-0.76,426.17,-2.93,426.33,425.51,0,0,425.51
1443.497653,-179.85,-11.81,137.65,-0.21,-0.63,0.70,99.78,425.51,1,-0.83,426.14,5.09,426.25,425.51,0,0,425.88
1443.507867,-179.85,-11.81,137.65,-0.21,-0.64,0.70,99.78,425.51,1,-0.90,426.10,-9.60,426.16,425.51,0,0,425.51
1443.517982,-179.85,-11.81,137.66,-0.21,-0.64,0.70,99.78,425.51,1,-0.96,426.06,-6.49,426.16,425.51,0,0,425.51
1443.527879,-179.84,-11.82,137.65,-0.21,-0.64,0.71,99.78,425.51,1,-1.02,426.03,-7.80,426.09,425.51,0,0,425.51
1443.562066,-179.84,-11.82,137.65,-0.20,-0.64,0.71,99.76,429.93,1,-0.60,426.20,12.87,426.18,429.93,0,0,432.50
1443.571834,-179.84,-11.82,137.65,-0.20,-0.64,0.70,99.78,425.51,1,-0.67,426.16,0.00,426.18,425.51,0,0,425.51
1443.582124,-179.84,-11.82,137.64,-0.19,-0.64,0.71,99.77,426.61,1,-0.62,426.18,3.20,426.14,426.61,0,0,426.77
1443.591820,-179.84,-11.82,137.64,-0.19,-0.64,0.71,99.77,426.61,1,-0.57,426.19,12.01,426.16,426.61,0,0,428.84
1443.601505,-179.84,-11.82,137.64,-0.19,-0.65,0.70,99.79,422.46,1,-0.98,426.01,-21.18,426.10,422.46,0,0,422.46
1443.611151,-179.84,-11.82,137.64,-0.19,-0.64,0.70,99.78,425.51,1,-1.03,425.98,-1.26,426.10,425.51,0,0,425.51
1443.620978,-179.84,-11.81,137.64,-0.18,-0.64,0.70,99.78,425.51,1,-1.08,425.95,2.69,426.10,425.51,0,0,425.61
1443.630683,-179.84,-11.81,137.64,-0.20,-0.64,0.70,99.79,422.46,1,-1.46,425.77,-20.77,426.04,422.46,0,0,422.46
1443.664792,-179.84,-11.81,137.65,-0.20,-0.63,0.70,99.79,422.46,1,-1.82,425.60,-0.62,425.98,422.46,0,0,422.46
1443.669626,-179.84,-11.81,137.65,-0.20,-0.63,0.70,99.79,422.46,1,-2.16,425.44,-19.46,425.91,422.46,0,0,422.46
1443.679293,-179.84,-11.81,137.65,-0.21,-0.63,0.70,99.78,425.51,1,-2.15,425.42,0.00,425.91,425.51,0,0,425.51
1443.688943,-179.84,-11.82,137.65,-0.21,-0.64,0.71,99.76,428.82,1,-1.78,425.56,7.05,425.96,428.82,0,0,429.49
1443.698774,-179.84,-11.82,137.65,-0.21,-0.64,0.70,99.76,428.82,1,-1.42,425.70,7.06,426.03,428.82,0,0,429.49
1443.708466,-179.83,-11.82,137.65,-0.20,-0.63,0.70,99.78,423.57,1,-1.65,425.58,-24.36,425.99,423.57,0,0,423.57
1443.718202,-179.83,-11.82,137.65,-0.20,-0.64,0.70,99.78,425.51,1,-1.66,425.56,11.54,425.92,425.51,0,0,427.54
1443.727988,-179.83,-11.82,137.65,-0.20,-0.64,0.70,99.78,425.51,1,-1.66,425.55,-3.79,425.85,425.51,0,0,425.51
1443.737728,-179.83,-11.82,137.65,-0.19,-0.64,0.70,99.78,425.51,1,-1.67,425.53,-0.91,425.85,425.51,0,0,425.51
1443.776985,-179.83,-11.83,137.65,-0.19,-0.65,0.71,99.79,422.46,1,-2.00,425.37,2.88,425.83,422.46,0,0,422.59
1443.781820,-179.83,-11.83,137.65,-0.19,-0.65,0.71,99.78,425.51,1,-1.98,425.36,-7.92,425.77,425.51,0,0,425.51
1443.791466,-179.83,-11.82,137.65,-0.19,-0.64,0.71,99.78,425.51,1,-1.96,425.34,7.92,425.70,425.51,0,0,426.43
1443.801359,-179.83,-11.82,137.65,-0.19,-0.64,0.71,99.78,425.51,1,-1.94,425.33,5.61,425.63,425.51,0,0,425.98
1443.811177,-179.82,-11.81,137.65,-0.20,-0.63,0.70,99.78,425.51,1,-1.92,425.32,-1.63,425.63,425.51,0,0,425.51
1443.820870,-179.82,-11.81,137.65,-0.20,-0.63,0.70,99.76,428.82,1,-1.54,425.47,13.29,425.70,428.82,0,0,431.44
1443.830551,-179.82,-11.81,137.65,-0.20,-0.63,0.70,99.78,425.51,1,-1.53,425.45,-16.56,425.70,425.51,0,0,425.51
1443.840209,-179.82,-11.81,137.65,-0.20,-0.64,0.69,99.78,425.51,1,-1.53,425.44,-10.96,425.70,425.51,0,0,425.51
1443.874627,-179.82,-11.82,137.65,-0.20,-0.64,0.70,99.77,426.61,1,-1.40,425.48,2.38,425.72,426.61,0,0,426.69
1443.879484,-179.82,-11.82,137.65,-0.20,-0.64,0.70,99.77,426.61,1,-1.27,425.52,17.57,425.74,426.61,0,0,431.34
1443.889247,-179.81,-11.82,137.65,-0.20,-0.64,0.71,99.78,425.51,1,-1.27,425.51,-5.08,425.74,425.51,0,0,425.51
1443.898892,-179.81,-11.82,137.65,-0.19,-0.64,0.71,99.77,426.61,1,-1.15,425.55,3.23,425.77,426.61,0,0,426.61
1443.908894,-179.81,-11.82,137.65,-0.19,-0.64,0.71,99.78,425.51,1,-1.15,425.54,-13.33,425.77,425.51,0,0,425.51
1443.918571,-179.81,-11.82,137.65,-0.19,-0.64,0.71,99.76,428.82,1,-0.79,425.68,22.45,425.74,428.82,0,0,436.60
1443.928356,-179.81,-11.82,137.65,-0.20,-0.64,0.71,99.78,425.51,1,-0.81,425.66,-10.64,425.74,425.51,0,0,425.51
1443.938115,-179.81,-11.82,137.65,-0.20,-0.64,0.70,99.78,425.51,1,-0.83,425.65,-2.91,425.72,425.51,0,0,425.51
1443.947799,-179.81,-11.82,137.65,-0.19,-0.64,0.70,99.77,426.61,1,-0.72,425.68,11.78,425.72,426.61,0,0,428.74
