Time,Yaw,Pitch,Roll,a_x,a_y,a_z,Temperature,Pressure,Altitude,kf_velocity,kf_altitude,triggerAltitudeAchieved
4669.771763,157.66,-7.15,1.60,-0.12,-0.02,-0.96,32.52,99.69,448.45,2.56,384.39,0
4669.781459,157.66,-7.15,1.60,-0.12,-0.03,-0.96,32.52,99.69,448.45,3.65,431.86,0
4669.791188,157.66,-7.15,1.60,-0.13,-0.03,-0.96,32.52,99.71,444.86,3.99,441.39,0
4669.800904,157.66,-7.15,1.60,-0.12,-0.03,-0.96,32.51,99.69,448.45,4.23,446.57,0
4669.810656,157.66,-7.15,1.60,-0.12,-0.03,-0.95,32.52,99.69,448.45,4.30,447.96,0
4669.820302,157.65,-7.15,1.60,-0.12,-0.02,-0.96,32.52,99.69,448.45,4.32,448.33,0
4669.829972,157.65,-7.15,1.60,-0.12,-0.02,-0.96,32.52,99.69,448.45,4.33,448.43,0
4669.839634,157.65,-7.15,1.60,-0.12,-0.03,-0.96,32.52,99.71,444.86,4.10,445.83,0
4669.849314,157.65,-7.15,1.60,-0.11,-0.03,-0.96,32.52,99.69,448.45,4.28,447.76,0
4669.858984,157.65,-7.15,1.60,-0.12,-0.03,-0.96,32.52,99.69,448.45,4.33,448.28,0
4669.868637,157.65,-7.15,1.60,-0.12,-0.03,-0.96,32.52,99.69,448.45,4.34,448.42,0
4669.878303,157.64,-7.15,1.60,-0.12,-0.03,-0.96,32.51,99.68,451.77,4.65,450.89,0
4669.888484,157.64,-7.15,1.60,-0.12,-0.03,-0.96,32.52,99.71,444.86,4.05,446.49,0
4669.898155,157.64,-7.15,1.60,-0.12,-0.03,-0.96,32.52,99.69,448.45,4.25,447.94,0
4669.907831,157.64,-7.15,1.60,-0.13,-0.03,-0.96,32.52,99.71,444.86,3.90,445.70,0
4669.917664,157.64,-7.15,1.60,-0.13,-0.03,-0.96,32.52,99.71,444.86,3.79,445.09,0
4669.932332,157.64,-7.15,1.60,-0.11,-0.03,-0.96,32.52,99.71,444.86,3.76,444.93,0
4669.942025,157.64,-7.15,1.60,-0.13,-0.03,-0.96,32.52,99.69,448.45,4.23,447.52,0
4669.951671,157.63,-7.15,1.60,-0.12,-0.03,-0.96,32.52,99.69,448.45,4.35,448.22,0
4669.961398,157.63,-7.15,1.60,-0.12,-0.03,-0.96,32.52,99.69,448.45,4.38,448.40,0
4669.971045,157.63,-7.15,1.60,-0.12,-0.03,-0.96,32.52,99.69,448.45,4.38,448.45,0
4669.980717,157.62,-7.15,1.60,-0.12,-0.02,-0.96,32.52,99.69,448.45,4.37,448.47,0
4669.990429,157.62,-7.15,1.60,-0.12,-0.03,-0.96,32.52,99.69,448.45,4.37,448.47,0
4670.000115,157.62,-7.15,1.60,-0.12,-0.03,-0.96,32.52,99.69,448.45,4.36,448.47,0
4670.009792,157.61,-7.15,1.60,-0.12,-0.03,-0.96,32.52,99.69,448.45,4.34,448.47,0
4670.019561,157.61,-7.15,1.60,-0.12,-0.03,-0.96,32.52,99.69,448.45,4.33,448.47,0
4670.029200,157.61,-7.15,1.60,-0.12,-0.03,-0.96,32.52,99.69,448.45,4.32,448.47,0
4670.038880,157.61,-7.15,1.60,-0.12,-0.03,-0.96,32.52,99.69,448.45,4.31,448.47,0
4670.048519,157.61,-7.15,1.60,-0.12,-0.03,-0.96,32.52,99.68,451.77,5.00,450.90,0
4670.058217,157.60,-7.15,1.60,-0.13,-0.03,-0.96,32.52,99.71,444.86,3.67,446.49,0
4670.067860,157.60,-7.15,1.60,-0.13,-0.03,-0.96,32.52,99.71,444.86,3.30,445.31,0
4670.077558,157.60,-7.15,1.60,-0.12,-0.03,-0.96,32.52,99.69,449.56,4.27,448.43,0
4670.092307,157.60,-7.15,1.60,-0.12,-0.03,-0.96,32.52,99.71,444.86,3.42,445.83,0
4670.101977,157.59,-7.15,1.60,-0.13,-0.03,-0.96,32.52,99.71,444.86,3.17,445.13,0
4670.111669,157.59,-7.15,1.60,-0.13,-0.03,-0.96,32.52,99.71,444.86,3.10,444.94,0
4670.121351,157.58,-7.15,1.60,-0.11,-0.03,-0.96,32.52,99.69,448.45,3.99,447.52,0
4670.131048,157.58,-7.15,1.60,-0.12,-0.03,-0.96,32.52,99.69,448.45,4.23,448.22,0
4670.140690,157.58,-7.15,1.60,-0.12,-0.02,-0.96,32.52,99.69,448.45,4.28,448.40,0
4670.150328,157.58,-7.15,1.60,-0.12,-0.03,-0.96,32.52,99.71,444.86,3.29,445.82,0
4670.160121,157.57,-7.15,1.60,-0.12,-0.03,-0.96,32.52,99.69,448.45,4.02,447.76,0
4670.169778,157.57,-7.15,1.60,-0.12,-0.03,-0.96,32.52,99.71,444.86,3.18,445.64,0
4670.179490,157.57,-7.15,1.60,-0.13,-0.03,-0.96,32.52,99.69,448.45,3.99,447.71,0
4670.189173,157.56,-7.15,1.60,-0.12,-0.03,-0.96,32.52,99.69,448.45,4.21,448.27,0
4670.198857,157.56,-7.15,1.60,-0.11,-0.03,-0.96,32.52,99.71,444.86,3.15,445.78,0
4670.208534,157.56,-7.15,1.60,-0.12,-0.03,-0.96,32.52,99.71,444.86,2.85,445.11,0
4670.218188,157.56,-7.15,1.60,-0.12,-0.03,-0.96,32.52,99.71,444.86,2.76,444.94,0
4670.227861,157.57,-7.15,1.60,-0.12,-0.03,-0.96,32.52,99.71,444.86,2.73,444.89,0
4670.237558,157.56,-7.15,1.60,-0.12,-0.03,-0.96,32.52,99.69,448.45,3.90,447.51,0
4670.252261,157.56,-7.15,1.60,-0.12,-0.03,-0.96,32.52,99.69,448.45,4.20,448.21,0
4670.262036,157.56,-7.15,1.60,-0.13,-0.02,-0.96,32.52,99.71,444.86,3.04,445.77,0
4670.271726,157.56,-7.15,1.60,-0.12,-0.03,-0.96,32.52,99.71,444.86,2.72,445.11,0
4670.281368,157.56,-7.15,1.60,-0.12,-0.03,-0.96,32.52,99.71,444.86,2.62,444.93,0
4670.291103,157.55,-7.15,1.60,-0.12,-0.03,-0.96,32.52,99.69,448.45,3.87,447.52,0
4670.300834,157.55,-7.15,1.60,-0.12,-0.02,-0.96,32.52,99.69,448.45,4.20,448.22,0
4670.310479,157.55,-7.15,1.60,-0.12,-0.03,-0.96,32.53,99.69,448.45,4.27,448.40,0
4670.320153,157.55,-7.15,1.60,-0.11,-0.03,-0.96,32.52,99.71,444.86,2.93,445.82,0
4670.329793,157.55,-7.15,1.60,-0.12,-0.03,-0.96,32.52,99.71,444.86,2.55,445.12,0
4670.339509,157.54,-7.15,1.60,-0.13,-0.02,-0.96,32.52,99.69,448.45,3.82,447.57,0
4670.349219,157.54,-7.15,1.60,-0.12,-0.03,-0.97,32.52,99.71,444.86,2.75,445.59,0
4670.358875,157.54,-7.15,1.60,-0.11,-0.03,-0.96,32.52,99.71,444.86,2.45,445.06,0
4670.368589,157.54,-7.15,1.60,-0.11,-0.03,-0.96,32.52,99.71,444.86,2.36,444.92,0
4670.378297,157.53,-7.15,1.60,-0.13,-0.03,-0.96,32.52,99.71,444.86,2.33,444.88,0
4670.387963,157.53,-7.15,1.60,-0.12,-0.03,-0.96,32.52,99.69,448.45,3.78,447.51,0
4670.397789,157.53,-7.15,1.60,-0.12,-0.03,-0.96,32.52,99.71,444.86,2.67,445.58,0
4670.407875,157.52,-7.15,1.60,-0.12,-0.03,-0.96,32.52,99.71,444.86,2.35,445.06,0
4670.417713,157.52,-7.15,1.60,-0.12,-0.03,-0.96,32.52,99.71,444.86,2.26,444.92,0
4670.432321,157.52,-7.15,1.60,-0.12,-0.03,-0.96,32.52,99.71,444.86,2.22,444.88,0
4670.442004,157.51,-7.15,1.60,-0.12,-0.03,-0.96,32.52,99.71,444.86,2.21,444.87,0
4670.451656,157.51,-7.15,1.60,-0.12,-0.02,-0.96,32.52,99.72,441.54,0.73,442.43,0
4670.461293,157.51,-7.15,1.60,-0.13,-0.03,-0.96,32.52,99.71,444.86,1.81,444.22,0
4670.470944,157.51,-7.15,1.60,-0.12,-0.03,-0.96,32.52,99.69,448.45,3.70,447.33,0
4670.480588,157.50,-7.15,1.60,-0.11,-0.03,-0.96,32.52,99.71,444.86,2.56,445.53,0
4670.490263,157.50,-7.15,1.60,-0.12,-0.03,-0.96,32.52,99.69,448.45,3.89,447.68,0
4670.499950,157.50,-7.15,1.60,-0.13,-0.03,-0.96,32.52,99.71,444.86,2.57,445.62,0
4670.509592,157.50,-7.15,1.60,-0.12,-0.03,-0.96,32.52,99.69,448.45,3.88,447.71,0
4670.519254,157.50,-7.15,1.60,-0.12,-0.03,-0.96,32.52,99.69,448.45,4.21,448.27,0
4670.528937,157.49,-7.15,1.60,-0.12,-0.03,-0.95,32.51,99.69,449.56,4.81,449.23,0
4670.538656,157.49,-7.15,1.60,-0.13,-0.02,-0.96,32.51,99.69,448.45,4.41,448.67,0
4670.548301,157.49,-7.15,1.60,-0.12,-0.03,-0.96,32.52,99.69,448.45,4.29,448.52,0
4670.557988,157.49,-7.15,1.60,-0.11,-0.03,-0.96,32.52,99.69,448.45,4.23,448.48,0
4670.567683,157.49,-7.15,1.60,-0.11,-0.03,-0.96,32.52,99.69,448.45,4.20,448.47,0
4670.577613,157.48,-7.15,1.60,-0.12,-0.03,-0.96,32.52,99.69,448.45,4.17,448.47,0
4670.592379,157.48,-7.15,1.60,-0.12,-0.03,-0.96,32.52,99.72,441.54,0.69,443.40,0
4670.602024,157.48,-7.15,1.60,-0.12,-0.03,-0.96,32.52,99.71,444.86,1.42,444.47,0
4670.611670,157.48,-7.15,1.60,-0.12,-0.02,-0.96,32.52,99.71,444.86,1.61,444.76,0
4670.621342,157.47,-7.15,1.60,-0.13,-0.03,-0.96,32.52,99.69,448.45,3.49,447.48,0
4670.631022,157.47,-7.15,1.60,-0.12,-0.03,-0.96,32.52,99.71,444.86,2.12,445.57,0
4670.640681,157.47,-7.15,1.60,-0.11,-0.03,-0.96,32.52,99.69,448.45,3.61,447.69,0
4670.650336,157.47,-7.15,1.60,-0.12,-0.03,-0.96,32.52,99.69,448.45,3.99,448.26,0
4670.659979,157.46,-7.15,1.60,-0.12,-0.03,-0.96,32.51,99.71,444.86,2.18,445.78,0
4670.669637,157.46,-7.15,1.60,-0.12,-0.03,-0.96,32.51,99.71,444.86,1.69,445.11,0
4670.679377,157.46,-7.15,1.60,-0.11,-0.03,-0.96,32.52,99.69,448.45,3.46,447.57,0
4670.689021,157.45,-7.15,1.60,-0.12,-0.03,-0.97,32.52,99.71,444.86,1.99,445.59,0
4670.698663,157.45,-7.15,1.60,-0.12,-0.02,-0.96,32.52,99.69,448.45,3.52,447.70,0
4670.708301,157.45,-7.15,1.60,-0.12,-0.03,-0.96,32.52,99.71,444.86,1.96,445.62,0
4670.718047,157.45,-7.15,1.60,-0.12,-0.03,-0.96,32.52,99.71,444.86,1.54,445.07,0
4670.727700,157.44,-7.15,1.60,-0.12,-0.03,-0.96,32.52,99.69,448.45,3.38,447.56,0
4670.742484,157.44,-7.15,1.60,-0.13,-0.03,-0.96,32.52,99.71,444.86,1.88,445.59,0
4670.752214,157.44,-7.15,1.60,-0.12,-0.03,-0.96,32.52,99.69,448.45,3.46,447.70,0
4670.761896,157.43,-7.15,1.60,-0.12,-0.03,-0.96,32.52,99.70,445.97,2.47,446.44,0
4670.771577,157.43,-7.15,1.60,-0.12,-0.02,-0.96,32.52,99.69,448.45,3.59,447.92,0
4670.781216,157.43,-7.15,1.60,-0.12,-0.03,-0.96,32.52,99.69,448.45,3.87,448.32,0
4670.790895,157.43,-7.15,1.60,-0.12,-0.03,-0.96,32.51,99.70,445.97,2.51,446.60,0
4670.800653,157.42,-7.15,1.60,-0.12,-0.03,-0.96,32.52,99.69,448.45,3.55,447.97,0
4670.810390,157.42,-7.15,1.60,-0.12,-0.03,-0.96,32.52,99.71,444.86,1.75,445.70,0
4670.820037,157.41,-7.15,1.60,-0.12,-0.03,-0.96,32.52,99.69,448.45,3.33,447.73,0
4670.829676,157.41,-7.15,1.60,-0.12,-0.03,-0.96,32.51,99.70,445.97,2.29,446.44,0
4670.839315,157.41,-7.15,1.60,-0.12,-0.03,-0.96,32.52,99.69,448.45,3.45,447.93,0
4670.848957,157.41,-7.15,1.60,-0.12,-0.02,-0.96,32.51,99.70,445.97,2.28,446.50,0
4670.858617,157.40,-7.15,1.60,-0.12,-0.03,-0.96,32.52,99.69,448.45,3.42,447.94,0
4670.868286,157.40,-7.15,1.60,-0.12,-0.03,-0.96,32.52,99.69,448.45,3.70,448.33,0
4670.877925,157.40,-7.15,1.60,-0.12,-0.03,-0.96,32.51,99.71,444.86,1.63,445.79,0
4670.887561,157.40,-7.15,1.60,-0.12,-0.02,-0.96,32.52,99.69,448.45,3.20,447.75,0
4670.902384,157.40,-7.15,1.60,-0.12,-0.03,-0.96,32.52,99.69,448.45,3.60,448.28,0
4670.912087,157.39,-7.15,1.60,-0.12,-0.03,-0.96,32.52,99.69,448.45,3.69,448.42,0
4670.921887,157.39,-7.15,1.60,-0.12,-0.03,-0.96,32.52,99.69,448.45,3.69,448.45,0
4670.932093,157.39,-7.15,1.60,-0.12,-0.03,-0.96,32.52,99.69,448.45,3.66,448.46,0
4670.941900,157.38,-7.15,1.60,-0.12,-0.03,-0.96,32.52,99.71,444.86,1.46,445.83,0
4670.952542,157.38,-7.15,1.60,-0.11,-0.03,-0.96,32.52,99.69,448.45,3.05,447.76,0
4670.958895,157.38,-7.15,1.60,-0.12,-0.03,-0.96,32.52,99.71,444.86,1.26,445.64,0
4670.968845,157.38,-7.15,1.60,-0.12,-0.03,-0.96,32.52,99.71,444.86,0.78,445.07,0
4670.978577,157.37,-7.15,1.60,-0.12,-0.03,-0.96,32.52,99.71,444.86,0.65,444.92,0
4670.988228,157.36,-7.15,1.60,-0.12,-0.03,-0.96,32.53,99.70,447.07,1.97,446.50,0
4670.997873,157.36,-7.15,1.60,-0.12,-0.03,-0.96,32.52,99.71,444.86,0.94,445.30,0
4671.012377,157.36,-7.14,1.60,-0.13,-0.03,-0.96,32.53,99.71,443.75,-0.02,444.17,0
4671.022100,157.36,-7.14,1.60,-0.12,-0.03,-0.95,32.52,99.69,449.56,3.33,448.13,0
4671.031769,157.35,-7.15,1.60,-0.12,-0.03,-0.96,32.51,99.69,449.56,4.20,449.19,0
4671.041473,157.35,-7.15,1.60,-0.12,-0.02,-0.96,32.52,99.69,448.45,3.72,448.66,0
4671.051133,157.35,-7.14,1.60,-0.13,-0.02,-0.96,32.52,99.69,448.45,3.56,448.52,0
4671.060840,157.35,-7.14,1.60,-0.12,-0.03,-0.96,32.52,99.69,448.45,3.50,448.48,0
4671.070576,157.35,-7.15,1.60,-0.12,-0.03,-0.96,32.52,99.69,448.45,3.46,448.47,0
4671.080250,157.34,-7.15,1.60,-0.12,-0.03,-0.96,32.52,99.71,444.86,1.15,445.83,0
4671.089980,157.34,-7.14,1.60,-0.12,-0.03,-0.96,32.52,99.71,444.86,0.53,445.12,0
4671.100133,157.34,-7.14,1.60,-0.12,-0.03,-0.96,32.53,99.69,448.45,2.65,447.57,0
4671.109834,157.33,-7.15,1.60,-0.12,-0.03,-0.96,32.52,99.70,445.97,1.61,446.40,0
4671.119500,157.33,-7.15,1.60,-0.12,-0.03,-0.96,32.52,99.70,445.97,1.32,446.09,0
4671.129159,157.33,-7.14,1.60,-0.12,-0.02,-0.96,32.52,99.71,444.86,0.53,445.19,0
4671.138944,157.33,-7.14,1.60,-0.12,-0.03,-0.96,32.52,99.69,448.45,2.62,447.59,0
4671.148589,157.32,-7.14,1.60,-0.11,-0.03,-0.96,32.52,99.71,444.86,0.85,445.59,0
4671.158233,157.32,-7.14,1.60,-0.12,-0.03,-0.96,32.51,99.69,448.45,2.69,447.70,0
4671.167872,157.32,-7.14,1.60,-0.12,-0.03,-0.96,32.51,99.69,448.45,3.17,448.26,0
4671.177515,157.32,-7.14,1.60,-0.12,-0.03,-0.96,32.52,99.71,444.86,0.94,445.77,0
4671.192302,157.31,-7.14,1.59,-0.12,-0.03,-0.96,32.52,99.71,444.86,0.34,445.11,0
4671.202060,157.31,-7.14,1.59,-0.12,-0.03,-0.96,32.52,99.69,448.45,2.52,447.57,0
4671.211703,157.31,-7.14,1.59,-0.13,-0.03,-0.96,32.52,99.69,448.45,3.09,448.23,0
4671.221343,157.30,-7.14,1.60,-0.12,-0.03,-0.96,32.52,99.68,451.77,5.39,450.84,0
4671.231004,157.30,-7.14,1.59,-0.12,-0.03,-0.96,32.52,99.69,448.45,3.79,449.10,0
4671.240653,157.30,-7.14,1.59,-0.12,-0.02,-0.96,32.52,99.71,444.86,0.97,446.00,0
4671.250353,157.30,-7.14,1.59,-0.13,-0.02,-0.96,32.52,99.69,448.45,2.59,447.80,0
4671.259994,157.30,-7.14,1.59,-0.12,-0.03,-0.96,32.52,99.71,444.86,0.63,445.65,0
4671.269770,157.30,-7.14,1.59,-0.12,-0.03,-0.97,32.52,99.69,448.45,2.48,447.71,0
4671.279535,157.29,-7.14,1.59,-0.12,-0.02,-0.96,32.52,99.69,448.45,2.96,448.26,0
4671.289410,157.29,-7.14,1.59,-0.13,-0.03,-0.96,32.51,99.70,445.97,1.41,446.58,0
4671.299086,157.29,-7.14,1.59,-0.12,-0.03,-0.96,32.52,99.71,444.86,0.25,445.32,0
4671.308746,157.28,-7.14,1.59,-0.12,-0.03,-0.96,32.52,99.71,444.86,-0.06,444.98,0
4671.318408,157.28,-7.14,1.59,-0.12,-0.03,-0.96,32.52,99.71,444.86,-0.14,444.89,0
4671.328081,157.28,-7.14,1.59,-0.12,-0.03,-0.96,32.52,99.69,448.45,2.25,447.51,0
4671.337762,157.28,-7.14,1.59,-0.12,-0.03,-0.96,32.52,99.69,448.45,2.86,448.21,0
4671.352471,157.27,-7.15,1.59,-0.12,-0.03,-0.96,32.52,99.69,448.45,3.01,448.40,0
4671.362136,157.27,-7.14,1.59,-0.12,-0.02,-0.96,32.52,99.69,448.45,3.03,448.45,0
4671.371917,157.27,-7.14,1.59,-0.12,-0.03,-0.96,32.52,99.71,444.86,0.59,445.82,0
4671.381557,157.26,-7.14,1.59,-0.12,-0.03,-0.96,32.52,99.71,444.86,-0.06,445.12,0
4671.391200,157.26,-7.14,1.60,-0.11,-0.03,-0.96,32.52,99.69,448.45,2.20,447.57,0
4671.400897,157.26,-7.14,1.60,-0.12,-0.03,-0.96,32.52,99.71,444.86,0.35,445.59,0
4671.410540,157.26,-7.14,1.60,-0.13,-0.03,-0.96,32.52,99.69,448.45,2.29,447.69,0
4671.420187,157.26,-7.15,1.60,-0.12,-0.03,-0.96,32.52,99.71,444.86,0.35,445.62,0
4671.429848,157.25,-7.15,1.60,-0.12,-0.03,-0.96,32.52,99.71,444.86,-0.16,445.06,0
4671.439559,157.25,-7.15,1.60,-0.12,-0.02,-0.96,32.52,99.69,448.45,2.14,447.55,0
4671.449239,157.25,-7.14,1.60,-0.12,-0.03,-0.96,32.52,99.69,448.45,2.74,448.22,0
4671.458882,157.25,-7.14,1.60,-0.12,-0.03,-0.96,32.51,99.71,444.86,0.43,445.76,0
4671.468526,157.25,-7.14,1.60,-0.12,-0.03,-0.96,32.51,99.71,444.86,-0.19,445.10,0
4671.478225,157.24,-7.15,1.60,-0.12,-0.02,-0.96,32.52,99.71,444.86,-0.35,444.92,0
4671.487907,157.24,-7.15,1.60,-0.12,-0.03,-0.96,32.52,99.69,448.45,2.07,447.52,0
4671.497604,157.24,-7.15,1.60,-0.12,-0.03,-0.96,32.52,99.69,448.45,2.70,448.21,0
4671.512305,157.23,-7.15,1.60,-0.11,-0.03,-0.96,32.52,99.71,444.86,0.38,445.76,0
4671.522004,157.23,-7.15,1.60,-0.12,-0.02,-0.96,32.52,99.69,448.45,2.23,447.74,0
4671.531664,157.23,-7.15,1.60,-0.12,-0.03,-0.96,32.52,99.69,448.45,2.71,448.27,0
4671.541372,157.22,-7.15,1.60,-0.12,-0.03,-0.96,32.52,99.71,444.86,0.34,445.77,0
4671.551090,157.22,-7.15,1.60,-0.12,-0.03,-0.96,32.52,99.71,444.86,-0.29,445.10,0
4671.560766,157.22,-7.15,1.59,-0.12,-0.02,-0.96,32.52,99.69,449.56,2.79,448.38,0
4671.570446,157.22,-7.15,1.60,-0.12,-0.03,-0.96,32.52,99.69,448.45,2.82,448.44,0
4671.580114,157.22,-7.15,1.60,-0.12,-0.03,-0.96,32.52,99.69,448.45,2.81,448.46,0
4671.589814,157.21,-7.15,1.60,-0.12,-0.03,-0.95,32.52,99.69,448.45,2.79,448.46,0
4671.599455,157.21,-7.15,1.60,-0.12,-0.02,-0.96,32.52,99.69,448.45,2.77,448.46,0
4671.609133,157.21,-7.15,1.60,-0.13,-0.03,-0.96,32.52,99.69,448.45,2.74,448.46,0
4671.618896,157.21,-7.15,1.60,-0.13,-0.03,-0.96,32.52,99.69,448.45,2.71,448.46,0
4671.628538,157.21,-7.15,1.59,-0.12,-0.03,-0.96,32.52,99.71,444.86,0.19,445.82,0
4671.638215,157.20,-7.15,1.59,-0.12,-0.03,-0.96,32.52,99.69,448.45,2.02,447.76,0
4671.647875,157.20,-7.15,1.59,-0.13,-0.03,-0.96,32.52,99.71,444.86,-0.01,445.63,0
4671.662349,157.20,-7.15,1.60,-0.12,-0.03,-0.96,32.52,99.71,444.86,-0.55,445.07,0
4671.672039,157.19,-7.15,1.59,-0.12,-0.03,-0.96,32.52,99.69,448.45,1.82,447.55,0
4671.681800,157.19,-7.15,1.59,-0.13,-0.03,-0.96,32.52,99.69,448.45,2.43,448.22,0
4671.691444,157.19,-7.15,1.59,-0.12,-0.03,-0.96,32.52,99.69,448.45,2.58,448.40,0
4671.701087,157.19,-7.15,1.59,-0.12,-0.03,-0.96,32.53,99.70,447.07,1.63,447.43,0
4671.710726,157.19,-7.15,1.59,-0.12,-0.03,-0.96,32.52,99.71,444.86,-0.18,445.55,0
4671.720371,157.18,-7.15,1.59,-0.12,-0.02,-0.96,32.52,99.69,448.45,1.86,447.68,0
4671.730018,157.18,-7.15,1.59,-0.12,-0.03,-0.96,32.52,99.71,444.86,-0.13,445.61,0
4671.739660,157.18,-7.15,1.59,-0.12,-0.03,-0.96,32.52,99.71,444.86,-0.66,445.06,0
4671.749308,157.18,-7.15,1.59,-0.12,-0.02,-0.96,32.52,99.69,448.45,1.73,447.55,0
4671.758988,157.18,-7.15,1.59,-0.13,-0.02,-0.95,32.52,99.69,448.45,2.35,448.22,0
4671.768684,157.18,-7.15,1.59,-0.13,-0.02,-0.95,32.52,99.69,448.45,2.50,448.40,0
4671.778326,157.17,-7.15,1.59,-0.12,-0.03,-0.96,32.52,99.69,448.45,2.52,448.45,0
4671.787970,157.17,-7.15,1.59,-0.12,-0.03,-0.96,32.52,99.71,444.86,-0.02,445.82,0
4671.797630,157.17,-7.15,1.59,-0.12,-0.03,-0.96,32.52,99.71,444.86,-0.70,445.11,0
4671.807856,157.16,-7.15,1.59,-0.12,-0.03,-0.96,32.52,99.69,448.45,1.66,447.57,0
4671.817692,157.16,-7.15,1.59,-0.12,-0.03,-0.96,32.52,99.69,448.45,2.28,448.22,0
4671.827611,157.16,-7.15,1.59,-0.12,-0.03,-0.96,32.52,99.69,448.45,2.43,448.40,0
4671.842396,157.16,-7.15,1.59,-0.13,-0.03,-0.96,32.52,99.69,448.45,2.45,448.45,0
4671.852112,157.16,-7.15,1.59,-0.12,-0.03,-0.96,32.52,99.69,448.45,2.44,448.46,0
4671.861895,157.16,-7.15,1.59,-0.11,-0.03,-0.96,32.52,99.71,444.86,-0.13,445.82,0
4671.871612,157.15,-7.15,1.59,-0.12,-0.03,-0.96,32.52,99.71,444.86,-0.81,445.12,0
4671.881272,157.15,-7.15,1.59,-0.12,-0.02,-0.95,32.52,99.71,444.86,-0.98,444.93,0
4671.890911,157.15,-7.15,1.59,-0.12,-0.03,-0.96,32.52,99.69,448.45,1.53,447.52,0
4671.900547,157.15,-7.15,1.59,-0.12,-0.03,-0.96,32.52,99.69,448.45,2.18,448.21,0
4671.910448,157.14,-7.15,1.59,-0.12,-0.02,-0.96,32.52,99.69,448.45,2.34,448.40,0
4671.920105,157.14,-7.15,1.59,-0.13,-0.03,-0.96,32.52,99.71,444.86,-0.18,445.80,0
4671.929742,157.14,-7.15,1.59,-0.12,-0.03,-0.96,32.52,99.69,448.45,1.70,447.75,0
4671.939397,157.14,-7.15,1.59,-0.12,-0.03,-0.96,32.52,99.69,448.45,2.19,448.27,0
4671.949072,157.14,-7.15,1.59,-0.12,-0.02,-0.96,32.52,99.71,444.86,-0.25,445.77,0
4671.958823,157.14,-7.15,1.59,-0.12,-0.02,-0.96,32.51,99.71,444.86,-0.90,445.10,0
4671.968472,157.14,-7.15,1.59,-0.12,-0.02,-0.96,32.51,99.71,444.86,-1.07,444.92,0
4671.978107,157.13,-7.15,1.59,-0.11,-0.03,-0.96,32.52,99.71,444.86,-1.10,444.87,0
4671.987795,157.13,-7.15,1.59,-0.12,-0.03,-0.96,32.52,99.71,444.86,-1.10,444.86,0
4672.002339,157.13,-7.15,1.59,-0.13,-0.02,-0.96,32.52,99.71,444.86,-1.10,444.86,0
4672.012033,157.13,-7.15,1.59,-0.12,-0.03,-0.96,32.52,99.69,448.45,1.47,447.50,0
4672.021750,157.13,-7.15,1.59,-0.12,-0.03,-0.96,32.52,99.69,448.45,2.15,448.20,0
4672.031394,157.12,-7.15,1.59,-0.12,-0.03,-0.96,32.53,99.70,447.07,1.32,447.38,0
4672.041041,157.12,-7.15,1.59,-0.13,-0.03,-0.96,32.52,99.71,444.86,-0.48,445.53,0
4672.050758,157.12,-7.15,1.59,-0.12,-0.03,-0.96,32.52,99.71,444.86,-0.96,445.04,0
4672.060429,157.12,-7.15,1.59,-0.11,-0.03,-0.96,32.52,99.69,448.45,1.49,447.55,0
4672.070082,157.11,-7.15,1.59,-0.12,-0.03,-0.96,32.52,99.71,444.86,-0.44,445.58,0
4672.079719,157.11,-7.14,1.59,-0.12,-0.02,-0.96,32.52,99.69,448.45,1.62,447.69,0
4672.089355,157.11,-7.14,1.59,-0.12,-0.03,-0.96,32.52,99.69,448.45,2.15,448.26,0
4672.098992,157.11,-7.14,1.59,-0.12,-0.03,-0.96,32.51,99.69,448.45,2.28,448.41,0
4672.108658,157.10,-7.15,1.59,-0.12,-0.03,-0.96,32.51,99.69,449.56,3.09,449.26,0
4672.118297,157.10,-7.15,1.59,-0.12,-0.03,-0.96,32.51,99.69,449.56,3.28,449.49,0
4672.127936,157.10,-7.15,1.59,-0.12,-0.03,-0.96,32.52,99.69,448.45,2.52,448.74,0
4672.137586,157.10,-7.15,1.59,-0.11,-0.03,-0.96,32.52,99.69,448.45,2.30,448.54,0
4672.147610,157.10,-7.15,1.59,-0.11,-0.03,-0.96,32.52,99.69,448.45,2.22,448.48,0
4672.162546,157.09,-7.15,1.59,-0.12,-0.03,-0.96,32.52,99.69,448.45,2.19,448.47,0
4672.172206,157.09,-7.15,1.59,-0.12,-0.03,-0.96,32.52,99.71,444.86,-0.42,445.82,0
4672.181890,157.09,-7.15,1.59,-0.12,-0.03,-0.96,32.52,99.71,444.86,-1.10,445.11,0
4672.191579,157.08,-7.15,1.59,-0.12,-0.02,-0.96,32.52,99.69,448.45,1.30,447.57,0
4672.201350,157.08,-7.14,1.59,-0.13,-0.02,-0.96,32.52,99.69,448.45,1.93,448.22,0
4672.211060,157.08,-7.15,1.59,-0.12,-0.03,-0.95,32.52,99.69,448.45,2.08,448.40,0
4672.220698,157.07,-7.15,1.59,-0.11,-0.03,-0.96,32.52,99.69,448.45,2.11,448.44,0
4672.230346,157.07,-7.15,1.59,-0.12,-0.02,-0.96,32.52,99.72,441.54,-2.87,443.38,0
4672.240025,157.07,-7.15,1.59,-0.12,-0.03,-0.96,32.52,99.69,448.45,0.80,447.10,0
4672.249745,157.07,-7.14,1.59,-0.12,-0.03,-0.96,32.52,99.71,444.86,-0.81,445.46,0
4672.259437,157.07,-7.15,1.59,-0.12,-0.03,-0.96,32.53,99.71,443.75,-2.03,444.20,0
4672.269191,157.07,-7.15,1.59,-0.12,-0.03,-0.96,32.53,99.71,443.75,-2.34,443.87,0
4672.278872,157.06,-7.15,1.59,-0.12,-0.03,-0.96,32.52,99.69,448.45,0.97,447.23,0
4672.288584,157.06,-7.15,1.59,-0.12,-0.03,-0.96,32.52,99.69,448.45,1.85,448.13,0
4672.298269,157.06,-7.15,1.59,-0.12,-0.03,-0.96,32.52,99.69,448.45,2.07,448.37,0
4672.307947,157.06,-7.15,1.59,-0.12,-0.02,-0.96,32.52,99.68,451.77,4.50,450.88,0
4672.317591,157.06,-7.15,1.59,-0.12,-0.02,-0.96,32.52,99.68,451.77,5.11,451.55,0
4672.332265,157.06,-7.14,1.59,-0.12,-0.03,-0.96,32.52,99.69,448.45,2.85,449.29,0
4672.341992,157.05,-7.14,1.59,-0.11,-0.03,-0.96,32.52,99.69,448.45,2.23,448.68,0
4672.351702,157.05,-7.14,1.59,-0.12,-0.03,-0.96,32.52,99.69,448.45,2.04,448.52,0
4672.361362,157.05,-7.14,1.59,-0.12,-0.02,-0.95,32.51,99.69,448.45,1.98,448.48,0
4672.371024,157.05,-7.15,1.59,-0.12,-0.03,-0.96,32.52,99.71,444.86,-0.64,445.83,0
4672.380730,157.05,-7.15,1.59,-0.11,-0.03,-0.96,32.52,99.71,444.86,-1.33,445.11,0
4672.390394,157.05,-7.15,1.59,-0.12,-0.03,-0.96,32.52,99.71,444.86,-1.50,444.92,0
4672.400082,157.04,-7.15,1.59,-0.12,-0.03,-0.96,32.52,99.69,448.45,1.05,447.51,0
4672.409749,157.04,-7.15,1.60,-0.12,-0.03,-0.96,32.52,99.69,448.45,1.72,448.21,0
4672.419424,157.04,-7.15,1.60,-0.12,-0.03,-0.96,32.52,99.69,448.45,1.89,448.39,0
4672.429065,157.04,-7.15,1.59,-0.12,-0.02,-0.96,32.52,99.71,444.86,-0.67,445.80,0
4672.438704,157.03,-7.15,1.59,-0.13,-0.03,-0.96,32.53,99.71,443.75,-2.15,444.29,0
4672.448388,157.03,-7.15,1.59,-0.11,-0.03,-0.96,32.52,99.69,448.45,0.87,447.35,0
4672.458055,157.03,-7.15,1.59,-0.12,-0.03,-0.96,32.52,99.69,448.45,1.66,448.16,0
4672.467818,157.03,-7.15,1.59,-0.12,-0.03,-0.96,32.52,99.69,448.45,1.86,448.38,0
4672.482277,157.02,-7.15,1.59,-0.12,-0.03,-0.96,32.52,99.71,444.86,-0.69,445.80,0
4672.491910,157.02,-7.15,1.60,-0.12,-0.03,-0.96,32.52,99.69,448.45,1.23,447.75,0
4672.501641,157.02,-7.15,1.60,-0.12,-0.03,-0.96,32.52,99.71,444.86,-0.87,445.63,0
4672.511297,157.02,-7.15,1.59,-0.13,-0.03,-0.96,32.53,99.71,444.86,-1.42,445.06,0
4672.520938,157.02,-7.15,1.60,-0.12,-0.03,-0.96,32.52,99.71,444.86,-1.55,444.91,0
4672.530728,157.01,-7.15,1.60,-0.12,-0.03,-0.96,32.52,99.69,448.45,1.02,447.51,0
4672.540453,157.01,-7.15,1.60,-0.12,-0.03,-0.96,32.52,99.69,448.45,1.70,448.21,0
4672.550111,157.01,-7.15,1.60,-0.13,-0.02,-0.96,32.52,99.69,448.45,1.86,448.39,0
4672.560508,157.00,-7.15,1.60,-0.12,-0.03,-0.95,32.52,99.71,444.86,-0.70,445.80,0
4672.570145,157.00,-7.15,1.60,-0.11,-0.03,-0.96,32.52,99.69,448.45,1.22,447.75,0
4672.579822,157.00,-7.15,1.59,-0.12,-0.02,-0.96,32.52,99.69,448.45,1.72,448.27,0
4672.589499,157.00,-7.15,1.59,-0.12,-0.03,-0.96,32.53,99.69,448.45,1.84,448.41,0
4672.599163,157.00,-7.15,1.60,-0.12,-0.03,-0.96,32.52,99.71,444.86,-0.74,445.81,0
4672.608795,157.00,-7.15,1.60,-0.12,-0.03,-0.96,32.52,99.71,444.86,-1.42,445.11,0
4672.618450,157.00,-7.15,1.60,-0.12,-0.03,-0.96,32.52,99.71,444.86,-1.59,444.92,0
4672.628096,157.00,-7.15,1.59,-0.13,-0.02,-0.96,32.52,99.69,448.45,0.98,447.51,0
4672.637825,157.00,-7.15,1.59,-0.12,-0.03,-0.96,32.52,99.71,444.86,-0.95,445.57,0
4672.652347,156.99,-7.15,1.59,-0.11,-0.03,-0.96,32.52,99.69,448.45,1.15,447.69,0
4672.662038,156.99,-7.15,1.59,-0.12,-0.02,-0.96,32.52,99.71,444.86,-0.91,445.61,0
4672.671731,156.99,-7.15,1.59,-0.12,-0.02,-0.96,32.52,99.71,444.86,-1.45,445.06,0
4672.681375,156.99,-7.15,1.59,-0.12,-0.03,-0.96,32.52,99.71,444.86,-1.58,444.91,0
4672.691016,156.98,-7.15,1.59,-0.11,-0.03,-0.96,32.52,99.71,444.86,-1.60,444.87,0
4672.700652,156.98,-7.15,1.59,-0.12,-0.03,-0.96,32.52,99.71,444.86,-1.60,444.86,0
4672.710308,156.98,-7.15,1.59,-0.13,-0.03,-0.96,32.52,99.71,444.86,-1.58,444.86,0
4672.719981,156.98,-7.15,1.59,-0.12,-0.03,-0.96,32.52,99.69,448.45,1.04,447.50,0
4672.729640,156.97,-7.15,1.59,-0.11,-0.03,-0.96,32.52,99.69,448.45,1.72,448.20,0
4672.739316,156.97,-7.15,1.59,-0.12,-0.03,-0.96,32.52,99.71,444.86,-0.71,445.75,0
4672.748973,156.97,-7.15,1.59,-0.13,-0.02,-0.96,32.52,99.69,448.45,1.25,447.74,0
4672.758666,156.97,-7.15,1.59,-0.12,-0.03,-0.96,32.52,99.71,444.86,-0.84,445.63,0
4672.768322,156.97,-7.15,1.59,-0.12,-0.03,-0.96,32.52,99.71,444.86,-1.39,445.06,0
4672.778633,156.96,-7.15,1.59,-0.12,-0.03,-0.96,32.52,99.69,448.45,1.08,447.55,0
4672.788480,156.96,-7.15,1.59,-0.13,-0.02,-0.96,32.52,99.71,444.86,-0.88,445.58,0
4672.798256,156.95,-7.15,1.59,-0.12,-0.03,-0.96,32.52,99.69,448.45,1.21,447.69,0
4672.808195,156.95,-7.15,1.59,-0.12,-0.03,-0.96,32.52,99.69,448.45,1.76,448.25,0
4672.817928,156.95,-7.15,1.59,-0.12,-0.03,-0.96,32.52,99.69,448.45,1.89,448.41,0
4672.827967,156.94,-7.15,1.59,-0.13,-0.03,-0.96,32.52,99.71,444.86,-0.69,445.81,0
4672.837618,156.94,-7.15,1.59,-0.12,-0.03,-0.96,32.52,99.69,448.45,1.23,447.75,0
4672.852363,156.93,-7.15,1.59,-0.11,-0.03,-0.96,32.52,99.71,444.86,-0.87,445.63,0
4672.862091,156.93,-7.15,1.59,-0.12,-0.03,-0.96,32.52,99.69,448.45,1.18,447.70,0
4672.871831,156.93,-7.15,1.59,-0.12,-0.03,-0.96,32.52,99.69,448.45,1.72,448.26,0
4672.881559,156.93,-7.15,1.59,-0.12,-0.03,-0.96,32.52,99.69,448.45,1.85,448.41,0
4672.891245,156.93,-7.15,1.59,-0.11,-0.03,-0.96,32.52,99.71,444.86,-0.74,445.81,0
4672.900978,156.92,-7.15,1.59,-0.12,-0.03,-0.97,32.52,99.71,444.86,-1.42,445.11,0
4672.910620,156.92,-7.15,1.59,-0.13,-0.03,-0.96,32.52,99.69,448.45,1.02,447.56,0
4672.920314,156.92,-7.15,1.59,-0.12,-0.03,-0.96,32.52,99.71,444.86,-0.95,445.58,0
4672.929979,156.92,-7.15,1.59,-0.11,-0.03,-0.96,32.52,99.69,448.45,1.14,447.69,0
4672.939621,156.91,-7.15,1.59,-0.12,-0.03,-0.96,32.52,99.69,448.45,1.69,448.25,0
4672.949276,156.91,-7.15,1.59,-0.13,-0.03,-0.96,32.52,99.69,448.45,1.82,448.41,0
4672.958936,156.91,-7.15,1.59,-0.12,-0.03,-0.96,32.51,99.71,444.86,-0.76,445.81,0
4672.968668,156.91,-7.15,1.59,-0.12,-0.03,-0.96,32.51,99.71,444.86,-1.44,445.11,0
4672.978352,156.91,-7.15,1.59,-0.12,-0.02,-0.96,32.52,99.71,444.86,-1.61,444.92,0
4672.987996,156.90,-7.15,1.59,-0.13,-0.02,-0.96,32.52,99.71,444.86,-1.65,444.87,0
4672.997650,156.90,-7.15,1.59,-0.13,-0.02,-0.96,32.52,99.71,444.86,-1.64,444.86,0
4673.012191,156.90,-7.15,1.59,-0.12,-0.03,-0.96,32.52,99.69,448.45,0.98,447.50,0
4673.021934,156.90,-7.15,1.59,-0.12,-0.02,-0.96,32.52,99.69,448.45,1.67,448.20,0
4673.031613,156.90,-7.15,1.59,-0.13,-0.02,-0.96,32.52,99.71,444.86,-0.77,445.75,0
4673.041280,156.90,-7.15,1.59,-0.12,-0.03,-0.96,32.52,99.71,444.86,-1.41,445.09,0
4673.050961,156.89,-7.15,1.60,-0.11,-0.03,-0.96,32.52,99.69,448.45,1.04,447.56,0
4673.060654,156.89,-7.15,1.60,-0.12,-0.03,-0.96,32.52,99.69,448.45,1.68,448.22,0
4673.070479,156.89,-7.15,1.60,-0.13,-0.02,-0.96,32.52,99.69,448.45,1.84,448.40,0
4673.080126,156.88,-7.15,1.60,-0.12,-0.03,-0.96,32.52,99.69,448.45,1.87,448.44,0
4673.089794,156.88,-7.15,1.59,-0.12,-0.03,-0.96,32.52,99.69,448.45,1.86,448.46,0
4673.099452,156.88,-7.15,1.59,-0.12,-0.02,-0.96,32.53,99.70,447.07,0.84,447.44,0
4673.109177,156.88,-7.15,1.59,-0.12,-0.03,-0.96,32.52,99.69,448.45,1.57,448.19,0
4673.118816,156.88,-7.15,1.59,-0.12,-0.03,-0.96,32.52,99.69,448.45,1.75,448.39,0
4673.128503,156.88,-7.15,1.60,-0.11,-0.03,-0.96,32.52,99.71,444.86,-0.83,445.80,0
4673.138221,156.87,-7.15,1.60,-0.12,-0.03,-0.96,32.52,99.69,448.45,1.11,447.75,0
4673.147882,156.87,-7.15,1.60,-0.13,-0.03,-0.96,32.52,99.71,444.86,-1.00,445.63,0
4673.157555,156.87,-7.15,1.60,-0.12,-0.03,-0.96,32.52,99.71,444.86,-1.55,445.06,0
4673.172287,156.87,-7.15,1.59,-0.12,-0.03,-0.97,32.52,99.71,444.86,-1.68,444.91,0
4673.181949,156.87,-7.15,1.59,-0.12,-0.03,-0.96,32.52,99.71,444.86,-1.71,444.87,0
4673.191591,156.86,-7.15,1.60,-0.12,-0.03,-0.96,32.52,99.69,448.45,0.91,447.50,0
4673.201256,156.86,-7.15,1.60,-0.12,-0.03,-0.96,32.52,99.71,444.86,-1.01,445.56,0
4673.210974,156.86,-7.15,1.60,-0.12,-0.03,-0.96,32.53,99.71,444.86,-1.52,445.04,0
4673.220621,156.86,-7.15,1.60,-0.12,-0.03,-0.96,32.52,99.69,448.45,0.97,447.55,0
4673.230269,156.86,-7.15,1.60,-0.12,-0.03,-0.96,32.52,99.71,444.86,-0.99,445.58,0
4673.239929,156.85,-7.15,1.60,-0.12,-0.03,-0.96,32.51,99.71,444.86,-1.50,445.05,0
4673.249658,156.85,-7.15,1.60,-0.12,-0.02,-0.96,32.52,99.71,444.86,-1.62,444.91,0
4673.259322,156.85,-7.15,1.59,-0.13,-0.02,-0.96,32.52,99.71,444.86,-1.65,444.87,0
4673.268992,156.85,-7.15,1.59,-0.13,-0.02,-0.96,32.52,99.71,444.86,-1.64,444.86,0
4673.278674,156.84,-7.15,1.59,-0.12,-0.03,-0.96,32.52,99.71,444.86,-1.63,444.86,0
4673.288663,156.84,-7.15,1.59,-0.12,-0.03,-0.97,32.52,99.71,444.86,-1.61,444.85,0
4673.298310,156.84,-7.15,1.59,-0.12,-0.03,-0.96,32.52,99.71,444.86,-1.59,444.85,0
4673.308048,156.84,-7.15,1.60,-0.12,-0.03,-0.96,32.52,99.69,448.45,1.03,447.50,0
4673.317719,156.84,-7.15,1.60,-0.12,-0.03,-0.96,32.52,99.69,448.45,1.72,448.20,0
4673.332281,156.84,-7.15,1.60,-0.12,-0.03,-0.96,32.53,99.71,444.86,-0.72,445.75,0
4673.341964,156.84,-7.15,1.59,-0.13,-0.02,-0.96,32.52,99.69,448.45,1.25,447.74,0
4673.351733,156.83,-7.15,1.59,-0.12,-0.03,-0.96,32.52,99.71,444.86,-0.85,445.63,0
4673.361411,156.83,-7.15,1.59,-0.12,-0.03,-0.96,32.52,99.69,448.45,1.22,447.70,0
4673.371061,156.83,-7.15,1.59,-0.12,-0.03,-0.96,32.52,99.71,444.86,-0.86,445.62,0
4673.380700,156.83,-7.15,1.59,-0.13,-0.02,-0.96,32.52,99.71,444.86,-1.40,445.06,0
4673.390353,156.83,-7.15,1.59,-0.12,-0.02,-0.95,32.52,99.69,448.45,1.08,447.55,0
4673.400159,156.82,-7.15,1.59,-0.12,-0.03,-0.96,32.52,99.69,448.45,1.73,448.22,0
4673.409828,156.82,-7.15,1.59,-0.12,-0.03,-0.96,32.52,99.69,448.45,1.89,448.40,0
4673.419501,156.82,-7.15,1.59,-0.12,-0.03,-0.96,32.52,99.69,448.45,1.91,448.44,0
4673.429186,156.81,-7.15,1.59,-0.12,-0.03,-0.96,32.52,99.71,444.86,-0.71,445.82,0
4673.438917,156.81,-7.15,1.59,-0.12,-0.03,-0.96,32.52,99.69,448.45,1.22,447.75,0
4673.448589,156.81,-7.15,1.59,-0.12,-0.03,-0.96,32.52,99.71,444.86,-0.90,445.63,0
4673.458236,156.81,-7.15,1.59,-0.13,-0.02,-0.96,32.52,99.69,448.45,1.17,447.70,0
4673.467951,156.81,-7.15,1.59,-0.13,-0.02,-0.96,32.52,99.69,448.45,1.70,448.26,0
4673.477674,156.81,-7.15,1.59,-0.11,-0.03,-0.96,32.52,99.71,444.86,-0.78,445.77,0
4673.492336,156.81,-7.15,1.59,-0.12,-0.03,-0.96,32.52,99.71,444.86,-1.43,445.10,0
4673.501994,156.80,-7.15,1.59,-0.13,-0.03,-0.96,32.52,99.69,448.45,1.02,447.56,0
4673.511646,156.80,-7.15,1.59,-0.12,-0.03,-0.96,32.52,99.71,444.86,-0.95,445.58,0
4673.521300,156.80,-7.15,1.59,-0.11,-0.03,-0.96,32.52,99.69,448.45,1.14,447.69,0
4673.530986,156.80,-7.15,1.59,-0.12,-0.03,-0.96,32.52,99.69,448.45,1.69,448.25,0
4673.540634,156.80,-7.15,1.59,-0.13,-0.02,-0.96,32.52,99.68,451.77,4.24,450.84,0
4673.550305,156.79,-7.15,1.59,-0.12,-0.03,-0.96,32.52,99.69,448.45,2.47,449.10,0
4673.559963,156.79,-7.15,1.59,-0.11,-0.03,-0.96,32.52,99.71,444.86,-0.63,445.99,0
4673.569601,156.79,-7.15,1.59,-0.11,-0.03,-0.96,32.52,99.71,444.86,-1.45,445.16,0
4673.579286,156.79,-7.15,1.59,-0.13,-0.02,-0.96,32.52,99.69,448.45,0.96,447.58,0
4673.588955,156.79,-7.15,1.59,-0.12,-0.03,-0.96,32.52,99.69,448.45,1.59,448.22,0
4673.598618,156.79,-7.15,1.59,-0.12,-0.03,-0.96,32.52,99.69,448.45,1.75,448.40,0
4673.608288,156.78,-7.15,1.59,-0.12,-0.03,-0.96,32.52,99.69,448.45,1.78,448.44,0
4673.618041,156.78,-7.15,1.59,-0.12,-0.03,-0.96,32.52,99.69,448.45,1.77,448.46,0
4673.627720,156.78,-7.15,1.59,-0.12,-0.03,-0.96,32.52,99.71,444.86,-0.86,445.82,0
4673.642299,156.78,-7.15,1.59,-0.11,-0.03,-0.96,32.52,99.71,444.86,-1.55,445.11,0
4673.651958,156.78,-7.15,1.59,-0.12,-0.03,-0.96,32.52,99.69,448.45,0.89,447.56,0
4673.661746,156.78,-7.15,1.59,-0.12,-0.02,-0.96,32.52,99.69,448.45,1.53,448.22,0
4673.671479,156.78,-7.14,1.59,-0.12,-0.03,-0.96,32.52,99.71,444.86,-0.92,445.76,0
4673.681170,156.77,-7.15,1.59,-0.12,-0.03,-0.96,32.52,99.69,448.45,1.05,447.74,0
4673.690812,156.77,-7.15,1.59,-0.12,-0.03,-0.96,32.52,99.69,448.45,1.56,448.27,0
4673.700478,156.77,-7.14,1.59,-0.13,-0.03,-0.96,32.52,99.69,448.45,1.69,448.41,0
4673.710166,156.77,-7.14,1.59,-0.12,-0.03,-0.96,32.52,99.71,444.86,-0.91,445.81,0
4673.719814,156.77,-7.15,1.59,-0.11,-0.03,-0.96,32.52,99.71,444.86,-1.59,445.11,0
4673.729499,156.77,-7.14,1.59,-0.12,-0.03,-0.96,32.52,99.71,444.86,-1.76,444.92,0
4673.739142,156.76,-7.14,1.59,-0.13,-0.03,-0.96,32.52,99.69,448.45,0.83,447.51,0
4673.748834,156.76,-7.14,1.59,-0.12,-0.03,-0.96,32.52,99.69,448.45,1.51,448.21,0
4673.758547,156.76,-7.15,1.59,-0.12,-0.03,-0.96,32.52,99.71,444.86,-0.94,445.75,0
4673.768201,156.76,-7.15,1.59,-0.12,-0.03,-0.96,32.52,99.71,444.86,-1.58,445.09,0
4673.777846,156.76,-7.14,1.59,-0.12,-0.03,-0.96,32.52,99.71,444.86,-1.74,444.92,0
4673.787667,156.76,-7.15,1.59,-0.12,-0.03,-0.96,32.52,99.69,448.45,0.85,447.51,0
4673.802352,156.75,-7.15,1.59,-0.12,-0.03,-0.96,32.52,99.71,444.86,-1.09,445.57,0
4673.812052,156.75,-7.15,1.59,-0.12,-0.03,-0.96,32.52,99.71,444.86,-1.60,445.04,0
4673.821796,156.75,-7.15,1.59,-0.12,-0.03,-0.96,32.52,99.69,448.45,0.90,447.55,0
4673.831878,156.75,-7.15,1.59,-0.12,-0.03,-0.96,32.52,99.69,448.45,1.55,448.22,0
4673.841939,156.75,-7.15,1.59,-0.12,-0.03,-0.97,32.52,99.71,444.86,-0.90,445.75,0
4673.851606,156.74,-7.15,1.59,-0.12,-0.02,-0.96,32.52,99.69,448.45,1.07,447.74,0
4673.861319,156.74,-7.15,1.59,-0.12,-0.03,-0.96,32.52,99.71,444.86,-1.03,445.63,0
4673.871042,156.74,-7.15,1.59,-0.12,-0.03,-0.95,32.53,99.70,447.07,0.03,446.69,0
4673.880768,156.74,-7.15,1.59,-0.12,-0.03,-0.96,32.52,99.71,444.86,-1.30,445.34,0
4673.890426,156.74,-7.15,1.59,-0.12,-0.02,-0.96,32.52,99.71,444.86,-1.64,444.99,0
4673.900101,156.74,-7.15,1.59,-0.12,-0.03,-0.96,32.52,99.69,448.45,0.89,447.53,0
4673.909803,156.73,-7.15,1.59,-0.12,-0.03,-0.96,32.52,99.71,444.86,-1.06,445.57,0
4673.919492,156.73,-7.15,1.59,-0.12,-0.03,-0.96,32.52,99.71,444.86,-1.56,445.05,0
4673.929143,156.73,-7.15,1.59,-0.12,-0.02,-0.96,32.52,99.71,444.86,-1.69,444.91,0
4673.938798,156.73,-7.14,1.59,-0.13,-0.02,-0.96,32.52,99.69,448.45,0.91,447.51,0
4673.948589,156.73,-7.14,1.59,-0.12,-0.03,-0.96,32.52,99.69,448.45,1.59,448.21,0
4673.958234,156.73,-7.15,1.59,-0.12,-0.03,-0.96,32.52,99.71,444.86,-0.86,445.75,0
4673.967974,156.73,-7.15,1.59,-0.12,-0.03,-0.96,32.52,99.71,444.86,-1.50,445.09,0
4673.977617,156.72,-7.14,1.59,-0.12,-0.03,-0.96,32.52,99.69,448.45,0.96,447.56,0
4673.992293,156.72,-7.15,1.59,-0.12,-0.03,-0.96,32.52,99.71,444.86,-1.02,445.58,0
4674.001952,156.72,-7.15,1.59,-0.12,-0.03,-0.96,32.52,99.69,448.45,1.09,447.69,0
4674.011602,156.72,-7.14,1.59,-0.13,-0.02,-0.96,32.53,99.69,448.45,1.63,448.25,0
4674.021287,156.71,-7.14,1.59,-0.13,-0.03,-0.96,32.52,99.68,451.77,4.19,450.84,0
4674.030930,156.71,-7.14,1.59,-0.12,-0.03,-0.95,32.52,99.69,448.45,2.41,449.10,0
4674.040628,156.71,-7.15,1.59,-0.12,-0.03,-0.96,32.52,99.71,444.86,-0.69,445.99,0
4674.050293,156.71,-7.15,1.59,-0.12,-0.02,-0.96,32.52,99.69,448.45,1.11,447.80,0
4674.059942,156.71,-7.15,1.59,-0.12,-0.03,-0.96,32.52,99.71,444.86,-1.04,445.64,0
4674.069606,156.71,-7.15,1.59,-0.12,-0.03,-0.96,32.52,99.71,444.86,-1.60,445.07,0
4674.079275,156.70,-7.15,1.59,-0.12,-0.03,-0.96,32.52,99.71,444.86,-1.74,444.91,0
4674.088917,156.70,-7.15,1.59,-0.13,-0.03,-0.96,32.52,99.69,448.45,0.85,447.51,0
4674.098607,156.70,-7.15,1.59,-0.13,-0.03,-0.96,32.51,99.71,444.86,-1.08,445.57,0
4674.108300,156.70,-7.15,1.59,-0.12,-0.03,-0.96,32.53,99.71,443.75,-2.39,444.23,0
4674.118021,156.70,-7.15,1.59,-0.12,-0.03,-0.96,32.53,99.71,443.75,-2.72,443.87,0
4674.132569,156.69,-7.15,1.59,-0.13,-0.03,-0.96,32.51,99.70,445.97,-1.18,445.40,0
4674.142211,156.69,-7.15,1.59,-0.12,-0.03,-0.96,32.52,99.69,448.45,1.05,447.64,0
4674.152015,156.69,-7.15,1.59,-0.12,-0.03,-0.96,32.52,99.71,444.86,-0.98,445.60,0
4674.161680,156.68,-7.15,1.59,-0.12,-0.03,-0.96,32.52,99.71,444.86,-1.51,445.05,0
4674.171344,156.68,-7.15,1.59,-0.12,-0.03,-0.96,32.52,99.71,444.86,-1.64,444.91,0
4674.180986,156.68,-7.15,1.59,-0.12,-0.03,-0.96,32.52,99.71,444.86,-1.67,444.87,0
4674.190636,156.68,-7.15,1.59,-0.11,-0.03,-0.96,32.52,99.71,444.86,-1.66,444.86,0
4674.200284,156.68,-7.15,1.59,-0.12,-0.03,-0.96,32.52,99.68,451.77,3.39,449.93,0
4674.209966,156.68,-7.15,1.59,-0.13,-0.03,-0.96,32.52,99.69,448.45,2.28,448.86,0
4674.219641,156.68,-7.15,1.59,-0.13,-0.03,-0.96,32.52,99.69,448.45,1.97,448.57,0
4674.229336,156.68,-7.15,1.59,-0.12,-0.03,-0.96,32.52,99.69,448.45,1.88,448.49,0
4674.239035,156.67,-7.15,1.59,-0.12,-0.03,-0.96,32.52,99.68,451.77,4.26,450.91,0
4674.248676,156.67,-7.15,1.59,-0.13,-0.03,-0.96,32.52,99.69,448.45,2.44,449.12,0
4674.258317,156.67,-7.15,1.59,-0.12,-0.03,-0.96,32.52,99.68,451.77,4.36,451.08,0
4674.268083,156.67,-7.15,1.59,-0.12,-0.03,-0.96,32.52,99.68,451.77,4.83,451.60,0
4674.277730,156.67,-7.15,1.59,-0.12,-0.02,-0.96,32.52,99.68,451.77,4.92,451.74,0
4674.287564,156.66,-7.15,1.59,-0.13,-0.02,-0.96,32.52,99.68,451.77,4.91,451.78,0
4674.302293,156.66,-7.15,1.59,-0.12,-0.03,-0.96,32.52,99.67,455.09,7.29,454.23,0
4674.312045,156.66,-7.15,1.59,-0.11,-0.03,-0.96,32.52,99.67,455.09,7.87,454.88,0
4674.321727,156.66,-7.15,1.59,-0.12,-0.03,-0.96,32.52,99.67,455.09,7.97,455.06,0
4674.331406,156.66,-7.15,1.59,-0.12,-0.03,-0.96,32.52,99.66,458.41,10.35,457.55,0
4674.341056,156.66,-7.15,1.59,-0.12,-0.03,-0.96,32.52,99.66,458.41,10.91,458.21,0
4674.350814,156.66,-7.15,1.59,-0.12,-0.03,-0.96,32.52,99.66,458.41,10.98,458.39,0
4674.360559,156.66,-7.15,1.59,-0.12,-0.03,-0.96,32.52,99.66,458.41,10.92,458.44,0
4674.370259,156.66,-7.15,1.59,-0.13,-0.02,-0.96,32.52,99.64,462.01,13.44,461.09,0
4674.379897,156.65,-7.15,1.59,-0.12,-0.03,-0.96,32.52,99.65,459.80,12.40,460.18,0
4674.389605,156.65,-7.15,1.59,-0.12,-0.03,-0.96,32.52,99.64,462.01,13.64,461.56,0
4674.399264,156.65,-7.15,1.59,-0.12,-0.03,-0.96,32.52,99.63,466.44,17.10,465.18,0
4674.408960,156.65,-7.15,1.59,-0.13,-0.03,-0.96,32.52,99.64,462.01,14.67,462.90,0
4674.418697,156.65,-7.15,1.59,-0.13,-0.03,-0.96,32.52,99.64,462.01,13.92,462.29,0
4674.428411,156.64,-7.15,1.59,-0.11,-0.03,-0.96,32.52,99.62,468.65,18.45,467.00,0
4674.438080,156.64,-7.15,1.59,-0.12,-0.03,-0.96,32.52,99.62,468.65,19.52,468.26,0
4674.447777,156.64,-7.15,1.59,-0.13,-0.02,-0.96,32.52,99.61,472.25,22.28,471.25,0
4674.462341,156.64,-7.15,1.59,-0.12,-0.03,-0.96,32.53,99.61,472.25,22.85,472.04,0
4674.471996,156.64,-7.15,1.59,-0.12,-0.03,-0.96,32.52,99.60,475.57,25.26,474.70,0
4674.481684,156.63,-7.15,1.59,-0.12,-0.02,-0.96,32.52,99.58,478.89,28.13,477.85,0
4674.491327,156.63,-7.15,1.59,-0.13,-0.03,-0.96,32.52,99.58,478.89,28.69,478.69,0
4674.500972,156.63,-7.15,1.59,-0.12,-0.03,-0.96,32.52,99.57,482.22,31.05,481.36,0
4674.510613,156.63,-7.15,1.59,-0.11,-0.03,-0.96,32.52,99.57,482.22,31.45,482.07,0
4674.520257,156.63,-7.15,1.59,-0.12,-0.02,-0.96,32.52,99.56,485.82,33.95,484.91,0
4674.529903,156.63,-7.15,1.59,-0.12,-0.03,-0.96,32.52,99.53,492.46,39.20,490.55,0
4674.539546,156.63,-7.15,1.59,-0.12,-0.03,-0.96,32.52,99.53,492.46,40.31,492.06,0
4674.549197,156.63,-7.15,1.59,-0.12,-0.03,-0.96,32.52,99.52,496.06,42.93,495.11,0
4674.558860,156.63,-7.15,1.59,-0.12,-0.03,-0.96,32.54,99.50,501.60,47.35,500.00,0
4674.568565,156.63,-7.15,1.59,-0.12,-0.03,-0.96,32.54,99.50,501.60,48.18,501.30,0
4674.578208,156.62,-7.15,1.59,-0.12,-0.03,-0.96,32.52,99.46,512.96,56.32,510.00,0
4674.587863,156.62,-7.15,1.59,-0.12,-0.03,-0.96,32.53,99.44,519.89,63.12,517.42,0
4674.602320,156.62,-7.15,1.59,-0.12,-0.03,-0.96,32.52,99.41,526.55,69.31,524.29,0
4674.611962,156.62,-7.15,1.59,-0.13,-0.03,-0.96,32.53,99.40,528.76,72.06,527.76,0
4674.621687,156.61,-7.15,1.59,-0.12,-0.03,-0.96,32.52,99.39,533.48,75.70,532.15,0
4674.631426,156.61,-7.15,1.59,-0.12,-0.03,-0.96,32.52,99.36,540.13,80.96,538.22,0
4674.641079,156.61,-7.15,1.59,-0.12,-0.03,-0.96,32.52,99.34,547.07,86.82,544.94,0
4674.650739,156.61,-7.15,1.59,-0.12,-0.03,-0.96,32.52,99.30,557.34,95.22,554.28,0
4674.660499,156.60,-7.15,1.59,-0.12,-0.03,-0.96,32.52,99.28,564.00,101.60,561.67,0
4674.670153,156.60,-7.15,1.59,-0.12,-0.03,-0.96,32.52,99.26,567.60,105.18,566.30,0
4674.679992,156.60,-7.15,1.60,-0.13,-0.03,-0.96,32.52,99.23,577.88,112.85,575.08,1
4674.689694,156.60,-7.15,1.59,-0.13,-0.03,-0.96,32.52,99.20,584.54,118.91,582.33,1
4674.699395,156.60,-7.15,1.59,-0.11,-0.03,-0.95,32.53,99.18,590.37,123.90,588.55,1
4674.709104,156.59,-7.15,1.59,-0.11,-0.03,-0.96,32.52,99.15,598.15,129.99,595.93,1
4674.718781,156.59,-7.15,1.59,-0.11,-0.03,-0.96,32.52,99.15,598.15,130.66,597.91,1
4674.728478,156.59,-7.15,1.59,-0.12,-0.03,-0.96,32.52,99.09,615.38,142.43,611.09,1
4674.738128,156.59,-7.15,1.59,-0.12,-0.03,-0.96,32.53,99.04,629.00,154.44,624.63,1
4674.747896,156.59,-7.15,1.60,-0.12,-0.03,-0.96,32.52,99.02,635.96,161.57,633.36,1
4674.757596,156.59,-7.15,1.60,-0.12,-0.02,-0.96,32.52,98.99,644.86,168.76,642.23,1
4674.767684,156.59,-7.15,1.60,-0.12,-0.02,-0.96,32.52,98.99,644.86,169.44,644.61,1
4674.782436,156.58,-7.15,1.59,-0.12,-0.03,-0.96,32.52,98.92,663.22,181.77,658.73,1
4674.792086,156.58,-7.15,1.60,-0.12,-0.03,-0.96,32.52,98.89,670.18,188.78,667.63,1
4674.801776,156.58,-7.15,1.59,-0.13,-0.03,-0.96,32.52,98.86,680.21,196.57,677.37,1
4674.811452,156.58,-7.15,1.60,-0.13,-0.03,-0.96,32.52,98.83,687.17,202.27,685.09,1
4674.821354,156.57,-7.15,1.60,-0.12,-0.03,-0.96,32.52,98.78,700.82,212.26,697.19,1
4674.831074,156.57,-7.15,1.60,-0.12,-0.03,-0.96,32.52,98.76,707.79,218.44,705.54,1
4674.840786,156.57,-7.15,1.60,-0.12,-0.03,-0.96,32.52,98.70,724.80,230.87,720.27,1
4674.850501,156.57,-7.15,1.60,-0.12,-0.03,-0.96,32.52,98.69,728.42,235.13,726.87,1
4674.860200,156.57,-7.15,1.60,-0.12,-0.03,-0.95,32.51,98.65,738.46,241.86,736.01,1
4674.869890,156.57,-7.15,1.60,-0.12,-0.03,-0.96,32.52,98.60,752.41,252.04,748.70,1
4674.879564,156.57,-7.15,1.60,-0.13,-0.02,-0.96,32.54,98.57,761.35,259.42,758.66,1
4674.889424,156.56,-7.15,1.59,-0.12,-0.03,-0.96,32.52,98.53,772.80,267.82,769.73,1
4674.899137,156.56,-7.15,1.60,-0.12,-0.03,-0.95,32.52,98.48,786.76,278.27,782.95,1
4674.908782,156.56,-7.15,1.60,-0.12,-0.03,-0.96,32.52,98.45,793.47,283.90,791.41,1
4674.918483,156.56,-7.15,1.60,-0.12,-0.03,-0.96,32.52,98.45,793.47,283.33,793.67,1
4674.928123,156.56,-7.15,1.60,-0.12,-0.03,-0.96,32.52,98.38,814.15,296.18,809.47,1
4674.937801,156.55,-7.15,1.60,-0.11,-0.03,-0.96,32.52,98.32,831.21,309.85,826.23,1
4674.952353,156.55,-7.15,1.60,-0.12,-0.03,-0.96,32.52,98.29,838.20,316.32,835.85,1
4674.962057,156.55,-7.15,1.60,-0.13,-0.03,-0.96,32.52,98.24,851.92,325.72,848.49,1
4674.971704,156.54,-7.15,1.60,-0.12,-0.03,-0.96,32.52,98.22,858.91,330.94,857.01,1
4674.981388,156.54,-7.15,1.60,-0.11,-0.03,-0.96,32.52,98.17,872.63,339.90,869.37,1
4674.991041,156.54,-7.15,1.60,-0.12,-0.03,-0.96,32.52,98.13,883.00,347.36,880.28,1
4675.000722,156.54,-7.15,1.60,-0.13,-0.02,-0.96,32.52,98.08,896.73,356.80,893.29,1
4675.010379,156.54,-7.15,1.60,-0.12,-0.03,-0.96,32.52,98.05,907.10,364.27,904.38,1
4675.020081,156.53,-7.15,1.60,-0.12,-0.03,-0.96,32.52,98.00,920.84,373.60,917.44,1
4675.029741,156.53,-7.15,1.60,-0.12,-0.03,-0.96,32.52,97.96,931.22,380.92,928.56,1
4675.039382,156.53,-7.15,1.60,-0.13,-0.02,-0.96,32.52,97.92,941.60,387.65,939.15,1
4675.049031,156.53,-7.15,1.60,-0.12,-0.03,-0.96,32.52,97.89,951.99,394.17,949.61,1
4675.058758,156.53,-7.15,1.60,-0.11,-0.03,-0.96,32.52,97.84,965.75,403.05,962.51,1
4675.068478,156.53,-7.15,1.60,-0.11,-0.03,-0.96,32.52,97.84,965.75,402.47,965.96,1
4675.078125,156.53,-7.15,1.60,-0.13,-0.03,-0.96,32.52,97.76,986.25,414.33,981.94,1
4675.087791,156.53,-7.15,1.60,-0.12,-0.03,-0.96,32.52,97.73,996.65,422.03,993.85,1
4675.102274,156.53,-7.15,1.60,-0.11,-0.03,-0.95,32.51,97.68,1010.71,431.24,1007.36,1
4675.111949,156.53,-7.15,1.60,-0.12,-0.03,-0.96,32.52,97.65,1017.46,435.45,1015.93,1
4675.121595,156.52,-7.15,1.60,-0.13,-0.02,-0.96,32.52,97.60,1031.25,443.44,1028.34,1
4675.131239,156.52,-7.15,1.59,-0.12,-0.03,-0.96,32.52,97.57,1041.66,449.92,1039.30,1
4675.140902,156.52,-7.15,1.60,-0.12,-0.03,-0.96,32.52,97.51,1059.12,461.07,1055.05,1
4675.150617,156.52,-7.15,1.60,-0.12,-0.02,-0.96,32.52,97.49,1062.50,463.13,1061.75,1
4675.160275,156.52,-7.15,1.60,-0.13,-0.03,-0.96,32.52,97.44,1076.30,470.36,1073.67,1
4675.169928,156.52,-7.15,1.60,-0.12,-0.03,-0.95,32.52,97.41,1086.73,476.45,1084.51,1
4675.179614,156.51,-7.15,1.60,-0.12,-0.03,-0.96,32.52,97.36,1100.54,484.65,1097.55,1
4675.189266,156.51,-7.15,1.60,-0.12,-0.03,-0.96,32.52,97.33,1107.59,488.43,1106.21,1
4675.198938,156.51,-7.15,1.60,-0.13,-0.02,-0.96,32.52,97.27,1124.80,498.41,1121.16,1
4675.208583,156.51,-7.15,1.60,-0.12,-0.03,-0.96,32.52,97.25,1131.85,502.57,1130.34,1
4675.218357,156.51,-7.15,1.60,-0.12,-0.03,-0.96,32.52,97.25,1131.85,500.01,1132.79,1
4675.228050,156.51,-7.15,1.60,-0.12,-0.03,-0.96,32.52,97.17,1152.74,510.91,1148.78,1
4675.237722,156.50,-7.15,1.60,-0.13,-0.03,-0.96,32.52,97.12,1166.58,520.16,1163.21,1
4675.252357,156.50,-7.15,1.60,-0.12,-0.03,-0.96,32.51,97.10,1174.49,524.59,1172.88,1
4675.262061,156.50,-7.15,1.60,-0.11,-0.03,-0.96,32.52,97.05,1187.21,531.20,1184.80,1
4675.271761,156.50,-7.15,1.60,-0.12,-0.03,-0.96,32.52,97.03,1194.28,534.24,1193.18,1
4675.281408,156.50,-7.15,1.60,-0.13,-0.03,-0.96,32.52,96.97,1211.53,543.72,1208.08,1
4675.291149,156.50,-7.15,1.60,-0.12,-0.03,-0.96,32.52,96.93,1222.00,549.90,1219.75,1
4675.300847,156.50,-7.15,1.60,-0.11,-0.03,-0.96,32.52,96.89,1232.47,555.16,1230.56,1
4675.310527,156.49,-7.15,1.60,-0.12,-0.03,-0.96,32.52,96.84,1246.35,562.62,1243.63,1
4675.320193,156.49,-7.15,1.60,-0.13,-0.03,-0.96,32.52,96.81,1256.83,568.13,1254.82,1
4675.329874,156.49,-7.15,1.60,-0.12,-0.03,-0.96,32.53,96.78,1263.91,570.61,1263.00,1
4675.339668,156.49,-7.15,1.60,-0.12,-0.03,-0.96,32.52,96.73,1277.80,577.23,1275.39,1
4675.349367,156.48,-7.15,1.60,-0.12,-0.02,-0.97,32.54,96.71,1283.75,579.12,1283.06,1
4675.359011,156.48,-7.15,1.60,-0.13,-0.03,-0.96,32.52,96.67,1295.09,583.66,1293.43,1
4675.368646,156.48,-7.15,1.60,-0.13,-0.03,-0.96,32.52,96.67,1295.09,580.61,1296.20,1
4675.378333,156.48,-7.15,1.60,-0.11,-0.03,-0.96,32.52,96.58,1319.77,593.55,1315.06,1
4675.387977,156.47,-7.15,1.60,-0.12,-0.03,-0.96,32.52,96.55,1329.99,600.11,1327.60,1
4675.397801,156.47,-7.15,1.60,-0.13,-0.02,-0.96,32.52,96.51,1340.49,605.13,1338.67,1
4675.407557,156.47,-7.15,1.60,-0.12,-0.03,-0.96,32.52,96.49,1347.59,607.22,1346.83,1
4675.422266,156.47,-7.15,1.60,-0.11,-0.03,-0.96,32.52,96.44,1361.51,613.49,1359.23,1
4675.431911,156.47,-7.15,1.60,-0.12,-0.03,-0.96,32.52,96.41,1368.62,615.86,1367.76,1
4675.441544,156.46,-7.15,1.60,-0.12,-0.03,-0.96,32.52,96.35,1385.96,624.64,1382.76,1
4675.451184,156.46,-7.15,1.60,-0.12,-0.03,-0.96,32.53,96.33,1393.07,627.59,1391.99,1
4675.460906,156.46,-7.15,1.60,-0.12,-0.03,-0.96,32.53,96.29,1403.59,631.47,1402.18,1
4675.470584,156.46,-7.15,1.60,-0.12,-0.03,-0.96,32.53,96.26,1412.70,634.54,1411.58,1
4675.480292,156.46,-7.15,1.60,-0.12,-0.02,-0.95,32.52,96.22,1424.37,639.23,1422.66,1
4675.489934,156.45,-7.15,1.60,-0.12,-0.03,-0.96,32.52,96.18,1434.90,643.49,1433.35,1
4675.499671,156.45,-7.15,1.60,-0.12,-0.03,-0.96,32.52,96.14,1445.44,647.61,1443.94,1
4675.509343,156.45,-7.15,1.60,-0.12,-0.02,-0.96,32.52,96.10,1455.98,651.66,1454.51,1
4675.519019,156.45,-7.15,1.60,-0.12,-0.02,-0.96,32.52,96.10,1455.98,647.99,1457.32,1
4675.528666,156.45,-7.15,1.60,-0.12,-0.03,-0.96,32.53,96.03,1477.07,657.66,1473.55,1
4675.538365,156.45,-7.15,1.60,-0.11,-0.03,-0.96,32.52,95.99,1487.63,663.12,1485.64,1
4675.548055,156.45,-7.15,1.60,-0.12,-0.03,-0.96,32.52,95.96,1497.89,667.22,1496.40,1
4675.557710,156.45,-7.15,1.60,-0.12,-0.03,-0.96,32.53,95.90,1515.59,676.33,1512.27,1
4675.567529,156.45,-7.15,1.60,-0.12,-0.03,-0.96,32.53,95.90,1515.59,673.82,1516.50,1
4675.582202,156.44,-7.15,1.60,-0.11,-0.03,-0.96,32.52,95.82,1536.72,683.64,1533.14,1
4675.591838,156.44,-7.15,1.60,-0.12,-0.02,-0.96,32.53,95.80,1543.57,686.26,1542.62,1
4675.601520,156.44,-7.15,1.60,-0.13,-0.03,-0.96,32.52,95.77,1550.72,687.16,1550.39,1
4675.611171,156.44,-7.15,1.60,-0.12,-0.03,-0.96,32.52,95.72,1564.72,692.59,1562.74,1
4675.620852,156.44,-7.15,1.60,-0.12,-0.03,-0.96,32.52,95.70,1571.87,694.19,1571.28,1
4675.630485,156.44,-7.15,1.60,-0.12,-0.02,-0.96,32.52,95.66,1582.16,697.06,1581.12,1
4675.640158,156.44,-7.15,1.60,-0.12,-0.03,-0.96,32.53,95.62,1595.32,702.33,1593.40,1
4675.649795,156.43,-7.15,1.60,-0.12,-0.03,-0.96,32.52,95.56,1610.49,709.66,1607.82,1
4675.659495,156.43,-7.15,1.60,-0.11,-0.03,-0.96,32.52,95.54,1617.36,711.44,1616.71,1
4675.669140,156.43,-7.15,1.60,-0.11,-0.03,-0.96,32.52,95.54,1617.36,706.73,1619.07,1
4675.678781,156.43,-7.15,1.60,-0.12,-0.03,-0.96,32.52,95.45,1641.99,718.27,1637.78,1
4675.688437,156.43,-7.15,1.60,-0.12,-0.03,-0.96,32.52,95.44,1645.71,718.82,1645.52,1
4675.698128,156.43,-7.15,1.60,-0.12,-0.03,-0.96,32.52,95.39,1659.76,723.95,1657.89,1
4675.707807,156.43,-7.15,1.60,-0.12,-0.02,-0.96,32.52,95.35,1670.37,727.77,1668.98,1
4675.722270,156.43,-7.15,1.60,-0.12,-0.03,-0.96,32.52,95.32,1680.98,731.21,1679.72,1
4675.732061,156.43,-7.15,1.60,-0.12,-0.03,-0.96,32.52,95.28,1691.59,734.53,1690.38,1
4675.741705,156.43,-7.15,1.60,-0.12,-0.03,-0.96,32.52,95.23,1705.65,740.30,1703.55,1
4675.751354,156.43,-7.15,1.60,-0.13,-0.03,-0.96,32.52,95.22,1709.10,738.95,1709.59,1
4675.761023,156.42,-7.15,1.60,-0.13,-0.03,-0.96,32.52,95.16,1726.62,745.97,1724.06,1
4675.770666,156.42,-7.15,1.60,-0.12,-0.03,-0.96,32.52,95.13,1733.80,747.63,1733.19,1
4675.780300,156.42,-7.15,1.60,-0.12,-0.03,-0.96,32.52,95.08,1747.88,752.88,1745.96,1
4675.789965,156.42,-7.15,1.60,-0.12,-0.02,-0.96,32.52,95.05,1758.51,756.54,1757.18,1
4675.799826,156.42,-7.15,1.60,-0.12,-0.03,-0.96,32.52,95.01,1769.15,759.75,1767.98,1
4675.809561,156.42,-7.15,1.60,-0.11,-0.03,-0.96,32.52,94.97,1779.79,762.81,1778.68,1
4675.819266,156.42,-7.15,1.60,-0.11,-0.03,-0.96,32.52,94.97,1779.79,758.07,1781.52,1
4675.828957,156.42,-7.16,1.60,-0.12,-0.02,-0.96,32.52,94.92,1793.90,761.56,1792.62,1
4675.838648,156.42,-7.16,1.60,-0.12,-0.03,-0.96,32.52,94.88,1808.00,767.22,1805.94,1
4675.848306,156.42,-7.16,1.60,-0.12,-0.03,-0.96,32.52,94.83,1822.11,773.41,1819.86,1
4675.857955,156.41,-7.16,1.60,-0.12,-0.03,-0.96,32.52,94.80,1829.31,774.66,1828.86,1
4675.867634,156.41,-7.16,1.60,-0.12,-0.03,-0.96,32.52,94.80,1829.31,769.35,1831.25,1
4675.882368,156.41,-7.15,1.60,-0.13,-0.03,-0.96,32.52,94.73,1850.64,777.87,1847.54,1
4675.892027,156.41,-7.16,1.60,-0.12,-0.03,-0.95,32.52,94.69,1861.31,782.24,1859.72,1
4675.901717,156.41,-7.16,1.60,-0.12,-0.03,-0.96,32.52,94.65,1871.69,785.26,1870.59,1
4675.911381,156.40,-7.16,1.60,-0.13,-0.03,-0.96,32.52,94.62,1882.37,788.12,1881.33,1
4675.921020,156.40,-7.16,1.60,-0.12,-0.02,-0.96,32.52,94.58,1893.05,790.92,1892.03,1
4675.930731,156.40,-7.16,1.60,-0.11,-0.03,-0.96,32.53,94.55,1902.57,792.84,1901.87,1
4675.940410,156.40,-7.16,1.60,-0.12,-0.03,-0.96,32.53,94.51,1914.41,796.19,1913.19,1
4675.950066,156.40,-7.16,1.60,-0.12,-0.03,-0.96,32.52,94.48,1921.63,796.55,1921.51,1
4675.959726,156.40,-7.16,1.60,-0.12,-0.03,-0.96,32.52,94.42,1939.26,803.68,1936.66,1
4675.969619,156.40,-7.16,1.60,-0.12,-0.03,-0.96,32.52,94.42,1939.26,799.71,1940.70,1
4675.981855,156.39,-7.16,1.60,-0.12,-0.03,-0.96,32.52,94.36,1956.90,805.69,1954.72,1
4675.991640,156.39,-7.16,1.60,-0.12,-0.03,-0.96,32.52,94.32,1967.60,809.20,1966.32,1
4676.001600,156.38,-7.16,1.60,-0.12,-0.03,-0.96,32.53,94.27,1982.07,814.77,1980.04,1
4676.011430,156.38,-7.16,1.60,-0.12,-0.03,-0.96,32.52,94.26,1985.54,812.85,1986.24,1
4676.021174,156.38,-7.16,1.60,-0.12,-0.03,-0.96,32.52,94.22,1996.25,814.21,1995.75,1
4676.030976,156.37,-7.16,1.60,-0.13,-0.02,-0.96,32.52,94.19,2006.97,816.45,2006.15,1
4676.040695,156.37,-7.16,1.60,-0.12,-0.03,-0.96,32.52,94.15,2017.40,818.70,2016.58,1
4676.050346,156.37,-7.16,1.60,-0.12,-0.03,-0.96,32.52,94.13,2024.64,818.60,2024.67,1
4676.060414,156.37,-7.16,1.60,-0.12,-0.03,-0.96,32.52,94.08,2038.84,822.96,2037.25,1
4676.070080,156.37,-7.15,1.60,-0.12,-0.02,-0.96,32.52,94.05,2046.09,823.40,2045.93,1
4676.079806,156.37,-7.15,1.60,-0.12,-0.03,-0.96,32.52,94.00,2060.30,827.87,2058.67,1
4676.089479,156.36,-7.16,1.60,-0.11,-0.03,-0.96,32.52,93.98,2067.55,828.31,2067.39,1
4676.099120,156.36,-7.16,1.60,-0.12,-0.03,-0.96,32.52,93.94,2078.00,830.01,2077.38,1
4676.108763,156.36,-7.15,1.60,-0.13,-0.02,-0.96,32.52,93.92,2085.26,829.69,2085.37,1
4676.118539,156.36,-7.15,1.60,-0.13,-0.02,-0.96,32.52,93.92,2085.26,823.57,2087.49,1
4676.128183,156.36,-7.15,1.60,-0.11,-0.03,-0.96,32.52,93.84,2106.75,831.60,2103.82,1
4676.137945,156.36,-7.15,1.60,-0.12,-0.03,-0.96,32.52,93.81,2117.50,835.50,2116.07,1
4676.147764,156.36,-7.15,1.60,-0.13,-0.02,-0.96,32.52,93.77,2128.25,838.28,2127.24,1
4676.162311,156.36,-7.15,1.60,-0.12,-0.03,-0.96,32.51,93.72,2142.50,843.29,2140.67,1
4676.171999,156.36,-7.15,1.60,-0.11,-0.03,-0.96,32.52,93.70,2149.47,843.56,2149.38,1
4676.181650,156.36,-7.15,1.60,-0.12,-0.03,-0.96,32.52,93.66,2160.24,845.33,2159.59,1
4676.191291,156.35,-7.15,1.60,-0.13,-0.03,-0.96,32.52,93.62,2171.01,847.48,2170.22,1
4676.200933,156.35,-7.15,1.60,-0.12,-0.03,-0.96,32.52,93.56,2188.76,854.82,2186.09,1
4676.210613,156.35,-7.15,1.60,-0.11,-0.03,-0.95,32.52,93.55,2192.55,853.29,2193.10,1
4676.220277,156.35,-7.15,1.60,-0.12,-0.03,-0.96,32.52,93.51,2203.33,854.52,2202.88,1
4676.229913,156.35,-7.15,1.60,-0.12,-0.02,-0.96,32.52,93.46,2217.60,859.03,2215.97,1
4676.239550,156.35,-7.15,1.60,-0.12,-0.03,-0.96,32.52,93.42,2228.39,861.82,2227.37,1
4676.249186,156.34,-7.15,1.60,-0.12,-0.03,-0.95,32.52,93.40,2235.39,861.38,2235.55,1
4676.258901,156.34,-7.15,1.60,-0.12,-0.03,-0.96,32.52,93.36,2246.18,862.85,2245.64,1
4676.268558,156.34,-7.15,1.60,-0.12,-0.03,-0.96,32.52,93.36,2246.18,856.95,2248.33,1
4676.278304,156.34,-7.15,1.60,-0.12,-0.03,-0.96,32.52,93.30,2264.27,862.32,2262.31,1
4676.287958,156.34,-7.15,1.60,-0.11,-0.03,-0.96,32.52,93.26,2275.07,865.33,2273.97,1
4676.302427,156.34,-7.15,1.60,-0.12,-0.03,-0.96,32.52,93.23,2285.58,867.49,2284.80,1
4676.312019,156.34,-7.15,1.60,-0.13,-0.02,-0.96,32.52,93.19,2296.39,869.61,2295.61,1
4676.321708,156.34,-7.15,1.60,-0.12,-0.03,-0.96,32.53,93.17,2302.52,868.31,2303.00,1
4676.331989,156.33,-7.15,1.60,-0.12,-0.03,-0.96,32.52,93.14,2310.70,867.60,2310.96,1
4676.341701,156.33,-7.15,1.60,-0.12,-0.03,-0.96,32.52,93.09,2325.32,871.74,2323.81,1
4676.351373,156.33,-7.15,1.60,-0.13,-0.02,-0.96,32.53,93.07,2332.34,871.60,2332.39,1
4676.361031,156.33,-7.15,1.60,-0.12,-0.03,-0.96,32.53,93.02,2345.50,874.80,2344.34,1
4676.370809,156.33,-7.15,1.60,-0.12,-0.03,-0.96,32.52,92.99,2353.99,875.46,2353.75,1
4676.380443,156.33,-7.15,1.60,-0.12,-0.03,-0.96,32.52,92.95,2368.33,879.70,2366.78,1
4676.390173,156.33,-7.15,1.60,-0.12,-0.03,-0.96,32.52,92.92,2375.65,879.75,2375.63,1
4676.399933,156.33,-7.15,1.60,-0.12,-0.03,-0.96,32.52,92.88,2386.49,881.25,2385.94,1
4676.409602,156.33,-7.15,1.60,-0.12,-0.03,-0.96,32.52,92.85,2397.03,882.91,2396.43,1
4676.419309,156.33,-7.15,1.60,-0.12,-0.03,-0.96,32.52,92.85,2397.03,876.92,2399.21,1
4676.429065,156.32,-7.15,1.60,-0.13,-0.03,-0.96,32.52,92.79,2415.20,882.18,2413.29,1
4676.438754,156.32,-7.15,1.60,-0.12,-0.02,-0.96,32.52,92.74,2429.57,887.61,2427.59,1
4676.448410,156.32,-7.15,1.60,-0.11,-0.03,-0.96,32.53,92.73,2431.92,884.30,2433.12,1
4676.458119,156.32,-7.15,1.60,-0.12,-0.03,-0.96,32.52,92.66,2451.28,891.08,2448.81,1
4676.467759,156.32,-7.15,1.60,-0.12,-0.03,-0.96,32.52,92.66,2451.28,886.39,2452.99,1
4676.482271,156.32,-7.15,1.60,-0.12,-0.03,-0.96,32.52,92.60,2469.19,891.74,2467.24,1
4676.491923,156.32,-7.15,1.60,-0.11,-0.03,-0.96,32.52,92.58,2476.53,892.01,2476.43,1
4676.501595,156.32,-7.15,1.60,-0.12,-0.03,-0.96,32.51,92.54,2487.40,893.50,2486.86,1
4676.511313,156.31,-7.15,1.60,-0.13,-0.02,-0.96,32.53,92.51,2497.10,894.45,2496.75,1
4676.520971,156.31,-7.15,1.60,-0.12,-0.03,-0.96,32.52,92.48,2505.33,894.18,2505.42,1
4676.530609,156.31,-7.15,1.60,-0.11,-0.03,-0.96,32.53,92.46,2511.50,892.09,2512.26,1
4676.540245,156.31,-7.15,1.60,-0.12,-0.02,-0.96,32.52,92.39,2530.61,898.96,2528.11,1
4676.549950,156.31,-7.15,1.60,-0.12,-0.02,-0.96,32.52,92.38,2534.44,897.02,2535.15,1
4676.559591,156.31,-7.15,1.60,-0.12,-0.03,-0.96,32.52,92.34,2545.03,897.69,2544.79,1
4676.569237,156.31,-7.15,1.60,-0.12,-0.03,-0.96,32.52,92.34,2545.03,891.33,2547.35,1
4676.579471,156.31,-7.15,1.60,-0.12,-0.02,-0.96,32.52,92.27,2566.82,899.02,2564.02,1
4676.589143,156.30,-7.15,1.60,-0.13,-0.03,-0.96,32.52,92.24,2574.18,899.87,2573.87,1
4676.598788,156.30,-7.15,1.60,-0.12,-0.03,-0.96,32.53,92.20,2587.44,903.20,2586.23,1
4676.608570,156.30,-7.15,1.60,-0.12,-0.03,-0.96,32.53,92.17,2595.98,903.73,2595.79,1
4676.618217,156.30,-7.15,1.60,-0.12,-0.03,-0.96,32.53,92.17,2595.98,897.29,2598.33,1
4676.627887,156.30,-7.15,1.60,-0.13,-0.03,-0.96,32.52,92.11,2613.97,902.14,2612.20,1
4676.642418,156.30,-7.15,1.60,-0.12,-0.03,-0.96,32.52,92.07,2624.88,904.81,2623.91,1
4676.652109,156.30,-7.15,1.60,-0.12,-0.03,-0.96,32.52,92.05,2631.96,904.08,2632.23,1
4676.661796,156.29,-7.15,1.60,-0.12,-0.03,-0.96,32.52,92.01,2642.88,905.26,2642.46,1
4676.671441,156.29,-7.15,1.60,-0.12,-0.03,-0.96,32.52,91.99,2650.26,904.35,2650.59,1
4676.681082,156.29,-7.15,1.59,-0.12,-0.03,-0.96,32.52,91.95,2661.19,905.48,2660.78,1
4676.690811,156.29,-7.15,1.59,-0.12,-0.03,-0.96,32.52,91.90,2675.66,909.73,2674.12,1
4676.700612,156.29,-7.15,1.60,-0.12,-0.02,-0.96,32.54,91.88,2681.87,908.75,2682.22,1
4676.710573,156.29,-7.15,1.59,-0.13,-0.03,-0.96,32.53,91.85,2690.14,907.90,2690.45,1
4676.720210,156.29,-7.15,1.59,-0.12,-0.03,-0.95,32.52,91.80,2704.63,911.61,2703.28,1
4676.730384,156.28,-7.15,1.59,-0.12,-0.03,-0.96,32.53,91.78,2712.02,911.34,2712.12,1
4676.740109,156.28,-7.15,1.59,-0.12,-0.03,-0.97,32.52,91.74,2722.97,912.60,2722.51,1
4676.749798,156.28,-7.15,1.59,-0.12,-0.03,-0.96,32.54,91.71,2732.73,913.41,2732.44,1
4676.759442,156.28,-7.15,1.59,-0.12,-0.03,-0.96,32.53,91.68,2739.83,912.14,2740.30,1
4676.769193,156.28,-7.15,1.59,-0.12,-0.03,-0.96,32.53,91.68,2739.83,905.16,2742.38,1
4676.779416,156.27,-7.15,1.59,-0.12,-0.02,-0.96,32.52,91.61,2762.93,913.54,2759.88,1
4676.789065,156.27,-7.15,1.59,-0.13,-0.02,-0.96,32.52,91.58,2770.34,914.50,2769.99,1
4676.798720,156.27,-7.15,1.59,-0.12,-0.03,-0.96,32.52,91.54,2781.01,915.87,2780.51,1
4676.808393,156.27,-7.15,1.59,-0.12,-0.03,-0.96,32.52,91.52,2788.42,914.95,2788.75,1
4676.818149,156.27,-7.15,1.59,-0.12,-0.03,-0.96,32.52,91.52,2788.42,908.05,2790.93,1
4676.827801,156.27,-7.15,1.59,-0.12,-0.03,-0.96,32.52,91.45,2810.36,915.58,2807.62,1
4676.842390,156.26,-7.15,1.59,-0.12,-0.03,-0.96,32.52,91.41,2821.34,918.91,2820.13,1
4676.852076,156.26,-7.15,1.59,-0.12,-0.03,-0.96,32.52,91.38,2828.46,918.29,2828.69,1
4676.861826,156.26,-7.15,1.59,-0.12,-0.03,-0.96,32.52,91.36,2835.88,916.84,2836.41,1
4676.871493,156.26,-7.15,1.59,-0.12,-0.03,-0.96,32.52,91.31,2850.43,920.38,2849.14,1
4676.881169,156.26,-7.15,1.59,-0.12,-0.03,-0.96,32.53,91.29,2856.67,919.15,2857.11,1
4676.890896,156.26,-7.15,1.59,-0.12,-0.03,-0.96,32.52,91.26,2864.99,918.19,2865.34,1
4676.900571,156.26,-7.15,1.59,-0.12,-0.03,-0.96,32.53,91.23,2874.79,918.39,2874.72,1
4676.910528,156.26,-7.15,1.59,-0.13,-0.03,-0.96,32.52,91.20,2883.41,918.04,2883.54,1
4676.920175,156.25,-7.15,1.59,-0.12,-0.03,-0.96,32.52,91.16,2894.42,919.27,2893.97,1
4676.930048,156.25,-7.15,1.59,-0.12,-0.03,-0.96,32.52,91.13,2905.12,920.70,2904.60,1
4676.939718,156.25,-7.15,1.60,-0.12,-0.02,-0.96,32.52,91.10,2912.56,919.79,2912.89,1
