Time,Yaw,Pitch,Roll,a_x,a_y,a_z,Temperature,Pressure,Altitude,kf_velocity,kf_altitude,triggerAltitudeAchieved
1405.449271,-171.02,2.15,0.05,0.04,0.00,-0.97,29.62,99.37,537.64,3.44,516.14,537.68,0
1405.458998,-171.01,2.15,0.05,0.03,-0.00,-0.97,29.62,99.38,534.31,5.20,532.49,534.71,0
1405.468647,-171.01,2.15,0.05,0.03,0.00,-0.96,29.63,99.37,537.64,6.15,537.13,538.23,0
1405.478315,-171.01,2.15,0.05,0.04,-0.00,-0.96,29.63,99.37,537.64,6.28,537.59,538.25,0
1405.487979,-171.00,2.15,0.05,0.03,0.00,-0.96,29.63,99.38,536.53,5.87,536.64,537.06,0
1405.497623,-171.00,2.15,0.05,0.03,0.00,-0.96,29.63,99.38,536.53,5.79,536.55,537.04,0
1405.507276,-171.00,2.15,0.05,0.04,-0.00,-0.96,29.62,99.38,534.31,4.55,534.54,534.58,0
1405.516917,-171.00,2.15,0.05,0.03,-0.00,-0.96,29.62,99.37,537.64,6.46,537.33,538.13,0
1405.526972,-171.00,2.15,0.05,0.03,0.00,-0.97,29.62,99.37,537.64,6.63,537.62,538.18,0
1405.536630,-170.99,2.15,0.05,0.04,-0.00,-0.96,29.62,99.37,537.64,6.60,537.64,538.17,0
1405.546271,-170.99,2.15,0.05,0.04,-0.00,-0.96,29.62,99.37,537.64,6.54,537.65,538.15,0
1405.555904,-170.99,2.15,0.05,0.03,0.00,-0.96,29.63,99.38,536.53,5.41,536.65,536.97,0
1405.565552,-170.99,2.15,0.05,0.04,-0.00,-0.97,29.62,99.37,537.64,6.38,537.55,538.27,0
1405.575573,-170.99,2.15,0.05,0.04,-0.00,-0.96,29.63,99.37,537.64,6.41,537.64,538.28,0
1405.585428,-170.98,2.15,0.05,0.03,-0.00,-0.96,29.62,99.37,537.64,6.34,537.65,538.26,0
1405.600246,-170.98,2.15,0.05,0.04,-0.00,-0.97,29.62,99.38,536.53,4.86,536.65,536.86,0
1405.609893,-170.97,2.15,0.05,0.03,-0.00,-0.97,29.62,99.36,540.97,10.51,540.54,542.60,0
1405.619584,-170.97,2.15,0.05,0.03,-0.00,-0.96,29.62,99.37,537.64,6.33,537.94,538.26,0
1405.629250,-170.97,2.15,0.05,0.04,-0.00,-0.96,29.62,99.37,537.64,5.80,537.68,538.16,0
1405.638915,-170.96,2.15,0.05,0.03,-0.00,-0.97,29.64,99.38,536.53,3.97,536.65,536.68,0
1405.648617,-170.96,2.15,0.05,0.03,-0.00,-0.97,29.64,99.38,536.53,3.71,536.54,536.63,0
1405.658261,-170.96,2.15,0.05,0.04,-0.00,-0.96,29.62,99.37,537.64,5.45,537.53,538.09,0
1405.668034,-170.95,2.15,0.05,0.03,0.00,-0.97,29.62,99.37,537.64,5.54,537.63,538.10,0
1405.677674,-170.95,2.15,0.05,0.03,0.00,-0.96,29.62,99.37,537.64,5.45,537.64,538.09,0
1405.687459,-170.94,2.15,0.05,0.03,-0.00,-0.97,29.62,99.37,537.64,5.34,537.65,538.06,0
1405.697101,-170.94,2.15,0.05,0.03,-0.00,-0.97,29.62,99.37,537.64,5.23,537.65,538.04,0
1405.706735,-170.94,2.15,0.05,0.04,0.00,-0.96,29.64,99.36,539.86,9.35,539.64,541.21,0
1405.716374,-170.94,2.15,0.05,0.04,-0.00,-0.97,29.64,99.36,539.86,9.58,539.85,541.28,0
1405.726064,-170.94,2.15,0.05,0.03,-0.00,-0.97,29.62,99.37,537.64,4.98,537.87,537.99,0
1405.735911,-170.93,2.15,0.05,0.04,-0.00,-0.97,29.64,99.36,539.86,8.94,539.67,541.09,0
1405.745623,-170.93,2.15,0.05,0.04,-0.00,-0.96,29.63,99.37,537.64,4.54,537.85,537.90,0
1405.755306,-170.93,2.15,0.05,0.03,0.00,-0.96,29.63,99.37,537.64,4.00,537.66,537.80,0
1405.765421,-170.93,2.15,0.05,0.04,-0.00,-0.97,29.62,99.37,537.64,3.86,537.65,537.77,0
1405.775366,-170.93,2.15,0.05,0.04,-0.00,-0.97,29.62,99.37,537.64,3.76,537.64,537.75,0
1405.785349,-170.92,2.15,0.05,0.03,0.00,-0.96,29.62,99.37,537.64,3.67,537.64,537.73,0
1405.795214,-170.92,2.15,0.05,0.04,0.00,-0.96,29.62,99.36,540.97,11.09,540.64,542.83,0
1405.805385,-170.92,2.15,0.05,0.04,-0.00,-0.96,29.62,99.37,537.64,3.96,537.95,537.79,0
1405.815347,-170.92,2.15,0.05,0.03,0.00,-0.96,29.62,99.36,540.97,10.87,540.67,542.74,0
1405.825310,-170.92,2.15,0.05,0.04,-0.00,-0.96,29.62,99.37,537.64,3.50,537.95,537.70,0
1405.835345,-170.91,2.15,0.05,0.03,-0.00,-0.96,29.64,99.36,539.86,7.94,539.67,540.79,0
1405.845453,-170.91,2.15,0.05,0.03,-0.00,-0.97,29.62,99.38,536.53,0.23,536.85,536.39,0
1405.855812,-170.91,2.15,0.05,0.04,-0.00,-0.96,29.62,99.37,537.64,2.14,537.56,537.69,0
1405.865484,-170.91,2.15,0.05,0.03,-0.00,-0.96,29.62,99.37,537.64,2.28,537.63,537.71,0
1405.875668,-170.91,2.15,0.05,0.03,0.00,-0.96,29.64,99.36,539.86,7.69,539.64,540.71,0
1405.885313,-170.90,2.15,0.05,0.04,-0.00,-0.96,29.64,99.38,536.53,-0.22,536.84,536.53,0
1405.899933,-170.90,2.15,0.05,0.04,-0.00,-0.97,29.62,99.36,540.97,10.09,540.56,542.43,0
1405.909583,-170.90,2.15,0.05,0.04,-0.00,-0.96,29.63,99.38,536.53,-0.31,536.93,536.53,0
1405.919250,-170.90,2.15,0.05,0.04,0.00,-0.97,29.64,99.38,536.53,-1.33,536.57,536.53,0
1405.928888,-170.89,2.15,0.05,0.03,0.00,-0.97,29.62,99.37,537.64,1.44,537.53,537.62,0
1405.938616,-170.89,2.15,0.05,0.04,0.00,-0.96,29.62,99.38,536.53,-1.17,536.63,536.53,0
1405.948353,-170.89,2.15,0.05,0.04,0.00,-0.96,29.62,99.38,536.53,-1.40,536.54,536.53,0
1405.957997,-170.89,2.15,0.05,0.03,0.00,-0.96,29.62,99.37,537.64,1.49,537.53,537.63,0
1405.967691,-170.89,2.16,0.05,0.04,0.00,-0.97,29.63,99.37,537.64,1.74,537.63,537.65,0
1405.977365,-170.89,2.15,0.05,0.04,-0.00,-0.96,29.62,99.37,537.64,1.71,537.64,537.65,0
1405.987047,-170.89,2.16,0.05,0.03,0.00,-0.96,29.62,99.38,534.31,-7.07,534.64,534.31,0
1405.996962,-170.89,2.16,0.05,0.03,0.00,-0.96,29.62,99.38,534.31,-7.74,534.34,534.31,0
1406.006789,-170.88,2.15,0.05,0.04,-0.00,-0.97,29.62,99.37,537.64,1.19,537.31,537.60,0
1406.016610,-170.88,2.15,0.05,0.03,0.00,-0.96,29.62,99.36,540.97,10.87,540.61,542.74,0
1406.026264,-170.88,2.15,0.05,0.04,-0.00,-0.96,29.63,99.37,537.64,2.68,537.94,537.75,0
1406.035912,-170.87,2.16,0.05,0.04,-0.00,-0.97,29.62,99.37,537.64,1.80,537.67,537.66,0
1406.045782,-170.87,2.15,0.05,0.03,0.00,-0.97,29.62,99.37,537.64,1.66,537.64,537.64,0
1406.055547,-170.87,2.15,0.05,0.04,0.00,-0.97,29.63,99.38,536.53,-1.38,536.64,536.53,0
1406.070010,-170.87,2.15,0.05,0.04,0.00,-0.96,29.62,99.37,537.64,1.35,537.54,537.61,0
1406.079868,-170.87,2.15,0.05,0.03,0.00,-0.97,29.62,99.37,537.64,1.58,537.63,537.64,0
1406.089515,-170.86,2.15,0.05,0.04,-0.00,-0.96,29.61,99.37,537.64,1.56,537.64,537.63,0
1406.099153,-170.86,2.15,0.05,0.04,-0.00,-0.96,29.61,99.37,537.64,1.52,537.64,537.63,0
1406.108848,-170.86,2.15,0.05,0.04,0.00,-0.96,29.62,99.37,537.64,1.47,537.64,537.63,0
1406.118520,-170.86,2.15,0.05,0.04,-0.00,-0.97,29.62,99.37,537.64,1.43,537.64,537.62,0
1406.128200,-170.86,2.15,0.05,0.03,-0.00,-0.96,29.62,99.37,537.64,1.39,537.64,537.62,0
1406.138235,-170.85,2.15,0.05,0.04,-0.00,-0.97,29.62,99.37,537.64,1.34,537.64,537.61,0
1406.147928,-170.85,2.15,0.05,0.04,-0.00,-0.97,29.62,99.37,537.64,1.30,537.64,537.61,0
1406.157596,-170.85,2.15,0.05,0.03,0.00,-0.96,29.64,99.38,536.53,-1.78,536.64,536.53,0
1406.167306,-170.84,2.15,0.05,0.04,-0.00,-0.97,29.63,99.38,536.53,-2.03,536.54,536.53,0
1406.176954,-170.84,2.15,0.05,0.04,-0.00,-0.97,29.63,99.37,537.64,1.05,537.53,537.58,0
1406.187091,-170.84,2.15,0.05,0.03,0.00,-0.97,29.62,99.37,537.64,1.32,537.63,537.61,0
1406.196738,-170.84,2.15,0.05,0.03,0.00,-0.97,29.62,99.37,537.64,1.31,537.64,537.61,0
1406.206394,-170.84,2.15,0.05,0.04,-0.00,-0.96,29.64,99.36,539.86,7.38,539.64,540.62,0
1406.216050,-170.83,2.15,0.05,0.03,-0.00,-0.96,29.62,99.36,540.97,10.84,540.85,542.72,0
1406.225716,-170.83,2.15,0.05,0.03,-0.00,-0.96,29.62,99.37,537.64,1.69,537.96,537.65,0
1406.235353,-170.83,2.15,0.05,0.04,-0.00,-0.97,29.62,99.37,537.64,0.75,537.67,537.55,0
1406.245168,-170.82,2.15,0.05,0.04,-0.00,-0.97,29.62,99.38,536.53,-2.43,536.64,536.53,0
1406.256886,-170.82,2.15,0.05,0.04,0.00,-0.96,29.62,99.37,537.64,0.39,537.54,537.52,0
1406.266616,-170.82,2.15,0.05,0.04,-0.00,-0.96,29.62,99.37,537.64,0.66,537.63,537.54,0
1406.276249,-170.82,2.15,0.05,0.03,0.00,-0.97,29.62,99.37,537.64,0.67,537.64,537.55,0
1406.286118,-170.81,2.15,0.05,0.04,-0.00,-0.96,29.62,99.37,537.64,0.65,537.64,537.54,0
1406.295850,-170.81,2.15,0.05,0.04,-0.00,-0.96,29.62,99.37,537.64,0.63,537.64,537.54,0
1406.305537,-170.81,2.15,0.05,0.03,0.00,-0.97,29.62,99.37,537.64,0.61,537.64,537.54,0
1406.315193,-170.81,2.15,0.05,0.04,-0.00,-0.97,29.62,99.37,537.64,0.59,537.64,537.54,0
1406.325326,-170.81,2.15,0.05,0.04,-0.00,-0.96,29.62,99.36,540.97,9.82,540.64,542.32,0
1406.335608,-170.80,2.15,0.05,0.03,0.00,-0.96,29.62,99.37,537.64,1.20,537.94,537.60,0
1406.345379,-170.80,2.16,0.05,0.04,-0.00,-0.96,29.62,99.36,539.86,6.49,539.67,540.35,0
1406.355443,-170.80,2.15,0.05,0.04,-0.00,-0.96,29.62,99.37,537.64,0.66,537.84,537.54,0
1406.365403,-170.80,2.16,0.05,0.03,0.00,-0.97,29.62,99.37,537.64,0.07,537.66,537.49,0
1406.375520,-170.80,2.16,0.05,0.04,-0.00,-0.97,29.63,99.37,537.64,0.01,537.64,537.48,0
1406.385396,-170.79,2.16,0.05,0.03,-0.00,-0.96,29.62,99.36,540.97,9.27,540.64,542.30,0
1406.395562,-170.79,2.16,0.05,0.03,-0.00,-0.96,29.62,99.37,537.64,0.65,537.94,537.54,0
1406.405504,-170.78,2.16,0.05,0.04,-0.00,-0.97,29.62,99.36,540.97,9.06,540.67,542.24,0
1406.415440,-170.78,2.16,0.05,0.03,0.00,-0.96,29.62,99.37,537.64,0.35,537.95,537.51,0
1406.425370,-170.78,2.16,0.05,0.03,0.00,-0.96,29.62,99.37,537.64,-0.51,537.67,537.64,0
1406.435980,-170.77,2.16,0.05,0.04,-0.00,-0.96,29.62,99.37,537.64,-0.58,537.64,537.64,0
1406.445726,-170.77,2.16,0.05,0.04,-0.00,-0.97,29.62,99.37,537.64,-0.57,537.64,537.64,0
1406.455406,-170.76,2.16,0.05,0.03,0.00,-0.96,29.62,99.36,540.97,8.73,540.64,542.14,0
1406.465599,-170.76,2.16,0.05,0.04,-0.00,-0.96,29.62,99.37,537.64,0.11,537.94,537.49,0
1406.475535,-170.76,2.16,0.05,0.03,0.00,-0.97,29.62,99.38,534.31,-10.02,534.67,534.31,0
1406.485416,-170.75,2.16,0.05,0.04,-0.00,-0.97,29.64,99.37,537.64,-1.44,537.34,537.64,0
1406.499981,-170.75,2.16,0.05,0.04,-0.00,-0.96,29.62,99.37,537.64,-0.56,537.61,537.64,0
1406.509702,-170.75,2.16,0.05,0.04,0.00,-0.97,29.62,99.36,540.97,8.83,540.64,542.17,0
1406.519341,-170.75,2.16,0.05,0.04,-0.00,-0.97,29.64,99.36,539.86,6.40,539.94,540.49,0
1406.529253,-170.74,2.16,0.05,0.04,-0.00,-0.96,29.62,99.37,537.64,-0.21,537.87,537.64,0
1406.538923,-170.74,2.16,0.05,0.04,0.00,-0.96,29.63,99.36,540.97,8.45,540.66,542.05,0
1406.548567,-170.74,2.16,0.05,0.04,0.00,-0.96,29.63,99.36,540.97,9.06,540.95,542.24,0
1406.558241,-170.73,2.16,0.05,0.03,-0.00,-0.97,29.64,99.39,532.92,-13.61,533.72,532.92,0
1406.563086,-170.74,2.16,0.05,0.03,0.00,-0.97,29.62,99.37,537.64,-2.27,537.24,537.64,0
1406.575464,-170.74,2.16,0.05,0.04,-0.00,-0.96,29.62,99.38,536.53,-4.20,536.60,536.53,0
1406.585566,-170.73,2.16,0.05,0.03,-0.00,-0.96,29.62,99.37,537.64,-1.17,537.53,537.64,0
1406.595496,-170.73,2.16,0.05,0.03,-0.00,-0.96,29.63,99.38,536.53,-3.94,536.63,536.53,0
1406.605589,-170.73,2.16,0.05,0.04,-0.00,-0.97,29.62,99.37,537.64,-1.00,537.54,537.64,0
1406.617502,-170.72,2.16,0.05,0.03,-0.00,-0.96,29.62,99.37,537.64,-0.68,537.63,537.64,0
1406.627298,-170.72,2.16,0.05,0.03,-0.00,-0.96,29.62,99.36,540.97,8.67,540.64,542.12,0
1406.637928,-170.71,2.16,0.05,0.04,-0.00,-0.97,29.62,99.37,537.64,0.04,537.94,537.48,0
1406.647713,-170.71,2.16,0.05,0.04,-0.00,-0.97,29.62,99.37,537.64,-0.81,537.67,537.64,0
1406.657388,-170.71,2.16,0.05,0.04,-0.00,-0.96,29.62,99.35,544.29,17.74,543.65,549.12,0
1406.667028,-170.71,2.16,0.05,0.04,-0.00,-0.97,29.63,99.37,537.64,0.45,538.24,537.52,0
1406.676689,-170.70,2.16,0.05,0.04,-0.00,-0.97,29.62,99.38,536.53,-4.36,536.70,536.53,0
1406.686379,-170.70,2.16,0.05,0.04,-0.00,-0.96,29.62,99.36,540.97,7.70,540.55,541.83,0
1406.696116,-170.70,2.16,0.05,0.04,-0.00,-0.96,29.62,99.36,540.97,8.67,540.93,542.12,0
1406.705743,-170.70,2.16,0.05,0.03,-0.00,-0.96,29.64,99.38,536.53,-3.89,536.97,536.53,0
1406.715403,-170.70,2.16,0.05,0.04,0.00,-0.97,29.62,99.36,540.97,7.40,540.57,541.74,0
1406.725211,-170.70,2.16,0.05,0.04,-0.00,-0.96,29.63,99.38,536.53,-4.12,536.93,536.53,0
1406.735183,-170.70,2.16,0.05,0.03,-0.00,-0.96,29.64,99.38,536.53,-5.13,536.56,536.53,0
1406.745380,-170.69,2.16,0.05,0.03,0.00,-0.96,29.62,99.38,536.53,-5.08,536.53,536.53,0
1406.755318,-170.69,2.16,0.05,0.04,-0.00,-0.97,29.62,99.36,540.97,7.48,540.53,541.76,0
1406.765306,-170.69,2.16,0.05,0.03,-0.00,-0.96,29.64,99.38,536.53,-3.92,536.93,536.53,0
1406.775367,-170.69,2.16,0.05,0.04,-0.00,-0.96,29.62,99.37,537.64,-1.82,537.57,537.64,0
1406.790020,-170.69,2.16,0.05,0.03,0.00,-0.96,29.62,99.37,537.64,-1.56,537.63,537.64,0
1406.799753,-170.69,2.16,0.05,0.03,0.00,-0.96,29.62,99.37,537.64,-1.49,537.64,537.64,0
1406.809420,-170.69,2.16,0.05,0.04,-0.00,-0.96,29.62,99.36,540.97,7.87,540.64,541.88,0
1406.819120,-170.68,2.16,0.05,0.04,-0.00,-0.96,29.62,99.37,537.64,-0.75,537.94,537.64,0
1406.828816,-170.68,2.16,0.05,0.04,0.00,-0.96,29.62,99.37,537.64,-1.57,537.67,537.64,0
1406.838502,-170.68,2.16,0.05,0.04,-0.00,-0.97,29.63,99.37,537.64,-1.61,537.64,537.64,0
1406.848166,-170.68,2.16,0.05,0.04,-0.00,-0.97,29.63,99.37,537.64,-1.56,537.64,537.64,0
1406.857843,-170.68,2.16,0.05,0.04,0.00,-0.96,29.64,99.36,539.86,4.69,539.64,540.15,0
1406.867507,-170.67,2.16,0.05,0.04,-0.00,-0.97,29.62,99.36,540.97,8.28,540.84,542.00,0
1406.877301,-170.67,2.16,0.05,0.04,-0.00,-0.97,29.62,99.37,537.64,-0.92,537.96,537.64,0
1406.887018,-170.67,2.16,0.05,0.04,-0.00,-0.96,29.62,99.37,537.64,-1.79,537.67,537.64,0
1406.896664,-170.67,2.16,0.05,0.04,-0.00,-0.96,29.62,99.37,537.64,-1.83,537.64,537.64,0
1406.906261,-170.67,2.16,0.05,0.03,-0.00,-0.96,29.64,99.36,539.86,4.43,539.64,540.10,0
1406.915984,-170.67,2.16,0.05,0.04,0.00,-0.97,29.62,99.38,534.31,-10.60,534.84,534.31,0
1406.925758,-170.67,2.16,0.05,0.04,-0.00,-0.97,29.64,99.38,536.53,-5.57,536.35,536.53,0
1406.935405,-170.66,2.16,0.05,0.03,-0.00,-0.96,29.62,99.37,537.64,-1.82,537.51,537.64,0
1406.945265,-170.66,2.16,0.05,0.03,0.00,-0.96,29.62,99.38,536.53,-4.51,536.62,536.53,0
1406.960325,-170.66,2.16,0.05,0.04,-0.00,-0.96,29.64,99.38,536.53,-4.64,536.53,536.53,0
1406.965183,-170.66,2.16,0.05,0.03,-0.00,-0.96,29.62,99.37,537.64,-1.42,537.53,537.64,0
1406.975220,-170.66,2.16,0.05,0.03,0.00,-0.96,29.62,99.37,537.64,-1.06,537.63,537.64,0
1406.985202,-170.66,2.16,0.05,0.04,-0.00,-0.97,29.62,99.39,532.92,-14.19,533.38,532.92,0
1406.995105,-170.65,2.16,0.05,0.03,-0.00,-0.97,29.64,99.36,539.86,4.32,539.21,540.08,0
1407.005393,-170.65,2.16,0.05,0.03,0.00,-0.97,29.62,99.37,537.64,-0.20,537.80,537.64,0
1407.015634,-170.65,2.16,0.05,0.04,-0.00,-0.96,29.64,99.38,536.53,-3.74,536.65,536.53,0
1407.025324,-170.65,2.16,0.05,0.03,-0.00,-0.96,29.62,99.37,537.64,-0.87,537.54,537.64,0
1407.035234,-170.65,2.16,0.05,0.04,0.00,-0.97,29.62,99.37,537.64,-0.57,537.63,537.64,0
1407.045287,-170.65,2.16,0.05,0.04,-0.01,-0.96,29.64,99.38,536.53,-3.63,536.64,536.53,0
1407.060027,-170.64,2.16,0.05,0.03,0.00,-0.96,29.62,99.37,537.64,-0.72,537.54,537.64,0
1407.069714,-170.64,2.16,0.05,0.04,0.00,-0.97,29.62,99.36,540.97,8.90,540.63,542.19,0
1407.079357,-170.64,2.16,0.05,0.03,-0.00,-0.96,29.63,99.37,537.64,0.28,537.94,537.51,0
1407.089046,-170.64,2.16,0.05,0.04,0.00,-0.96,29.62,99.37,537.64,-0.58,537.67,537.64,0
1407.098795,-170.64,2.16,0.05,0.04,0.00,-0.96,29.62,99.37,537.64,-0.64,537.64,537.64,0
1407.108460,-170.63,2.16,0.05,0.03,-0.00,-0.97,29.62,99.37,537.64,-0.63,537.64,537.64,0
1407.118139,-170.63,2.16,0.05,0.03,0.00,-0.97,29.62,99.36,540.97,8.70,540.64,542.13,0
1407.127788,-170.63,2.16,0.05,0.04,-0.00,-0.97,29.62,99.37,537.64,0.06,537.94,537.48,0
1407.137433,-170.63,2.16,0.05,0.03,0.00,-0.96,29.62,99.36,539.86,5.42,539.67,540.30,0
1407.147188,-170.63,2.16,0.05,0.03,0.00,-0.96,29.62,99.36,539.86,5.79,539.84,540.37,0
1407.156936,-170.63,2.16,0.05,0.04,-0.00,-0.97,29.63,99.38,534.31,-9.86,534.86,534.31,0
1407.166631,-170.63,2.16,0.05,0.03,-0.00,-0.96,29.62,99.37,537.64,-1.80,537.36,537.64,0
1407.176355,-170.63,2.16,0.05,0.03,0.00,-0.96,29.62,99.37,537.64,-0.96,537.61,537.64,0
1407.186041,-170.63,2.16,0.05,0.04,-0.00,-0.97,29.63,99.38,536.53,-3.96,536.63,536.53,0
1407.195782,-170.63,2.16,0.05,0.04,-0.00,-0.97,29.63,99.38,536.53,-4.14,536.54,536.53,0
1407.205442,-170.63,2.16,0.05,0.03,-0.00,-0.97,29.62,99.37,537.64,-0.93,537.53,537.64,0
1407.220039,-170.63,2.16,0.05,0.04,-0.00,-0.96,29.62,99.37,537.64,-0.59,537.63,537.64,0
1407.229691,-170.62,2.16,0.05,0.03,0.00,-0.97,29.62,99.38,534.31,-9.86,534.64,534.31,0
1407.239396,-170.62,2.16,0.05,0.04,-0.00,-0.97,29.63,99.36,540.97,8.14,540.34,541.96,0
1407.249086,-170.62,2.16,0.05,0.04,-0.00,-0.97,29.63,99.36,540.97,9.67,540.91,542.26,0
1407.258759,-170.62,2.16,0.05,0.03,0.00,-0.96,29.62,99.36,540.97,9.55,540.97,542.38,0
1407.268530,-170.62,2.16,0.05,0.04,0.00,-0.96,29.63,99.37,537.64,-0.04,537.98,537.64,0
1407.278178,-170.62,2.16,0.05,0.04,-0.00,-0.97,29.64,99.38,536.53,-4.09,536.67,536.53,0
1407.287853,-170.62,2.16,0.05,0.03,0.00,-0.96,29.63,99.38,536.53,-4.37,536.54,536.53,0
1407.297496,-170.62,2.16,0.05,0.03,0.00,-0.96,29.63,99.38,536.53,-4.27,536.53,536.53,0
1407.307125,-170.61,2.16,0.05,0.03,-0.00,-0.97,29.62,99.37,537.64,-1.04,537.53,537.64,0
1407.316776,-170.61,2.16,0.05,0.03,0.00,-0.97,29.62,99.37,537.64,-0.69,537.63,537.64,0
1407.331327,-170.61,2.16,0.05,0.04,-0.00,-0.96,29.62,99.37,537.64,-0.64,537.64,537.64,0
1407.336150,-170.61,2.16,0.05,0.03,-0.00,-0.96,29.62,99.38,536.53,-3.72,536.64,536.53,0
1407.345799,-170.61,2.16,0.05,0.03,-0.00,-0.96,29.62,99.38,536.53,-3.92,536.54,536.53,0
1407.355447,-170.60,2.16,0.05,0.04,0.00,-0.96,29.64,99.36,539.86,5.48,539.53,540.31,0
1407.365245,-170.60,2.16,0.05,0.04,-0.00,-0.96,29.63,99.37,537.64,0.04,537.83,537.48,0
1407.375209,-170.60,2.16,0.05,0.03,-0.00,-0.97,29.62,99.38,536.53,-3.60,536.66,536.53,0
1407.390010,-170.60,2.16,0.05,0.04,-0.00,-0.96,29.62,99.36,540.97,8.57,540.54,542.09,0
1407.399730,-170.60,2.16,0.05,0.04,-0.00,-0.96,29.62,99.36,540.97,9.52,540.93,542.37,0
1407.409413,-170.60,2.16,0.05,0.04,-0.00,-0.96,29.62,99.37,537.64,0.03,537.97,537.48,0
1407.419072,-170.60,2.16,0.05,0.04,-0.00,-0.96,29.64,99.38,536.53,-4.01,536.67,536.53,0
1407.429010,-170.60,2.16,0.05,0.03,-0.00,-0.97,29.62,99.37,537.64,-1.18,537.54,537.64,0
1407.438705,-170.59,2.16,0.05,0.04,-0.00,-0.96,29.62,99.37,537.64,-0.87,537.63,537.64,0
1407.448358,-170.59,2.16,0.05,0.04,-0.00,-0.96,29.62,99.37,537.64,-0.82,537.64,537.64,0
1407.458093,-170.59,2.16,0.05,0.03,0.00,-0.96,29.62,99.37,537.64,-0.79,537.64,537.64,0
1407.467919,-170.59,2.16,0.05,0.04,0.00,-0.97,29.63,99.37,537.64,-0.76,537.64,537.64,0
1407.477611,-170.59,2.16,0.05,0.04,-0.00,-0.97,29.62,99.36,539.86,5.47,539.64,540.31,0
1407.487638,-170.59,2.16,0.05,0.03,0.00,-0.97,29.62,99.37,537.64,-0.28,537.84,537.64,0
1407.497380,-170.59,2.16,0.05,0.03,0.00,-0.97,29.62,99.37,537.64,-0.84,537.66,537.64,0
1407.507082,-170.58,2.16,0.05,0.04,-0.00,-0.96,29.62,99.38,534.31,-10.18,534.64,534.31,0
1407.516810,-170.58,2.16,0.05,0.03,0.00,-0.96,29.62,99.37,537.64,-1.50,537.34,537.64,0
1407.526495,-170.58,2.16,0.05,0.03,-0.00,-0.97,29.62,99.38,534.31,-9.92,534.61,534.31,0
1407.536164,-170.58,2.16,0.05,0.03,-0.00,-0.96,29.62,99.38,534.31,-10.47,534.33,534.31,0
1407.546069,-170.58,2.16,0.05,0.03,-0.00,-0.96,29.62,99.38,534.31,-10.23,534.30,534.31,0
1407.555875,-170.58,2.16,0.05,0.04,-0.00,-0.96,29.62,99.38,534.31,-9.92,534.30,534.31,0
1407.565541,-170.58,2.16,0.05,0.04,-0.00,-0.96,29.63,99.38,536.53,-3.40,536.30,536.53,0
1407.575360,-170.58,2.16,0.05,0.03,-0.00,-0.96,29.63,99.37,537.64,0.44,537.51,537.52,0
1407.589970,-170.57,2.16,0.05,0.04,-0.00,-0.97,29.63,99.36,539.86,7.01,539.63,540.51,0
1407.599733,-170.57,2.16,0.05,0.04,-0.00,-0.97,29.63,99.36,539.86,7.45,539.84,540.64,0
1407.609413,-170.57,2.16,0.05,0.03,0.00,-0.96,29.62,99.37,537.64,1.08,537.86,537.59,0
1407.619106,-170.57,2.16,0.05,0.04,-0.00,-0.96,29.62,99.37,537.64,0.43,537.66,537.52,0
1407.629102,-170.57,2.16,0.05,0.03,-0.00,-0.97,29.63,99.37,537.64,0.35,537.64,537.51,0
1407.638760,-170.57,2.16,0.05,0.04,0.00,-0.96,29.63,99.37,537.64,0.34,537.64,537.51,0
1407.648557,-170.57,2.16,0.05,0.04,0.00,-0.96,29.63,99.37,537.64,0.32,537.64,537.51,0
1407.658245,-170.57,2.16,0.05,0.03,0.00,-0.96,29.62,99.37,537.64,0.31,537.64,537.51,0
1407.667971,-170.57,2.16,0.05,0.03,0.00,-0.97,29.63,99.38,536.53,-2.80,536.64,536.53,0
1407.677677,-170.57,2.16,0.05,0.04,-0.00,-0.96,29.64,99.39,532.92,-13.12,533.28,532.92,0
1407.687386,-170.56,2.16,0.05,0.03,0.00,-0.96,29.62,99.37,537.64,-0.56,537.20,537.64,0
1407.697109,-170.56,2.16,0.05,0.03,0.00,-0.96,29.62,99.37,537.64,0.68,537.60,537.55,0
1407.706766,-170.56,2.16,0.05,0.04,-0.00,-0.96,29.64,99.38,536.53,-2.33,536.63,536.53,0
1407.716430,-170.56,2.16,0.05,0.03,-0.00,-0.96,29.62,99.37,537.64,0.55,537.54,537.53,0
1407.726131,-170.56,2.16,0.05,0.03,-0.00,-0.97,29.63,99.38,536.53,-2.29,536.63,536.53,0
1407.735880,-170.56,2.16,0.05,0.04,-0.00,-0.97,29.62,99.36,540.97,9.92,540.54,542.36,0
1407.750384,-170.56,2.16,0.05,0.03,-0.00,-0.97,29.62,99.37,537.64,1.52,537.93,537.63,0
1407.760073,-170.55,2.16,0.05,0.04,-0.00,-0.96,29.62,99.36,540.97,9.97,540.67,542.38,0
1407.769761,-170.56,2.16,0.05,0.04,-0.00,-0.96,29.63,99.37,537.64,1.21,537.95,537.60,0
1407.779488,-170.55,2.16,0.05,0.03,0.00,-0.97,29.63,99.39,532.92,-12.88,533.42,532.92,0
1407.789137,-170.55,2.16,0.05,0.04,0.00,-0.97,29.63,99.38,536.53,-3.81,536.21,536.53,0
1407.798803,-170.55,2.16,0.05,0.04,0.00,-0.97,29.63,99.38,536.53,-2.82,536.49,536.53,0
1407.808505,-170.55,2.16,0.05,0.03,0.00,-0.96,29.62,99.38,534.31,-8.85,534.52,534.31,0
1407.818164,-170.54,2.16,0.05,0.04,-0.00,-0.96,29.64,99.38,536.53,-2.98,536.32,536.53,0
1407.827924,-170.54,2.16,0.05,0.04,-0.00,-0.97,29.62,99.37,537.64,0.78,537.51,537.56,0
1407.837606,-170.54,2.16,0.05,0.03,0.00,-0.97,29.62,99.38,536.53,-1.98,536.63,536.53,0
1407.847301,-170.54,2.16,0.05,0.03,0.00,-0.97,29.62,99.38,536.53,-2.19,536.54,536.53,0
1407.856962,-170.54,2.16,0.05,0.04,-0.00,-0.96,29.62,99.37,537.64,0.95,537.53,537.57,0
1407.866666,-170.54,2.16,0.05,0.03,0.00,-0.97,29.63,99.37,537.64,1.24,537.63,537.60,0
1407.876339,-170.54,2.16,0.05,0.04,-0.00,-0.97,29.62,99.37,537.64,1.23,537.64,537.60,0
1407.886029,-170.54,2.16,0.05,0.04,-0.00,-0.97,29.63,99.38,536.53,-1.92,536.64,536.53,0
1407.895730,-170.54,2.16,0.05,0.04,-0.00,-0.97,29.63,99.38,536.53,-2.17,536.54,536.53,0
1407.905422,-170.53,2.16,0.05,0.04,0.00,-0.97,29.62,99.37,537.64,0.98,537.53,537.58,0
1407.915411,-170.53,2.16,0.05,0.03,-0.00,-0.96,29.62,99.37,537.64,1.26,537.63,537.60,0
1407.925237,-170.53,2.16,0.05,0.03,0.00,-0.96,29.63,99.38,534.31,-8.07,534.64,534.31,0
1407.935233,-170.53,2.16,0.05,0.04,-0.00,-0.96,29.62,99.37,537.64,0.56,537.34,537.53,0
1407.945441,-170.52,2.16,0.05,0.04,-0.00,-0.96,29.62,99.37,537.64,1.39,537.61,537.62,0
1407.959989,-170.52,2.16,0.05,0.04,0.00,-0.96,29.62,99.37,537.64,1.43,537.64,537.62,0
1407.969706,-170.52,2.16,0.05,0.04,-0.00,-0.96,29.62,99.37,537.64,1.40,537.64,537.62,0
1407.979415,-170.52,2.16,0.05,0.03,0.00,-0.96,29.62,99.38,534.31,-7.96,534.64,534.31,0
1407.989067,-170.52,2.16,0.05,0.04,-0.00,-0.96,29.62,99.37,537.64,0.66,537.34,537.54,0
1407.998782,-170.52,2.16,0.05,0.04,-0.00,-0.96,29.62,99.37,537.64,1.49,537.61,537.63,0
1408.008697,-170.51,2.16,0.05,0.03,0.00,-0.97,29.62,99.37,537.64,1.53,537.64,537.63,0
1408.018362,-170.51,2.16,0.05,0.04,0.00,-0.96,29.62,99.37,537.64,1.49,537.64,537.63,0
1408.028123,-170.51,2.16,0.05,0.04,-0.00,-0.96,29.62,99.37,537.64,1.44,537.64,537.62,0
1408.037786,-170.51,2.16,0.05,0.03,0.00,-0.96,29.62,99.36,539.86,7.60,539.64,540.69,0
1408.047522,-170.51,2.16,0.05,0.03,0.00,-0.96,29.62,99.36,539.86,7.99,539.84,540.81,0
1408.057178,-170.51,2.16,0.05,0.03,-0.00,-0.96,29.64,99.38,536.53,-1.51,536.86,536.53,0
1408.066834,-170.51,2.16,0.05,0.03,0.00,-0.96,29.62,99.37,537.64,0.71,537.56,537.55,0
1408.076598,-170.51,2.16,0.05,0.03,0.00,-0.97,29.63,99.37,537.64,0.91,537.63,537.57,0
1408.086317,-170.50,2.16,0.05,0.03,-0.00,-0.96,29.63,99.38,536.53,-2.20,536.64,536.53,0
1408.096197,-170.50,2.16,0.05,0.03,-0.00,-0.96,29.63,99.38,536.53,-2.45,536.54,536.53,0
1408.105910,-170.50,2.16,0.05,0.04,0.00,-0.97,29.62,99.37,537.64,0.71,537.53,537.55,0
1408.115646,-170.50,2.16,0.05,0.04,-0.00,-0.96,29.62,99.37,537.64,0.99,537.63,537.58,0
1408.125434,-170.50,2.16,0.05,0.03,0.00,-0.96,29.62,99.36,540.97,10.31,540.64,542.51,0
1408.135327,-170.50,2.16,0.05,0.04,-0.00,-0.96,29.63,99.38,536.53,-1.49,536.94,536.53,0
1408.149948,-170.49,2.16,0.05,0.04,-0.00,-0.97,29.62,99.38,536.53,-2.60,536.57,536.53,0
1408.159623,-170.49,2.16,0.05,0.03,0.00,-0.96,29.62,99.38,534.31,-8.84,534.53,534.31,0
1408.170152,-170.49,2.16,0.05,0.04,-0.00,-0.96,29.62,99.36,540.97,9.42,540.33,542.34,0
1408.179856,-170.49,2.16,0.05,0.03,0.00,-0.96,29.62,99.38,534.31,-7.68,534.91,534.31,0
1408.189544,-170.48,2.16,0.05,0.03,-0.00,-0.97,29.63,99.38,536.53,-2.94,536.36,536.53,0
1408.199263,-170.48,2.16,0.05,0.03,-0.00,-0.97,29.63,99.38,536.53,-2.39,536.51,536.53,0
1408.208915,-170.48,2.16,0.05,0.03,0.00,-0.96,29.63,99.37,537.64,0.84,537.53,537.56,0
1408.218595,-170.48,2.16,0.05,0.03,0.00,-0.97,29.62,99.37,537.64,1.13,537.63,537.59,0
1408.228317,-170.48,2.16,0.05,0.04,-0.00,-0.97,29.62,99.36,540.97,10.44,540.64,542.57,0
1408.237975,-170.48,2.16,0.05,0.03,0.00,-0.96,29.62,99.37,537.64,1.75,537.94,537.65,0
1408.247677,-170.48,2.16,0.05,0.03,0.00,-0.96,29.62,99.37,537.64,0.85,537.67,537.56,0
1408.257357,-170.47,2.16,0.05,0.04,-0.00,-0.97,29.62,99.37,537.64,0.74,537.64,537.55,0
1408.267114,-170.47,2.16,0.05,0.03,0.00,-0.97,29.64,99.38,536.53,-2.40,536.64,536.53,0
1408.276798,-170.47,2.16,0.05,0.03,0.00,-0.97,29.62,99.37,537.64,0.46,537.54,537.52,0
1408.286465,-170.47,2.16,0.05,0.03,-0.00,-0.96,29.62,99.37,537.64,0.73,537.63,537.55,0
1408.296164,-170.47,2.16,0.05,0.03,-0.00,-0.96,29.62,99.37,537.64,0.74,537.64,537.55,0
1408.305831,-170.47,2.17,0.05,0.03,0.00,-0.97,29.62,99.37,537.64,0.72,537.64,537.55,0
1408.315546,-170.47,2.16,0.05,0.04,-0.00,-0.96,29.62,99.37,537.64,0.69,537.64,537.55,0
1408.325266,-170.46,2.17,0.05,0.03,-0.00,-0.96,29.63,99.37,537.64,0.67,537.64,537.55,0
1408.335208,-170.46,2.16,0.05,0.04,0.00,-0.96,29.62,99.37,537.64,0.65,537.64,537.54,0
1408.349968,-170.46,2.17,0.05,0.04,-0.00,-0.97,29.62,99.37,537.64,0.63,537.64,537.54,0
1408.359627,-170.46,2.16,0.05,0.03,0.00,-0.96,29.62,99.36,540.97,9.93,540.64,542.36,0
1408.369269,-170.46,2.17,0.05,0.04,-0.00,-0.96,29.62,99.38,534.31,-8.07,534.94,534.31,0
1408.379076,-170.46,2.16,0.05,0.03,-0.00,-0.97,29.61,99.36,540.97,9.02,540.37,542.23,0
1408.388792,-170.45,2.16,0.05,0.04,0.00,-0.97,29.63,99.38,536.53,-1.98,536.91,536.53,0
1408.398442,-170.45,2.16,0.05,0.04,0.00,-0.97,29.63,99.38,536.53,-3.00,536.56,536.53,0
1408.408086,-170.45,2.17,0.05,0.03,0.00,-0.96,29.64,99.38,536.53,-3.02,536.53,536.53,0
1408.417754,-170.45,2.16,0.05,0.03,-0.00,-0.97,29.62,99.37,537.64,0.17,537.53,537.50,0
1408.427420,-170.45,2.17,0.05,0.04,0.00,-0.96,29.62,99.37,537.64,0.48,537.63,537.53,0
1408.437067,-170.44,2.17,0.05,0.03,0.00,-0.96,29.62,99.37,537.64,0.50,537.64,537.53,0
1408.447013,-170.44,2.17,0.05,0.03,0.00,-0.96,29.62,99.37,537.64,0.49,537.64,537.53,0
1408.456695,-170.44,2.17,0.05,0.04,0.00,-0.96,29.62,99.36,540.97,9.79,540.64,542.31,0
1408.466387,-170.44,2.17,0.05,0.03,-0.00,-0.97,29.64,99.38,536.53,-2.00,536.94,536.53,0
1408.476125,-170.44,2.17,0.05,0.03,0.00,-0.97,29.62,99.36,540.97,9.32,540.57,542.32,0
1408.485906,-170.44,2.17,0.05,0.04,-0.00,-0.96,29.62,99.38,536.53,-2.25,536.93,536.53,0
1408.495608,-170.44,2.17,0.05,0.04,-0.00,-0.96,29.62,99.37,537.64,-0.21,537.57,537.64,0
1408.505472,-170.44,2.17,0.05,0.03,0.00,-0.97,29.64,99.38,536.53,-3.12,536.63,536.53,0
1408.515354,-170.44,2.17,0.05,0.04,-0.00,-0.96,29.62,99.37,537.64,-0.20,537.54,537.64,0
1408.530043,-170.43,2.17,0.05,0.03,0.00,-0.96,29.62,99.37,537.64,0.09,537.63,537.49,0
1408.539691,-170.43,2.17,0.05,0.04,0.00,-0.96,29.62,99.37,537.64,0.11,537.64,537.49,0
1408.549447,-170.43,2.17,0.05,0.04,0.00,-0.96,29.62,99.37,537.64,0.11,537.64,537.49,0
1408.559131,-170.43,2.16,0.04,0.03,0.00,-0.96,29.62,99.37,537.64,0.11,537.64,537.49,0
1408.568790,-170.43,2.17,0.04,0.04,0.00,-0.96,29.64,99.38,536.53,-3.00,536.64,536.53,0
1408.578663,-170.43,2.17,0.04,0.04,-0.00,-0.97,29.63,99.38,536.53,-3.22,536.54,536.53,0
1408.588353,-170.43,2.17,0.04,0.03,0.00,-0.97,29.62,99.36,540.97,9.27,540.53,542.30,0
1408.598178,-170.43,2.17,0.04,0.03,0.00,-0.97,29.62,99.36,540.97,10.23,540.93,542.48,0
1408.607866,-170.42,2.17,0.04,0.04,-0.00,-0.96,29.62,99.37,537.64,0.73,537.97,537.55,0
1408.617551,-170.42,2.17,0.04,0.03,0.00,-0.96,29.62,99.37,537.64,-0.23,537.67,537.64,0
1408.627206,-170.42,2.17,0.04,0.04,-0.00,-0.97,29.62,99.37,537.64,-0.31,537.64,537.64,0
1408.636899,-170.42,2.17,0.04,0.03,-0.00,-0.96,29.62,99.37,537.64,-0.31,537.64,537.64,0
1408.646549,-170.42,2.17,0.04,0.03,-0.00,-0.96,29.62,99.37,537.64,-0.30,537.64,537.64,0
1408.656217,-170.42,2.17,0.04,0.04,0.00,-0.96,29.62,99.38,534.31,-9.61,534.64,534.31,0
1408.665956,-170.42,2.17,0.04,0.04,-0.00,-0.97,29.63,99.37,537.64,-0.94,537.34,537.64,0
1408.675594,-170.42,2.17,0.04,0.03,0.00,-0.96,29.62,99.37,537.64,-0.06,537.61,537.64,0
1408.685378,-170.41,2.17,0.04,0.04,0.00,-0.96,29.62,99.37,537.64,0.03,537.64,537.48,0
1408.699971,-170.41,2.17,0.04,0.04,-0.00,-0.96,29.63,99.38,536.53,-3.07,536.64,536.53,0
1408.709618,-170.41,2.17,0.04,0.04,0.00,-0.96,29.62,99.37,537.64,-0.18,537.54,537.64,0
1408.719295,-170.41,2.17,0.04,0.04,-0.00,-0.97,29.64,99.38,536.53,-3.00,536.63,536.53,0
1408.728997,-170.41,2.17,0.04,0.03,-0.00,-0.96,29.62,99.37,537.64,-0.09,537.54,537.64,0
1408.738687,-170.41,2.17,0.04,0.04,-0.00,-0.97,29.62,99.38,534.31,-9.11,534.63,534.31,0
1408.748339,-170.41,2.17,0.04,0.04,-0.00,-0.97,29.62,99.38,534.31,-9.74,534.33,534.31,0
1408.757988,-170.40,2.17,0.04,0.03,0.00,-0.96,29.62,99.36,540.97,9.10,540.31,542.25,0
1408.767660,-170.40,2.17,0.04,0.03,0.00,-0.96,29.62,99.37,537.64,1.37,537.91,537.62,0
1408.777393,-170.40,2.17,0.04,0.04,-0.00,-0.97,29.62,99.38,536.53,-2.53,536.67,536.53,0
1408.787073,-170.40,2.17,0.04,0.03,0.00,-0.96,29.63,99.36,539.86,6.47,539.54,540.35,0
1408.796741,-170.40,2.17,0.04,0.03,0.00,-0.96,29.63,99.36,539.86,7.17,539.83,540.56,0
1408.806438,-170.40,2.17,0.04,0.04,-0.00,-0.97,29.62,99.36,540.97,10.15,540.86,542.45,0
1408.816270,-170.40,2.17,0.04,0.03,0.00,-0.97,29.62,99.36,540.97,10.16,540.97,542.45,0
1408.825915,-170.39,2.17,0.04,0.03,0.00,-0.96,29.63,99.38,536.53,-2.55,536.97,536.53,0
1408.835583,-170.39,2.17,0.04,0.04,-0.00,-0.96,29.64,99.38,536.53,-3.72,536.57,536.53,0
1408.850157,-170.39,2.17,0.04,0.03,0.00,-0.96,29.62,99.37,537.64,-0.62,537.53,537.64,0
1408.859839,-170.39,2.17,0.04,0.04,-0.00,-0.97,29.62,99.37,537.64,-0.30,537.63,537.64,0
1408.869542,-170.39,2.17,0.04,0.04,-0.00,-0.96,29.63,99.38,536.53,-3.37,536.64,536.53,0
1408.879190,-170.39,2.17,0.05,0.03,0.00,-0.96,29.62,99.36,540.97,8.84,540.54,542.17,0
1408.888853,-170.39,2.17,0.05,0.04,-0.00,-0.96,29.62,99.36,540.97,9.79,540.93,542.31,0
1408.898498,-170.39,2.17,0.05,0.04,-0.00,-0.96,29.62,99.36,540.97,9.61,540.97,542.40,0
1408.908175,-170.39,2.17,0.04,0.03,0.00,-0.96,29.62,99.37,537.64,0.01,537.98,537.48,0
1408.917835,-170.39,2.17,0.04,0.04,-0.00,-0.97,29.62,99.37,537.64,-0.93,537.67,537.64,0
1408.927507,-170.38,2.17,0.04,0.04,-0.00,-0.96,29.62,99.37,537.64,-1.00,537.64,537.64,0
1408.937177,-170.38,2.17,0.04,0.04,0.00,-0.97,29.62,99.37,537.64,-0.97,537.64,537.64,0
1408.946908,-170.38,2.17,0.04,0.04,0.00,-0.97,29.62,99.37,537.64,-0.94,537.64,537.64,0
1408.956560,-170.38,2.17,0.04,0.04,-0.00,-0.96,29.63,99.38,536.53,-4.02,536.64,536.53,0
1408.966255,-170.38,2.17,0.04,0.03,0.00,-0.96,29.62,99.37,537.64,-1.10,537.54,537.64,0
1408.975925,-170.38,2.17,0.04,0.04,-0.00,-0.96,29.64,99.38,536.53,-3.90,536.63,536.53,0
1408.985592,-170.37,2.17,0.04,0.04,-0.00,-0.97,29.62,99.38,534.31,-10.26,534.53,534.31,0
1409.000256,-170.37,2.17,0.04,0.04,0.00,-0.96,29.62,99.36,539.86,4.92,539.33,540.20,0
1409.010000,-170.37,2.16,0.04,0.04,-0.00,-0.97,29.62,99.38,534.31,-9.25,534.81,534.31,0
1409.019715,-170.37,2.16,0.04,0.03,0.00,-0.97,29.64,99.38,536.53,-4.18,536.35,536.53,0
1409.029529,-170.37,2.16,0.04,0.04,0.00,-0.96,29.64,99.36,539.86,5.75,539.51,540.36,0
1409.039827,-170.37,2.16,0.04,0.04,-0.00,-0.96,29.62,99.36,539.86,6.56,539.83,540.38,0
1409.049645,-170.37,2.16,0.04,0.04,-0.00,-0.96,29.62,99.36,539.86,6.46,539.86,540.35,0
1409.059398,-170.37,2.16,0.04,0.04,-0.00,-0.97,29.62,99.37,537.64,0.06,537.86,537.48,0
1409.069145,-170.37,2.16,0.04,0.04,-0.00,-0.96,29.62,99.36,540.97,8.75,540.66,542.14,0
1409.078873,-170.37,2.17,0.04,0.03,0.00,-0.96,29.63,99.38,536.53,-3.07,536.94,536.53,0
1409.088600,-170.37,2.17,0.04,0.04,-0.00,-0.97,29.62,99.37,537.64,-1.03,537.57,537.64,0
1409.098328,-170.37,2.17,0.04,0.04,-0.00,-0.97,29.62,99.37,537.64,-0.80,537.63,537.64,0
1409.107995,-170.36,2.17,0.04,0.03,0.00,-0.96,29.63,99.37,537.64,-0.76,537.64,537.64,0
1409.117732,-170.36,2.17,0.04,0.04,-0.00,-0.96,29.62,99.37,537.64,-0.73,537.64,537.64,0
1409.127401,-170.36,2.16,0.04,0.04,-0.00,-0.97,29.62,99.37,537.64,-0.71,537.64,537.64,0
1409.137108,-170.36,2.16,0.04,0.03,0.00,-0.97,29.62,99.38,536.53,-3.80,536.64,536.53,0
1409.146767,-170.36,2.16,0.04,0.03,0.00,-0.97,29.62,99.38,536.53,-3.99,536.54,536.53,0
1409.156559,-170.36,2.16,0.04,0.04,-0.00,-0.97,29.62,99.38,534.31,-10.10,534.53,534.31,0
1409.166279,-170.35,2.16,0.04,0.03,0.00,-0.96,29.62,99.36,540.97,8.21,540.33,541.98,0
1409.175947,-170.35,2.16,0.04,0.04,0.00,-0.97,29.62,99.36,539.86,6.66,539.91,540.41,0
1409.185938,-170.35,2.16,0.04,0.04,-0.00,-0.97,29.62,99.37,537.64,0.12,537.87,537.49,0
1409.195594,-170.35,2.16,0.04,0.03,-0.00,-0.96,29.62,99.36,540.97,8.79,540.66,542.16,0
1409.205361,-170.35,2.16,0.04,0.04,-0.00,-0.96,29.62,99.37,537.64,0.08,537.94,537.49,0
1409.215171,-170.35,2.16,0.04,0.04,-0.00,-0.97,29.64,99.38,536.53,-3.89,536.67,536.53,0
1409.225212,-170.34,2.16,0.04,0.03,-0.00,-0.97,29.63,99.38,536.53,-4.16,536.54,536.53,0
1409.235591,-170.34,2.16,0.04,0.04,-0.00,-0.96,29.64,99.36,539.86,5.24,539.53,540.26,0
1409.245504,-170.34,2.16,0.04,0.04,-0.00,-0.96,29.62,99.37,537.64,-0.19,537.83,537.64,0
1409.255230,-170.34,2.16,0.04,0.03,0.00,-0.97,29.63,99.38,536.53,-3.83,536.66,536.53,0
1409.265191,-170.34,2.16,0.04,0.04,-0.00,-0.97,29.63,99.38,536.53,-4.08,536.54,536.53,0
1409.275407,-170.34,2.16,0.04,0.04,-0.00,-0.96,29.63,99.37,537.64,-0.88,537.53,537.64,0
1409.285236,-170.34,2.16,0.04,0.03,0.00,-0.97,29.62,99.37,537.64,-0.54,537.63,537.64,0
1409.299803,-170.33,2.17,0.04,0.04,-0.00,-0.97,29.62,99.37,537.64,-0.49,537.64,537.64,0
1409.309530,-170.33,2.16,0.04,0.03,-0.00,-0.96,29.62,99.36,540.97,8.84,540.64,542.17,0
1409.319182,-170.33,2.16,0.04,0.03,0.00,-0.96,29.62,99.36,540.97,9.51,540.94,542.37,0
1409.328871,-170.33,2.16,0.04,0.04,-0.00,-0.96,29.62,99.38,536.53,-3.12,536.97,536.53,0
1409.338551,-170.33,2.16,0.04,0.03,0.00,-0.96,29.64,99.38,536.53,-4.27,536.57,536.53,0
1409.348215,-170.33,2.16,0.04,0.03,0.00,-0.96,29.64,99.38,536.53,-4.26,536.53,536.53,0
1409.357908,-170.33,2.16,0.04,0.04,-0.00,-0.96,29.62,99.36,540.97,8.28,540.53,542.00,0
1409.367580,-170.32,2.16,0.04,0.03,-0.00,-0.96,29.63,99.36,540.97,9.28,540.93,542.30,0
1409.377251,-170.32,2.16,0.04,0.03,0.00,-0.96,29.63,99.36,540.97,9.12,540.97,542.25,0
1409.387233,-170.32,2.16,0.04,0.03,-0.00,-0.96,29.64,99.36,539.86,5.74,539.98,540.36,0
1409.396896,-170.32,2.16,0.04,0.03,-0.00,-0.96,29.64,99.36,539.86,5.25,539.87,540.26,0
1409.406594,-170.32,2.16,0.04,0.04,-0.00,-0.97,29.64,99.38,536.53,-4.26,536.86,536.53,0
1409.416308,-170.31,2.16,0.04,0.04,-0.00,-0.97,29.64,99.38,536.53,-5.07,536.56,536.53,0
1409.425943,-170.31,2.16,0.04,0.03,-0.00,-0.97,29.63,99.37,537.64,-1.90,537.53,537.64,0
1409.435593,-170.31,2.16,0.04,0.04,0.00,-0.97,29.62,99.37,537.64,-1.54,537.63,537.64,0
1409.445297,-170.31,2.16,0.04,0.04,-0.00,-0.96,29.62,99.36,540.97,7.85,540.64,541.88,0
1409.455260,-170.31,2.16,0.04,0.03,0.00,-0.97,29.63,99.37,537.64,-0.76,537.94,537.64,0
1409.470008,-170.31,2.16,0.04,0.04,-0.00,-0.96,29.62,99.38,534.31,-10.90,534.67,534.31,0
1409.479788,-170.31,2.16,0.04,0.03,0.00,-0.97,29.63,99.37,537.64,-2.27,537.34,537.64,0
1409.489450,-170.31,2.16,0.04,0.04,-0.00,-0.97,29.62,99.37,537.64,-1.36,537.61,537.64,0
1409.499219,-170.31,2.16,0.04,0.04,-0.00,-0.97,29.62,99.37,537.64,-1.24,537.64,537.64,0
1409.509225,-170.30,2.16,0.04,0.03,-0.00,-0.96,29.64,99.36,539.86,5.02,539.64,540.22,0
1409.518877,-170.30,2.16,0.04,0.03,0.00,-0.96,29.62,99.36,540.97,8.60,540.84,542.10,0
1409.528675,-170.30,2.16,0.04,0.04,-0.00,-0.97,29.62,99.37,537.64,-0.61,537.96,537.64,0
1409.538361,-170.30,2.16,0.04,0.03,0.00,-0.96,29.64,99.38,536.53,-4.60,536.67,536.53,0
1409.548070,-170.30,2.16,0.04,0.03,0.00,-0.96,29.64,99.38,536.53,-4.86,536.54,536.53,0
1409.557717,-170.30,2.16,0.04,0.04,-0.00,-0.96,29.62,99.37,537.64,-1.64,537.53,537.64,0
1409.567519,-170.30,2.16,0.04,0.03,-0.00,-0.97,29.64,99.38,536.53,-4.39,536.62,536.53,0
1409.577239,-170.30,2.16,0.04,0.03,0.00,-0.96,29.62,99.37,537.64,-1.43,537.54,537.64,0
1409.586996,-170.29,2.16,0.04,0.04,-0.00,-0.96,29.62,99.36,540.97,8.22,540.63,541.98,0
1409.596701,-170.29,2.16,0.04,0.04,-0.00,-0.96,29.62,99.36,540.97,8.93,540.94,542.20,0
1409.606353,-170.29,2.16,0.04,0.03,0.00,-0.96,29.64,99.38,536.53,-3.67,536.97,536.53,0
1409.616149,-170.29,2.16,0.04,0.04,-0.00,-0.96,29.62,99.37,537.64,-1.69,537.57,537.64,0
1409.625848,-170.29,2.16,0.04,0.03,-0.00,-0.97,29.63,99.38,536.53,-4.56,536.63,536.53,0
1409.635513,-170.29,2.16,0.04,0.03,0.00,-0.96,29.62,99.37,537.64,-1.61,537.54,537.64,0
1409.649992,-170.29,2.16,0.04,0.04,-0.00,-0.96,29.62,99.38,536.53,-4.38,536.63,536.53,0
1409.659709,-170.29,2.16,0.04,0.03,0.00,-0.97,29.64,99.38,536.53,-4.53,536.53,536.53,0
1409.669355,-170.29,2.16,0.04,0.04,0.00,-0.96,29.62,99.37,537.64,-1.31,537.53,537.64,0
1409.679039,-170.29,2.16,0.04,0.04,-0.00,-0.96,29.62,99.37,537.64,-0.96,537.63,537.64,0
1409.688692,-170.29,2.16,0.04,0.03,-0.00,-0.96,29.62,99.36,540.97,8.42,540.64,542.04,0
1409.698357,-170.29,2.16,0.04,0.03,-0.00,-0.96,29.62,99.36,540.97,9.10,540.94,542.25,0
1409.708032,-170.29,2.16,0.04,0.03,0.00,-0.96,29.62,99.37,537.64,-0.40,537.97,537.64,0
1409.717710,-170.29,2.16,0.04,0.03,0.00,-0.96,29.62,99.37,537.64,-1.32,537.67,537.64,0
1409.727363,-170.29,2.16,0.04,0.04,-0.00,-0.96,29.62,99.37,537.64,-1.37,537.64,537.64,0
1409.737004,-170.29,2.16,0.04,0.03,-0.00,-0.97,29.62,99.37,537.64,-1.34,537.64,537.64,0
1409.746866,-170.29,2.16,0.04,0.03,-0.00,-0.97,29.62,99.37,537.64,-1.30,537.64,537.64,0
1409.756515,-170.29,2.16,0.04,0.04,-0.00,-0.96,29.62,99.37,537.64,-1.26,537.64,537.64,0
1409.766177,-170.29,2.16,0.04,0.04,-0.00,-0.97,29.63,99.37,537.64,-1.22,537.64,537.64,0
1409.775828,-170.29,2.16,0.04,0.03,0.00,-0.96,29.62,99.36,539.86,5.02,539.64,540.22,0
1409.785482,-170.29,2.16,0.04,0.04,-0.00,-0.96,29.64,99.38,536.53,-3.82,536.84,536.53,0
1409.800108,-170.28,2.16,0.05,0.03,0.00,-0.96,29.62,99.37,537.64,-1.47,537.56,537.64,0
1409.809767,-170.28,2.16,0.05,0.04,0.00,-0.97,29.64,99.38,536.53,-4.31,536.63,536.53,0
1409.819445,-170.28,2.16,0.05,0.04,-0.00,-0.96,29.64,99.38,536.53,-4.46,536.53,536.53,0
1409.829087,-170.28,2.16,0.05,0.03,0.00,-0.96,29.63,99.38,534.31,-10.56,534.52,534.31,0
1409.838740,-170.28,2.16,0.05,0.04,-0.00,-0.96,29.63,99.36,540.97,7.77,540.33,541.85,0
1409.848438,-170.28,2.16,0.05,0.04,-0.00,-0.96,29.63,99.36,540.97,9.34,540.91,542.32,0
1409.858191,-170.28,2.17,0.05,0.03,0.00,-0.97,29.64,99.36,539.86,6.13,539.97,540.44,0
1409.867841,-170.28,2.17,0.05,0.04,-0.00,-0.97,29.64,99.36,539.86,5.64,539.87,540.34,0
1409.877530,-170.28,2.16,0.05,0.04,-0.00,-0.96,29.62,99.36,540.97,8.54,540.87,542.08,0
1409.887225,-170.28,2.17,0.05,0.03,0.00,-0.97,29.63,99.36,539.86,5.48,539.96,540.31,0
1409.896981,-170.28,2.17,0.05,0.03,0.00,-0.97,29.63,99.36,539.86,5.03,539.87,540.22,0
1409.906754,-170.28,2.16,0.05,0.04,-0.00,-0.96,29.62,99.37,537.64,-1.36,537.86,537.64,0
1409.916399,-170.28,2.16,0.05,0.03,0.00,-0.96,29.64,99.38,536.53,-5.06,536.66,536.53,0
1409.926140,-170.27,2.16,0.05,0.03,0.00,-0.96,29.64,99.36,539.86,4.03,539.54,540.02,0
1409.940955,-170.27,2.16,0.05,0.04,-0.00,-0.96,29.62,99.38,534.31,-10.71,534.83,534.31,0
1409.945869,-170.27,2.16,0.05,0.04,-0.00,-0.96,29.62,99.38,534.31,-11.85,534.35,534.31,0
1409.955598,-170.27,2.16,0.05,0.04,-0.00,-0.96,29.64,99.38,536.53,-5.43,536.30,536.53,0
1409.966581,-170.26,2.16,0.05,0.04,-0.00,-0.97,29.63,99.37,537.64,-1.54,537.50,537.64,0
1409.977058,-170.26,2.16,0.05,0.03,-0.00,-0.96,29.62,99.38,536.53,-4.22,536.62,536.53,0
1409.986747,-170.26,2.16,0.05,0.04,-0.00,-0.96,29.63,99.38,536.53,-4.37,536.53,536.53,0
1409.996428,-170.26,2.16,0.05,0.04,-0.00,-0.96,29.63,99.38,536.53,-4.26,536.52,536.53,0
1410.006115,-170.26,2.16,0.05,0.03,0.00,-0.97,29.62,99.37,537.64,-1.02,537.53,537.64,0
1410.015874,-170.26,2.16,0.05,0.04,-0.00,-0.97,29.64,99.38,536.53,-3.78,536.63,536.53,0
1410.025554,-170.26,2.16,0.05,0.04,-0.00,-0.96,29.63,99.37,537.64,-0.84,537.54,537.64,0
1410.035323,-170.25,2.16,0.05,0.03,-0.00,-0.96,29.64,99.38,536.53,-3.64,536.63,536.53,0
1410.045849,-170.25,2.16,0.05,0.04,-0.00,-0.96,29.63,99.37,537.64,-0.70,537.54,537.64,0
1410.055530,-170.25,2.16,0.05,0.04,-0.00,-0.97,29.63,99.36,540.97,8.92,540.63,542.20,0
1410.065413,-170.25,2.16,0.05,0.03,0.00,-0.97,29.62,99.36,540.97,9.61,540.94,542.40,0
1410.075410,-170.25,2.16,0.05,0.04,-0.00,-0.96,29.62,99.36,540.97,9.41,540.97,542.34,0
1410.085620,-170.25,2.16,0.05,0.03,-0.00,-0.96,29.64,99.38,536.53,-3.29,536.97,536.53,0
1410.095318,-170.25,2.16,0.05,0.03,-0.00,-0.97,29.62,99.37,537.64,-1.34,537.57,537.64,0
1410.105230,-170.24,2.16,0.05,0.04,-0.00,-0.96,29.62,99.37,537.64,-1.11,537.63,537.64,0
1410.115280,-170.24,2.16,0.05,0.03,0.00,-0.97,29.62,99.36,540.97,8.26,540.64,542.00,0
1410.129930,-170.24,2.16,0.05,0.04,-0.00,-0.97,29.64,99.37,537.64,-0.37,537.94,537.64,0
1410.139599,-170.24,2.16,0.05,0.04,-0.00,-0.96,29.63,99.38,534.31,-10.52,534.67,534.31,0
1410.149269,-170.24,2.16,0.05,0.04,-0.00,-0.96,29.63,99.38,534.31,-11.21,534.34,534.31,0
1410.158948,-170.24,2.16,0.05,0.04,0.00,-0.96,29.62,99.37,537.64,-1.66,537.31,537.64,0
1410.168654,-170.24,2.16,0.05,0.04,-0.00,-0.97,29.62,99.36,540.97,8.64,540.61,542.11,0
1410.178310,-170.24,2.16,0.05,0.03,-0.00,-0.96,29.62,99.37,537.64,0.09,537.94,537.49,0
1410.188044,-170.24,2.16,0.05,0.04,-0.00,-0.96,29.62,99.35,544.29,17.88,543.67,549.21,0
1410.197686,-170.24,2.16,0.05,0.04,-0.00,-0.96,29.62,99.35,544.29,19.12,544.25,549.94,0
1410.207362,-170.23,2.16,0.05,0.03,0.00,-0.97,29.62,99.37,537.64,0.08,538.31,537.49,0
1410.217083,-170.23,2.16,0.05,0.04,0.00,-0.97,29.62,99.37,537.64,-1.79,537.70,537.64,0
1410.226821,-170.23,2.16,0.05,0.04,-0.00,-0.97,29.62,99.37,537.64,-1.92,537.64,537.64,0
1410.236505,-170.23,2.16,0.05,0.04,0.00,-0.97,29.62,99.38,536.53,-4.99,536.64,536.53,0
1410.246193,-170.23,2.16,0.05,0.04,0.00,-0.97,29.62,99.38,536.53,-5.15,536.53,536.53,0
1410.255878,-170.23,2.16,0.05,0.04,-0.00,-0.97,29.63,99.38,536.53,-5.02,536.52,536.53,0
1410.265554,-170.23,2.16,0.05,0.03,0.00,-0.96,29.64,99.36,539.86,4.45,539.53,540.10,0
1410.275447,-170.23,2.16,0.05,0.04,0.00,-0.96,29.62,99.36,539.86,5.25,539.83,540.26,0
1410.285376,-170.23,2.16,0.05,0.03,-0.00,-0.96,29.62,99.37,537.64,-1.02,537.86,537.64,0
1410.295338,-170.23,2.16,0.05,0.03,-0.00,-0.96,29.63,99.38,536.53,-4.72,536.66,536.53,0
1410.305159,-170.23,2.16,0.05,0.04,-0.00,-0.96,29.64,99.38,536.53,-4.95,536.54,536.53,0
1410.315331,-170.23,2.16,0.04,0.03,-0.00,-0.96,29.64,99.36,539.86,4.48,539.53,540.11,0
1410.325369,-170.23,2.16,0.04,0.03,-0.00,-0.97,29.63,99.38,536.53,-4.03,536.83,536.53,0
1410.335467,-170.23,2.16,0.04,0.04,-0.00,-0.96,29.64,99.38,536.53,-4.75,536.55,536.53,0
1410.350098,-170.23,2.16,0.04,0.03,0.00,-0.96,29.64,99.39,532.92,-14.78,533.27,532.92,0
1410.359785,-170.23,2.16,0.04,0.04,0.00,-0.97,29.64,99.38,536.53,-5.26,536.20,536.53,0
1410.369450,-170.23,2.16,0.04,0.04,-0.00,-0.97,29.63,99.37,537.64,-1.07,537.49,537.64,0
1410.379129,-170.22,2.16,0.04,0.03,-0.00,-0.97,29.63,99.36,539.86,5.57,539.62,540.33,0
1410.388778,-170.23,2.16,0.04,0.04,0.00,-0.97,29.63,99.38,536.53,-3.25,536.84,536.53,0
1410.398513,-170.23,2.16,0.04,0.04,0.00,-0.97,29.63,99.38,536.53,-4.02,536.56,536.53,0
1410.408163,-170.22,2.16,0.04,0.03,0.00,-0.96,29.64,99.38,536.53,-3.98,536.53,536.53,0
1410.417874,-170.22,2.16,0.05,0.04,-0.00,-0.96,29.62,99.37,537.64,-0.76,537.53,537.64,0
1410.427530,-170.22,2.16,0.04,0.04,-0.00,-0.97,29.62,99.37,537.64,-0.42,537.63,537.64,0
1410.437161,-170.22,2.16,0.04,0.03,0.00,-0.96,29.62,99.38,536.53,-3.49,536.64,536.53,0
1410.446864,-170.22,2.16,0.04,0.03,0.00,-0.96,29.62,99.38,536.53,-3.69,536.54,536.53,0
1410.456553,-170.22,2.16,0.04,0.04,-0.00,-0.96,29.63,99.37,537.64,-0.50,537.53,537.64,0
1410.466206,-170.22,2.16,0.04,0.03,0.00,-0.96,29.63,99.37,537.64,-0.17,537.63,537.64,0
1410.475878,-170.22,2.16,0.04,0.04,0.00,-0.97,29.62,99.38,536.53,-3.24,536.64,536.53,0
1410.485659,-170.22,2.16,0.04,0.04,-0.00,-0.97,29.62,99.38,536.53,-3.45,536.54,536.53,0
1410.495880,-170.22,2.16,0.04,0.03,0.00,-0.97,29.62,99.36,540.97,9.05,540.53,542.23,0
1410.505925,-170.21,2.16,0.04,0.04,0.00,-0.96,29.62,99.36,540.97,10.02,540.93,542.40,0
1410.515745,-170.21,2.16,0.04,0.04,-0.00,-0.96,29.62,99.38,534.31,-8.79,534.97,534.31,0
1410.525441,-170.21,2.16,0.04,0.03,0.00,-0.97,29.62,99.37,537.64,-1.08,537.37,537.64,0
1410.535726,-170.21,2.16,0.04,0.04,0.00,-0.97,29.64,99.38,536.53,-3.40,536.61,536.53,0
1410.545370,-170.21,2.16,0.04,0.04,-0.00,-0.96,29.63,99.37,537.64,-0.42,537.54,537.64,0
1410.555429,-170.21,2.16,0.04,0.03,0.00,-0.96,29.63,99.36,540.97,9.19,540.63,542.28,0
1410.565588,-170.21,2.16,0.04,0.04,-0.00,-0.97,29.64,99.38,536.53,-2.54,536.94,536.53,0
1410.575272,-170.21,2.16,0.04,0.04,-0.00,-0.97,29.62,99.37,537.64,-0.51,537.57,537.64,0
1410.585780,-170.21,2.16,0.04,0.03,0.00,-0.96,29.64,99.37,537.64,-0.30,537.63,537.64,0
1410.595458,-170.21,2.16,0.04,0.04,0.00,-0.96,29.62,99.37,537.64,-0.27,537.64,537.64,0
1410.605430,-170.20,2.16,0.04,0.04,-0.00,-0.97,29.62,99.37,537.64,-0.26,537.64,537.64,0
1410.615357,-170.20,2.16,0.04,0.03,-0.00,-0.97,29.62,99.36,540.97,9.06,540.64,542.24,0
1410.625390,-170.20,2.16,0.04,0.04,-0.00,-0.96,29.63,99.36,540.97,9.72,540.94,542.28,0
1410.635442,-170.20,2.16,0.04,0.04,-0.00,-0.96,29.62,99.36,540.97,9.51,540.98,542.37,0
1410.645439,-170.20,2.16,0.04,0.03,0.00,-0.97,29.64,99.38,536.53,-3.20,536.97,536.53,0
1410.655760,-170.20,2.16,0.04,0.04,-0.00,-0.97,29.63,99.36,539.86,4.96,539.57,540.21,0
1410.665400,-170.20,2.16,0.04,0.03,-0.00,-0.96,29.62,99.37,537.64,-0.58,537.83,537.64,0
1410.675292,-170.20,2.16,0.04,0.03,0.00,-0.96,29.62,99.38,536.53,-4.22,536.66,536.53,0
1410.689999,-170.20,2.16,0.04,0.04,-0.00,-0.96,29.64,99.38,536.53,-4.46,536.54,536.53,0
1410.699696,-170.20,2.16,0.04,0.04,-0.00,-0.96,29.64,99.38,536.53,-4.35,536.53,536.53,0
1410.709343,-170.20,2.16,0.04,0.04,-0.00,-0.96,29.63,99.36,539.86,5.09,539.53,540.23,0
1410.719007,-170.20,2.16,0.04,0.04,-0.00,-0.96,29.62,99.38,534.31,-9.64,534.83,534.31,0
1410.728705,-170.20,2.16,0.04,0.03,-0.00,-0.97,29.64,99.38,536.53,-4.61,536.35,536.53,0
1410.738387,-170.20,2.16,0.04,0.04,-0.00,-0.96,29.62,99.37,537.64,-0.88,537.51,537.64,0
1410.748136,-170.20,2.16,0.04,0.04,-0.00,-0.96,29.62,99.37,537.64,-0.49,537.63,537.64,0
1410.757806,-170.19,2.16,0.04,0.03,-0.00,-0.97,29.64,99.36,539.86,5.76,539.64,540.37,0
1410.767498,-170.19,2.16,0.05,0.04,-0.00,-0.97,29.64,99.38,536.53,-3.10,536.84,536.53,0
1410.777249,-170.19,2.16,0.05,0.04,-0.00,-0.97,29.62,99.37,537.64,-0.77,537.56,537.64,0
1410.786938,-170.19,2.16,0.05,0.04,0.00,-0.96,29.62,99.37,537.64,-0.52,537.63,537.64,0
1410.796638,-170.19,2.16,0.05,0.04,0.00,-0.96,29.62,99.37,537.64,-0.48,537.64,537.64,0
1410.806403,-170.19,2.16,0.05,0.04,-0.00,-0.97,29.62,99.38,534.31,-9.78,534.64,534.31,0
1410.816061,-170.19,2.16,0.05,0.03,0.00,-0.96,29.62,99.37,537.64,-1.10,537.34,537.64,0
1410.825747,-170.19,2.16,0.05,0.04,0.00,-0.96,29.63,99.37,537.64,-0.22,537.61,537.64,0
1410.835393,-170.19,2.16,0.05,0.04,-0.00,-0.96,29.64,99.38,536.53,-3.24,536.63,536.53,0
1410.845266,-170.19,2.16,0.05,0.03,0.00,-0.97,29.62,99.38,536.53,-3.44,536.54,536.53,0
1410.859922,-170.19,2.16,0.05,0.04,-0.00,-0.96,29.64,99.36,539.86,5.95,539.53,540.40,0
1410.869570,-170.19,2.16,0.05,0.04,-0.00,-0.96,29.63,99.36,540.97,9.81,540.83,542.32,0
1410.879265,-170.18,2.16,0.05,0.04,-0.00,-0.97,29.63,99.37,537.64,0.60,537.96,537.54,0
1410.888943,-170.18,2.16,0.05,0.04,-0.00,-0.96,29.62,99.36,540.97,8.99,540.67,542.22,0
1410.898590,-170.18,2.16,0.05,0.04,-0.00,-0.96,29.62,99.36,540.97,9.57,540.95,542.39,0
1410.908238,-170.18,2.16,0.05,0.04,-0.00,-0.96,29.63,99.36,539.86,6.24,539.97,540.46,0
1410.917904,-170.18,2.16,0.05,0.04,-0.00,-0.96,29.62,99.36,540.97,8.85,540.88,542.17,0
1410.927582,-170.18,2.16,0.05,0.04,-0.00,-0.96,29.64,99.36,539.86,5.75,539.97,540.36,0
1410.937260,-170.18,2.16,0.05,0.04,0.00,-0.96,29.62,99.36,540.97,8.40,540.88,542.04,0
1410.947045,-170.18,2.16,0.05,0.04,0.00,-0.96,29.62,99.36,540.97,8.42,540.97,542.04,0
1410.956789,-170.18,2.16,0.05,0.03,0.00,-0.96,29.63,99.37,537.64,-1.13,537.97,537.64,0
1410.966433,-170.18,2.16,0.05,0.04,0.00,-0.97,29.62,99.38,534.31,-11.34,534.67,534.31,0
1410.976221,-170.18,2.16,0.05,0.04,-0.00,-0.97,29.63,99.37,537.64,-2.71,537.34,537.64,0
1410.985993,-170.18,2.16,0.05,0.03,0.00,-0.96,29.62,99.36,539.86,4.41,539.61,540.10,0
1410.995731,-170.18,2.16,0.05,0.03,0.00,-0.96,29.62,99.37,537.64,-1.22,537.84,537.64,0
1411.005966,-170.18,2.16,0.05,0.04,-0.00,-0.97,29.64,99.38,536.53,-4.84,536.66,536.53,0
1411.015624,-170.17,2.16,0.05,0.03,0.00,-0.97,29.62,99.36,540.97,7.36,540.54,541.73,0
1411.025428,-170.17,2.16,0.05,0.04,0.00,-0.96,29.62,99.37,537.64,-0.97,537.93,537.64,0
1411.039960,-170.17,2.16,0.05,0.03,-0.00,-0.97,29.62,99.37,537.64,-1.75,537.67,537.64,0
1411.049729,-170.17,2.16,0.05,0.03,-0.00,-0.97,29.62,99.37,537.64,-1.78,537.64,537.64,0
1411.059401,-170.17,2.16,0.05,0.04,-0.00,-0.96,29.64,99.38,536.53,-4.84,536.64,536.53,0
1411.069137,-170.17,2.16,0.05,0.04,0.00,-0.96,29.62,99.37,537.64,-1.90,537.54,537.64,0
1411.078818,-170.17,2.16,0.05,0.03,0.00,-0.97,29.63,99.36,540.97,7.76,540.63,541.85,0
1411.088468,-170.17,2.16,0.05,0.04,-0.00,-0.96,29.62,99.37,537.64,-0.83,537.94,537.64,0
1411.098258,-170.17,2.16,0.05,0.04,-0.00,-0.96,29.62,99.37,537.64,-1.65,537.67,537.64,0
1411.107955,-170.17,2.16,0.05,0.03,0.00,-0.96,29.64,99.38,536.53,-4.79,536.64,536.53,0
1411.117638,-170.17,2.16,0.05,0.04,-0.00,-0.97,29.64,99.36,539.86,4.35,539.54,540.08,0
1411.127295,-170.17,2.16,0.05,0.04,-0.00,-0.96,29.62,99.37,537.64,-1.08,537.83,537.64,0
1411.136989,-170.16,2.16,0.05,0.04,-0.00,-0.96,29.63,99.37,537.64,-1.58,537.66,537.64,0
1411.146693,-170.16,2.16,0.05,0.04,-0.00,-0.96,29.63,99.37,537.64,-1.59,537.64,537.64,0
1411.156396,-170.16,2.16,0.05,0.04,-0.00,-0.96,29.64,99.36,539.86,4.66,539.64,540.15,0
1411.166420,-170.16,2.16,0.05,0.03,0.00,-0.97,29.62,99.37,537.64,-1.06,537.84,537.64,0
1411.176086,-170.16,2.16,0.05,0.04,-0.00,-0.96,29.64,99.38,536.53,-4.70,536.66,536.53,0
1411.185766,-170.16,2.16,0.05,0.03,-0.00,-0.96,29.62,99.37,537.64,-1.82,537.54,537.64,0
1411.195510,-170.15,2.16,0.05,0.03,-0.00,-0.96,29.63,99.36,539.86,4.72,539.63,540.16,0
1411.206096,-170.15,2.16,0.05,0.04,-0.00,-0.97,29.62,99.37,537.64,-0.98,537.84,537.64,0
1411.215751,-170.15,2.16,0.05,0.03,-0.00,-0.96,29.64,99.38,536.53,-4.62,536.66,536.53,0
1411.225463,-170.15,2.16,0.05,0.03,0.00,-0.96,29.64,99.38,536.53,-4.84,536.54,536.53,0
1411.235723,-170.15,2.16,0.05,0.04,-0.00,-0.97,29.64,99.38,536.53,-4.73,536.52,536.53,0
1411.245513,-170.15,2.16,0.05,0.04,-0.00,-0.97,29.62,99.36,540.97,7.84,540.53,541.87,0
1411.255504,-170.15,2.16,0.05,0.04,0.00,-0.96,29.63,99.38,536.53,-3.57,536.93,536.53,0
1411.265804,-170.15,2.16,0.05,0.04,-0.00,-0.96,29.62,99.36,540.97,7.83,540.57,541.87,0
1411.275541,-170.14,2.16,0.05,0.03,0.00,-0.96,29.63,99.37,537.64,-0.59,537.93,537.64,0
1411.285853,-170.14,2.16,0.05,0.04,-0.00,-0.97,29.63,99.37,537.64,-1.39,537.67,537.64,0
1411.295539,-170.14,2.16,0.05,0.04,-0.00,-0.96,29.63,99.38,536.53,-4.54,536.64,536.53,0
1411.305713,-170.14,2.16,0.05,0.03,0.00,-0.96,29.62,99.36,540.97,7.70,540.54,541.83,0
1411.315430,-170.14,2.16,0.05,0.04,0.00,-0.97,29.64,99.39,532.92,-13.83,533.68,532.92,0
1411.325903,-170.14,2.16,0.05,0.04,-0.00,-0.97,29.63,99.36,540.97,6.96,540.24,541.61,0
1411.335625,-170.14,2.16,0.05,0.03,0.00,-0.96,29.64,99.39,532.92,-13.71,533.65,532.92,0
1411.345468,-170.14,2.16,0.05,0.04,0.00,-0.96,29.62,99.37,537.64,-2.15,537.24,537.64,0
1411.355462,-170.13,2.16,0.05,0.04,-0.00,-0.97,29.62,99.37,537.64,-0.96,537.60,537.64,0
1411.365287,-170.13,2.16,0.05,0.03,0.00,-0.96,29.63,99.37,537.64,-0.82,537.63,537.64,0
1411.375726,-170.13,2.16,0.05,0.04,-0.00,-0.96,29.62,99.37,537.64,-0.78,537.64,537.64,0
1411.385428,-170.13,2.16,0.05,0.04,-0.00,-0.96,29.62,99.36,540.97,8.56,540.64,542.09,0
1411.395544,-170.13,2.16,0.05,0.03,0.00,-0.97,29.62,99.37,537.64,-0.08,537.94,537.64,0
1411.405762,-170.13,2.16,0.05,0.04,-0.00,-0.97,29.62,99.36,540.97,8.39,540.67,542.04,0
1411.415472,-170.13,2.16,0.05,0.03,-0.00,-0.96,29.64,99.38,536.53,-3.44,536.94,536.53,0
1411.425762,-170.13,2.16,0.05,0.03,0.00,-0.96,29.63,99.36,539.86,4.81,539.57,540.18,0
1411.435451,-170.12,2.16,0.05,0.04,-0.00,-0.97,29.64,99.38,536.53,-3.83,536.83,536.53,0
1411.445372,-170.12,2.16,0.05,0.04,-0.00,-0.96,29.62,99.37,537.64,-1.46,537.56,537.64,0
1411.455325,-170.12,2.16,0.05,0.03,0.00,-0.97,29.62,99.36,540.97,8.13,540.63,541.96,0
1411.465467,-170.12,2.16,0.05,0.04,-0.00,-0.96,29.62,99.37,537.64,-0.47,537.94,537.64,0
1411.475197,-170.12,2.16,0.05,0.04,-0.00,-0.96,29.62,99.38,536.53,-4.41,536.67,536.53,0
1411.485245,-170.12,2.16,0.05,0.04,0.00,-0.97,29.62,99.38,536.53,-4.67,536.54,536.53,0
1411.495537,-170.12,2.16,0.05,0.04,-0.00,-0.96,29.62,99.37,537.64,-1.46,537.53,537.64,0
1411.505479,-170.12,2.16,0.05,0.03,0.00,-0.96,29.62,99.36,540.97,8.21,540.63,541.98,0
1411.515427,-170.12,2.16,0.05,0.04,-0.00,-0.97,29.64,99.39,532.92,-13.58,533.69,532.92,0
1411.525442,-170.12,2.16,0.05,0.04,-0.00,-0.97,29.64,99.39,532.92,-15.34,532.98,532.92,0
1411.535317,-170.12,2.16,0.05,0.03,-0.00,-0.96,29.63,99.38,536.53,-4.99,536.17,536.53,0
1411.545260,-170.12,2.16,0.05,0.03,0.00,-0.96,29.63,99.36,540.97,8.58,540.49,542.09,0
1411.559824,-170.11,2.16,0.05,0.04,-0.00,-0.97,29.62,99.37,537.64,0.36,537.93,537.51,0
1411.569634,-170.12,2.16,0.05,0.03,0.00,-0.96,29.63,99.38,536.53,-3.56,536.67,536.53,0
1411.579328,-170.11,2.16,0.05,0.04,-0.00,-0.96,29.63,99.36,540.97,8.57,540.54,542.09,0
1411.589004,-170.11,2.16,0.05,0.03,-0.00,-0.97,29.63,99.38,536.53,-2.90,536.93,536.53,0
1411.598938,-170.11,2.16,0.05,0.03,-0.00,-0.97,29.63,99.38,536.53,-3.94,536.57,536.53,0
1411.608752,-170.11,2.16,0.05,0.04,-0.00,-0.96,29.62,99.38,534.31,-10.14,534.53,534.31,0
1411.618455,-170.11,2.16,0.05,0.04,-0.00,-0.96,29.62,99.37,537.64,-1.15,537.33,537.64,0
1411.628139,-170.11,2.16,0.05,0.03,0.00,-0.96,29.63,99.37,537.64,-0.24,537.61,537.64,0
1411.637850,-170.11,2.16,0.05,0.04,-0.00,-0.97,29.64,99.36,539.86,6.06,539.64,540.43,0
1411.647494,-170.11,2.16,0.05,0.04,-0.00,-0.97,29.64,99.36,539.86,6.51,539.84,540.36,0
1411.657218,-170.11,2.16,0.05,0.03,0.00,-0.96,29.64,99.38,536.53,-2.94,536.86,536.53,0
1411.666892,-170.11,2.16,0.05,0.04,-0.00,-0.96,29.63,99.37,537.64,-0.68,537.56,537.64,0
1411.676589,-170.11,2.16,0.05,0.04,-0.00,-0.97,29.63,99.37,537.64,-0.43,537.63,537.64,0
1411.686380,-170.11,2.16,0.05,0.04,-0.00,-0.96,29.62,99.36,540.97,8.92,540.64,542.19,0
1411.696047,-170.11,2.16,0.05,0.04,-0.00,-0.96,29.62,99.36,540.97,9.58,540.94,542.39,0
1411.705789,-170.11,2.16,0.05,0.04,-0.00,-0.97,29.62,99.37,537.64,0.06,537.97,537.49,0
1411.715548,-170.11,2.16,0.05,0.03,0.00,-0.97,29.62,99.37,537.64,-0.87,537.67,537.64,0
1411.725228,-170.10,2.16,0.05,0.04,-0.00,-0.97,29.64,99.36,539.86,5.27,539.64,540.27,0
1411.740065,-170.10,2.16,0.05,0.03,-0.00,-0.96,29.64,99.38,536.53,-3.59,536.84,536.53,0
1411.749718,-170.10,2.16,0.05,0.03,-0.00,-0.96,29.64,99.38,536.53,-4.36,536.56,536.53,0
1411.759406,-170.10,2.16,0.05,0.04,-0.00,-0.97,29.62,99.37,537.64,-1.20,537.53,537.64,0
1411.769067,-170.10,2.16,0.05,0.03,0.00,-0.97,29.63,99.37,537.64,-0.86,537.63,537.64,0
1411.778810,-170.10,2.16,0.05,0.04,0.00,-0.96,29.62,99.36,540.97,8.51,540.64,542.07,0
1411.788469,-170.10,2.16,0.05,0.04,-0.00,-0.97,29.63,99.36,539.86,6.08,539.94,540.43,0
1411.798174,-170.10,2.16,0.05,0.04,-0.00,-0.97,29.63,99.36,539.86,5.67,539.87,540.35,0
1411.807835,-170.10,2.16,0.05,0.04,-0.00,-0.96,29.63,99.38,536.53,-3.84,536.86,536.53,0
1411.817490,-170.10,2.16,0.05,0.04,-0.00,-0.96,29.64,99.36,539.86,4.65,539.56,540.14,0
1411.827158,-170.09,2.16,0.05,0.03,0.00,-0.96,29.62,99.36,540.97,8.46,540.83,542.06,0
1411.836824,-170.09,2.16,0.05,0.05,-0.00,-0.97,29.63,99.37,537.64,-0.72,537.96,537.64,0
1411.846496,-170.09,2.16,0.05,0.05,-0.00,-0.97,29.63,99.37,537.64,-1.60,537.67,537.64,0
1411.856162,-170.09,2.16,0.05,0.03,0.00,-0.96,29.62,99.37,537.64,-1.64,537.64,537.64,0
1411.865838,-170.09,2.16,0.04,0.04,-0.00,-0.96,29.63,99.36,539.86,4.61,539.64,540.14,0
1411.875482,-170.09,2.16,0.04,0.04,-0.00,-0.97,29.63,99.37,537.64,-1.11,537.84,537.64,0
1411.885340,-170.09,2.16,0.04,0.03,0.00,-0.96,29.63,99.36,540.97,7.67,540.66,541.82,0
1411.895432,-170.09,2.16,0.04,0.04,-0.00,-0.97,29.63,99.36,539.86,5.21,539.94,540.26,0
1411.905693,-170.09,2.16,0.05,0.04,-0.00,-0.96,29.62,99.37,537.64,-1.38,537.87,537.64,0
1411.915383,-170.09,2.16,0.05,0.03,0.00,-0.97,29.64,99.38,536.53,-5.10,536.66,536.53,0
1411.925239,-170.09,2.16,0.05,0.04,0.00,-0.96,29.63,99.36,539.86,3.99,539.54,540.01,0
1411.935370,-170.09,2.16,0.04,0.04,-0.00,-0.97,29.63,99.36,539.86,4.77,539.83,540.17,0
1411.945503,-170.09,2.16,0.04,0.03,-0.00,-0.96,29.62,99.37,537.64,-1.49,537.86,537.64,0
1411.955308,-170.09,2.16,0.05,0.04,-0.00,-0.97,29.64,99.38,536.53,-5.17,536.66,536.53,0
1411.969870,-170.09,2.16,0.05,0.03,-0.00,-0.97,29.63,99.37,537.64,-2.28,537.54,537.64,0
1411.979527,-170.09,2.16,0.05,0.04,-0.00,-0.96,29.62,99.37,537.64,-1.93,537.63,537.64,0
1411.989299,-170.08,2.16,0.05,0.04,-0.00,-0.96,29.63,99.38,536.53,-4.95,536.63,536.53,0
1411.998971,-170.08,2.16,0.05,0.04,-0.00,-0.96,29.63,99.38,536.53,-5.11,536.53,536.53,0
1412.008639,-170.08,2.16,0.05,0.04,0.00,-0.96,29.62,99.37,537.64,-1.87,537.53,537.64,0
1412.018333,-170.08,2.16,0.05,0.04,-0.00,-0.96,29.62,99.37,537.64,-1.50,537.63,537.64,0
1412.028023,-170.08,2.16,0.05,0.03,-0.00,-0.96,29.62,99.37,537.64,-1.42,537.64,537.64,0
1412.037790,-170.08,2.16,0.05,0.04,-0.00,-0.96,29.64,99.38,536.53,-4.49,536.64,536.53,0
1412.047438,-170.08,2.16,0.05,0.04,-0.00,-0.96,29.64,99.38,536.53,-4.66,536.53,536.53,0
1412.057086,-170.08,2.16,0.05,0.03,0.00,-0.96,29.62,99.36,540.97,7.88,540.53,541.88,0
1412.066757,-170.08,2.16,0.05,0.04,-0.00,-0.97,29.63,99.37,537.64,-0.43,537.93,537.64,0
1412.076438,-170.08,2.16,0.05,0.04,-0.00,-0.97,29.63,99.37,537.64,-1.23,537.67,537.64,0
1412.086137,-170.08,2.16,0.05,0.03,-0.00,-0.96,29.62,99.37,537.64,-1.28,537.64,537.64,0
1412.095805,-170.08,2.16,0.05,0.03,-0.00,-0.96,29.62,99.37,537.64,-1.24,537.64,537.64,0
1412.105470,-170.08,2.16,0.05,0.04,-0.00,-0.96,29.62,99.37,537.64,-1.21,537.64,537.64,0
1412.120026,-170.08,2.16,0.05,0.03,-0.00,-0.96,29.64,99.38,536.53,-4.28,536.64,536.53,0
1412.129674,-170.08,2.16,0.05,0.04,-0.00,-0.96,29.64,99.38,536.53,-4.46,536.54,536.53,0
1412.139318,-170.08,2.16,0.05,0.03,-0.00,-0.97,29.62,99.39,532.92,-14.44,533.27,532.92,0
1412.148972,-170.08,2.16,0.05,0.03,-0.00,-0.97,29.62,99.39,532.92,-15.01,532.94,532.92,0
1412.158650,-170.08,2.16,0.05,0.04,-0.00,-0.97,29.62,99.36,540.97,7.86,540.17,541.88,0
1412.168339,-170.08,2.16,0.05,0.03,-0.00,-0.96,29.63,99.36,540.97,9.88,540.90,542.34,0
1412.178031,-170.08,2.16,0.05,0.03,0.00,-0.96,29.63,99.37,537.64,0.49,537.97,537.53,0
1412.187719,-170.07,2.16,0.05,0.04,-0.00,-0.97,29.63,99.38,536.53,-3.55,536.67,536.53,0
1412.197370,-170.07,2.16,0.05,0.04,-0.00,-0.97,29.63,99.38,536.53,-3.85,536.54,536.53,0
1412.207044,-170.07,2.16,0.05,0.03,0.00,-0.96,29.63,99.36,540.97,8.65,540.53,542.11,0
1412.216716,-170.07,2.16,0.05,0.04,-0.00,-0.96,29.64,99.38,536.53,-2.79,536.93,536.53,0
