Time,Yaw,Pitch,Roll,a_x,a_y,a_z,Temperature,Pressure,Altitude,kf_velocity,kf_altitude,triggerAltitudeAchieved
5810.03,-1.84,-68.18,-42.57,-0.91,0.25,-0.27,34.01,99.34,547.07,3.13,468.92,0
5810.07,-1.84,-68.18,-42.57,-0.91,0.25,-0.27,34.01,99.34,547.07,4.46,526.82,0
5810.11,-1.84,-68.18,-42.57,-0.91,0.25,-0.27,34.01,99.34,547.07,4.98,541.67,0
5810.14,-1.84,-68.18,-42.57,-0.91,0.25,-0.27,34.01,99.34,547.07,5.16,545.64,0
5810.18,-1.84,-68.18,-42.57,-0.91,0.25,-0.27,34.01,99.34,547.07,5.22,546.70,0
5810.22,-1.84,-68.18,-42.57,-0.91,0.25,-0.27,34.01,99.34,547.07,5.23,546.98,0
5810.25,-1.84,-68.18,-42.57,-0.91,0.25,-0.27,34.01,99.34,547.07,5.23,547.06,0
5810.29,-1.84,-68.18,-42.57,-0.91,0.25,-0.27,34.01,99.34,547.07,5.23,547.08,0
5810.34,-1.84,-68.18,-42.57,-0.91,0.25,-0.27,34.01,99.34,547.07,5.23,547.09,0
5810.38,-1.84,-68.18,-42.57,-0.91,0.25,-0.27,34.01,99.34,547.07,5.22,547.09,0
5810.43,-1.84,-68.18,-42.57,-0.91,0.25,-0.27,34.01,99.34,547.07,5.22,547.09,0
5810.46,-1.84,-68.18,-42.57,-0.91,0.25,-0.27,34.01,99.34,547.07,5.21,547.09,0
5810.51,-1.84,-68.18,-42.57,-0.91,0.25,-0.27,34.01,99.34,547.07,5.20,547.09,0
5810.55,-1.84,-68.18,-42.57,-0.91,0.25,-0.27,34.01,99.34,547.07,5.19,547.09,0
5810.59,-1.84,-68.18,-42.57,-0.91,0.25,-0.27,34.01,99.34,547.07,5.19,547.09,0
5810.62,-1.84,-68.18,-42.57,-0.91,0.25,-0.27,34.01,99.34,547.07,5.18,547.09,0
5810.65,-1.84,-68.18,-42.57,-0.91,0.25,-0.27,34.01,99.34,547.07,5.17,547.09,0
5810.68,-1.84,-68.18,-42.57,-0.91,0.25,-0.27,34.01,99.34,547.07,5.16,547.09,0
5810.73,-1.84,-68.18,-42.57,-0.91,0.25,-0.27,34.01,99.34,547.07,5.15,547.09,0
5810.76,-1.84,-68.18,-42.57,-0.91,0.25,-0.27,34.01,99.34,547.07,5.14,547.09,0
5810.79,-1.84,-68.18,-42.57,-0.91,0.25,-0.27,34.01,99.34,547.07,5.13,547.09,0
5810.82,-1.84,-68.18,-42.57,-0.91,0.25,-0.27,34.01,99.34,547.07,5.12,547.09,0
5810.87,-1.84,-68.18,-42.57,-0.91,0.25,-0.27,34.01,99.34,547.07,5.11,547.09,0
5810.90,-1.84,-68.18,-42.57,-0.91,0.25,-0.27,34.01,99.34,547.07,5.09,547.09,0
5810.94,-1.84,-68.18,-42.57,-0.91,0.25,-0.27,34.01,99.34,547.07,5.08,547.09,0
5810.98,-1.84,-68.18,-42.57,-0.91,0.25,-0.27,34.01,99.34,547.07,5.07,547.09,0
5811.01,-1.84,-68.18,-42.57,-0.91,0.25,-0.27,34.01,99.34,547.07,5.05,547.09,0
5811.05,-1.84,-68.18,-42.57,-0.91,0.25,-0.27,34.01,99.34,547.07,5.04,547.09,0
5811.08,-1.84,-68.18,-42.57,-0.91,0.25,-0.27,34.01,99.34,547.07,5.02,547.09,0
5811.12,-1.84,-68.18,-42.57,-0.91,0.25,-0.27,34.01,99.34,547.07,5.01,547.09,0
5811.15,-1.84,-68.18,-42.57,-0.91,0.25,-0.27,34.01,99.34,547.07,4.99,547.09,0
5811.20,-1.84,-68.18,-42.57,-0.91,0.25,-0.27,34.01,99.34,547.07,4.98,547.09,0
5811.23,-1.84,-68.18,-42.57,-0.91,0.25,-0.27,34.01,99.34,547.07,4.96,547.09,0
5811.27,-1.84,-68.18,-42.57,-0.91,0.25,-0.27,34.01,99.34,547.07,4.95,547.09,0
5811.31,-1.84,-68.18,-42.57,-0.91,0.25,-0.27,34.01,99.34,547.07,4.93,547.09,0
5811.35,-1.84,-68.18,-42.57,-0.91,0.25,-0.27,34.01,99.34,547.07,4.91,547.09,0
5811.38,-1.84,-68.18,-42.57,-0.91,0.25,-0.27,34.01,99.34,547.07,4.89,547.09,0
5811.41,-1.84,-68.18,-42.57,-0.91,0.25,-0.27,34.01,99.34,547.07,4.88,547.09,0
5811.45,-1.84,-68.18,-42.57,-0.91,0.25,-0.27,34.01,99.34,547.07,4.86,547.09,0
5811.48,-1.84,-68.18,-42.57,-0.91,0.25,-0.27,34.01,99.34,547.07,4.84,547.09,0
5811.52,-1.84,-68.18,-42.57,-0.91,0.25,-0.27,34.01,99.34,547.07,4.82,547.09,0
5811.56,-1.84,-68.18,-42.57,-0.91,0.25,-0.27,34.01,99.34,547.07,4.80,547.09,0
5811.59,-1.84,-68.18,-42.57,-0.91,0.25,-0.27,34.01,99.34,547.07,4.78,547.09,0
5811.64,-1.84,-68.18,-42.57,-0.91,0.25,-0.27,34.01,99.34,547.07,4.76,547.09,0
5811.68,-1.84,-68.18,-42.57,-0.91,0.25,-0.27,34.01,99.34,547.07,4.74,547.09,0
5811.71,-1.84,-68.18,-42.57,-0.91,0.25,-0.27,34.01,99.34,547.07,4.72,547.09,0
5811.75,-1.84,-68.18,-42.57,-0.91,0.25,-0.27,34.01,99.34,547.07,4.70,547.09,0
5811.79,-1.84,-68.18,-42.57,-0.91,0.25,-0.27,34.01,99.34,547.07,4.68,547.09,0
5811.83,-1.84,-68.18,-42.57,-0.91,0.25,-0.27,34.01,99.34,547.07,4.66,547.09,0
5811.87,-1.84,-68.18,-42.57,-0.91,0.25,-0.27,34.01,99.34,547.07,4.64,547.09,0
5811.90,-1.84,-68.18,-42.57,-0.91,0.25,-0.27,34.01,99.34,547.07,4.61,547.09,0
5811.94,-1.84,-68.18,-42.57,-0.91,0.25,-0.27,34.01,99.34,547.07,4.59,547.09,0
5811.98,-1.84,-68.18,-42.57,-0.91,0.25,-0.27,34.01,99.34,547.07,4.57,547.09,0
5812.01,-1.84,-68.18,-42.57,-0.91,0.25,-0.27,34.01,99.34,547.07,4.55,547.09,0
5812.05,-1.84,-68.18,-42.57,-0.91,0.25,-0.27,34.01,99.34,547.07,4.52,547.09,0
5812.10,-1.84,-68.18,-42.57,-0.91,0.25,-0.27,34.01,99.34,547.07,4.50,547.09,0
5812.13,-1.84,-68.18,-42.57,-0.91,0.25,-0.27,34.01,99.34,547.07,4.48,547.09,0
5812.17,-1.84,-68.18,-42.57,-0.91,0.25,-0.27,34.01,99.34,547.07,4.45,547.09,0
5812.21,-1.84,-68.18,-42.57,-0.91,0.25,-0.27,34.01,99.34,547.07,4.43,547.09,0
5812.25,-1.84,-68.18,-42.57,-0.91,0.25,-0.27,34.01,99.34,547.07,4.41,547.09,0
5812.28,-1.84,-68.18,-42.57,-0.91,0.25,-0.27,34.01,99.34,547.07,4.38,547.09,0
5812.32,-1.84,-68.18,-42.57,-0.91,0.25,-0.27,34.01,99.34,547.07,4.36,547.09,0
5812.36,-1.84,-68.18,-42.57,-0.91,0.25,-0.27,34.01,99.34,547.07,4.33,547.08,0
5812.40,-1.84,-68.18,-42.57,-0.91,0.25,-0.27,34.01,99.34,547.07,4.31,547.08,0
5812.45,-1.84,-68.18,-42.57,-0.91,0.25,-0.27,34.01,99.34,547.07,4.28,547.08,0
5812.49,-1.84,-68.18,-42.57,-0.91,0.25,-0.27,34.01,99.34,547.07,4.26,547.08,0
5812.54,-1.84,-68.18,-42.57,-0.91,0.25,-0.27,34.01,99.34,547.07,4.23,547.08,0
5812.58,-1.84,-68.18,-42.57,-0.91,0.25,-0.27,34.01,99.34,547.07,4.21,547.08,0
5812.61,-1.84,-68.18,-42.57,-0.91,0.25,-0.27,34.01,99.34,547.07,4.18,547.08,0
5812.66,-1.84,-68.18,-42.57,-0.91,0.25,-0.27,34.01,99.34,547.07,4.16,547.08,0
5812.69,-1.84,-68.18,-42.57,-0.91,0.25,-0.27,34.01,99.34,547.07,4.13,547.08,0
5812.73,-1.84,-68.18,-42.57,-0.91,0.25,-0.27,34.01,99.34,547.07,4.11,547.08,0
5812.77,-1.84,-68.18,-42.57,-0.91,0.25,-0.27,34.01,99.34,547.07,4.08,547.08,0
5812.80,-1.84,-68.18,-42.57,-0.91,0.25,-0.27,34.01,99.34,547.07,4.06,547.08,0
5812.83,-1.84,-68.18,-42.57,-0.91,0.25,-0.27,34.01,99.34,547.07,4.03,547.08,0
5812.87,-1.84,-68.18,-42.57,-0.91,0.25,-0.27,34.01,99.34,547.07,4.00,547.08,0
5812.92,-1.84,-68.18,-42.57,-0.91,0.25,-0.27,34.01,99.34,547.07,3.98,547.08,0
5812.95,-1.84,-68.18,-42.57,-0.91,0.25,-0.27,34.01,99.34,547.07,3.95,547.08,0
5812.98,-1.84,-68.18,-42.57,-0.91,0.25,-0.27,34.01,99.34,547.07,3.93,547.08,0
5813.01,-1.84,-68.18,-42.57,-0.91,0.25,-0.27,34.01,99.34,547.07,3.90,547.08,0
5813.05,-1.84,-68.18,-42.57,-0.91,0.25,-0.27,34.01,99.34,547.07,3.87,547.08,0
5813.08,-1.84,-68.18,-42.57,-0.91,0.25,-0.27,34.01,99.34,547.07,3.85,547.08,0
5813.12,-1.84,-68.18,-42.57,-0.91,0.25,-0.27,34.01,99.34,547.07,3.82,547.08,0
5813.22,-1.84,-68.18,-42.57,-0.91,0.25,-0.27,34.01,99.34,547.07,3.79,547.08,0
5813.26,-1.84,-68.18,-42.57,-0.91,0.25,-0.27,34.01,99.34,547.07,3.77,547.08,0
5813.47,-1.84,-68.18,-42.57,-0.91,0.25,-0.27,34.01,99.34,547.07,3.74,547.08,0
5813.58,-1.84,-68.18,-42.57,-0.91,0.25,-0.27,34.01,99.34,547.07,3.72,547.08,0
5813.62,-1.84,-68.18,-42.57,-0.91,0.25,-0.27,34.01,99.34,547.07,3.69,547.08,0
5813.66,-1.84,-68.18,-42.57,-0.91,0.25,-0.27,34.01,99.34,547.07,3.66,547.08,0
5813.70,-1.84,-68.18,-42.57,-0.91,0.25,-0.27,34.01,99.34,547.07,3.64,547.08,0
5813.75,-1.84,-68.18,-42.57,-0.91,0.25,-0.27,34.01,99.34,547.07,3.61,547.08,0
5813.79,-1.84,-68.18,-42.57,-0.91,0.25,-0.27,34.01,99.34,547.07,3.58,547.08,0
5813.83,-1.84,-68.18,-42.57,-0.91,0.25,-0.27,34.01,99.34,547.07,3.56,547.08,0
5813.88,-1.84,-68.18,-42.57,-0.91,0.25,-0.27,34.01,99.34,547.07,3.53,547.08,0
5813.93,-1.84,-68.18,-42.57,-0.91,0.25,-0.27,34.01,99.34,547.07,3.51,547.08,0
5813.98,-1.84,-68.18,-42.57,-0.91,0.25,-0.27,34.01,99.34,547.07,3.48,547.08,0
5814.14,-1.84,-68.18,-42.57,-0.91,0.25,-0.27,34.01,99.34,547.07,3.45,547.08,0
5814.18,-1.84,-68.18,-42.57,-0.91,0.25,-0.27,34.01,99.34,547.07,3.43,547.08,0
5814.22,-1.84,-68.18,-42.57,-0.91,0.25,-0.27,34.01,99.34,547.07,3.40,547.08,0
5814.28,-1.84,-68.18,-42.57,-0.91,0.25,-0.27,34.01,99.34,547.07,3.38,547.08,0
5814.33,-1.84,-68.18,-42.57,-0.91,0.25,-0.27,34.01,99.34,547.07,3.35,547.08,0
5814.38,-1.84,-68.18,-42.57,-0.91,0.25,-0.27,34.01,99.34,547.07,3.32,547.08,0
5814.44,-1.84,-68.18,-42.57,-0.91,0.25,-0.27,34.01,99.34,547.07,3.30,547.08,0
5814.51,-1.84,-68.18,-42.57,-0.91,0.25,-0.27,34.01,99.34,547.07,3.27,547.08,0
5814.56,-1.84,-68.18,-42.57,-0.91,0.25,-0.27,34.01,99.34,547.07,3.25,547.08,0
5814.63,-1.84,-68.18,-42.57,-0.91,0.25,-0.27,34.01,99.34,547.07,3.22,547.08,0
5814.69,-1.84,-68.18,-42.57,-0.91,0.25,-0.27,34.01,99.34,547.07,3.20,547.08,0
5814.74,-1.84,-68.18,-42.57,-0.91,0.25,-0.27,34.01,99.34,547.07,3.17,547.08,0
5814.79,-1.84,-68.18,-42.57,-0.91,0.25,-0.27,34.01,99.34,547.07,3.15,547.08,0
5814.82,-1.84,-68.18,-42.57,-0.91,0.25,-0.27,34.01,99.34,547.07,3.12,547.08,0
5814.86,-1.84,-68.18,-42.57,-0.91,0.25,-0.27,34.01,99.34,547.07,3.10,547.08,0
5814.90,-1.84,-68.18,-42.57,-0.91,0.25,-0.27,34.01,99.34,547.07,3.07,547.08,0
5814.93,-1.84,-68.18,-42.57,-0.91,0.25,-0.27,34.01,99.34,547.07,3.05,547.08,0
5814.97,-1.84,-68.18,-42.57,-0.91,0.25,-0.27,34.01,99.34,547.07,3.02,547.08,0
5815.01,-1.84,-68.18,-42.57,-0.91,0.25,-0.27,34.01,99.34,547.07,3.00,547.08,0
5815.05,-1.84,-68.18,-42.57,-0.91,0.25,-0.27,34.01,99.34,547.07,2.97,547.08,0
5815.08,-1.84,-68.18,-42.57,-0.91,0.25,-0.27,34.01,99.34,547.07,2.95,547.08,0
5815.12,-1.84,-68.18,-42.57,-0.91,0.25,-0.27,34.01,99.34,547.07,2.92,547.08,0
5815.16,-1.84,-68.18,-42.57,-0.91,0.25,-0.27,34.01,99.34,547.07,2.90,547.08,0
5815.20,-1.84,-68.18,-42.57,-0.91,0.25,-0.27,34.01,99.34,547.07,2.87,547.08,0
5815.24,-1.84,-68.18,-42.57,-0.91,0.25,-0.27,34.01,99.34,547.07,2.85,547.08,0
5815.28,-1.84,-68.18,-42.57,-0.92,0.25,-0.27,34.01,99.34,547.07,2.83,547.08,0
5815.32,-1.84,-68.18,-42.57,-0.93,0.25,-0.27,34.01,99.34,547.07,2.80,547.08,0
5815.36,-1.84,-68.17,-42.58,-0.93,0.25,-0.27,34.01,99.34,547.07,2.78,547.08,0
5815.41,-1.84,-68.17,-42.58,-0.92,0.25,-0.27,34.01,99.34,547.07,2.76,547.08,0
5815.47,-1.84,-68.17,-42.58,-0.92,0.25,-0.27,34.01,99.34,547.07,2.73,547.08,0
5815.50,-1.84,-68.17,-42.58,-0.92,0.25,-0.27,34.01,99.34,547.07,2.71,547.08,0
5815.54,-1.84,-68.17,-42.58,-0.92,0.25,-0.27,34.01,99.34,547.07,2.69,547.08,0
5815.58,-1.84,-68.17,-42.58,-0.92,0.25,-0.27,34.01,99.34,547.07,2.66,547.08,0
5815.62,-1.84,-68.17,-42.58,-0.92,0.25,-0.27,34.01,99.34,547.07,2.64,547.08,0
5815.65,-1.84,-68.17,-42.58,-0.92,0.25,-0.27,34.01,99.34,547.07,2.62,547.08,0
5815.68,-1.84,-68.17,-42.58,-0.92,0.25,-0.27,34.01,99.34,547.07,2.59,547.08,0
5815.72,-1.84,-68.17,-42.58,-0.92,0.25,-0.27,34.01,99.34,547.07,2.57,547.08,0
5815.77,-1.84,-68.17,-42.58,-0.92,0.25,-0.27,34.01,99.34,547.07,2.55,547.08,0
5815.80,-1.84,-68.17,-42.58,-0.92,0.25,-0.27,34.01,99.34,547.07,2.53,547.08,0
5815.83,-1.84,-68.17,-42.58,-0.92,0.25,-0.27,34.01,99.34,547.07,2.51,547.08,0
5815.87,-1.84,-68.17,-42.58,-0.92,0.25,-0.27,34.01,99.34,547.07,2.48,547.08,0
5815.90,-1.84,-68.17,-42.58,-0.92,0.25,-0.27,34.01,99.34,547.07,2.46,547.08,0
5815.93,-1.84,-68.17,-42.58,-0.92,0.25,-0.27,34.01,99.34,547.07,2.44,547.08,0
5815.97,-1.84,-68.17,-42.58,-0.92,0.25,-0.27,34.01,99.34,547.07,2.42,547.08,0
5816.01,-1.84,-68.17,-42.58,-0.92,0.25,-0.27,34.01,99.34,547.07,2.40,547.08,0
5816.05,-1.84,-68.17,-42.58,-0.92,0.25,-0.27,34.01,99.34,547.07,2.38,547.08,0
5816.08,-1.84,-68.17,-42.58,-0.92,0.25,-0.27,34.01,99.34,547.07,2.35,547.08,0
5816.11,-1.84,-68.17,-42.58,-0.92,0.25,-0.27,34.01,99.34,547.07,2.33,547.08,0
5816.15,-1.84,-68.17,-42.58,-0.92,0.25,-0.27,34.01,99.34,547.07,2.31,547.08,0
5816.19,-1.84,-68.17,-42.58,-0.92,0.25,-0.27,34.01,99.34,547.07,2.29,547.08,0
5816.22,-1.84,-68.17,-42.58,-0.92,0.25,-0.27,34.01,99.34,547.07,2.27,547.08,0
5816.26,-1.84,-68.17,-42.58,-0.92,0.25,-0.27,34.01,99.34,547.07,2.25,547.08,0
5816.29,-1.84,-68.17,-42.58,-0.92,0.25,-0.27,34.01,99.34,547.07,2.23,547.08,0
5816.33,-1.84,-68.17,-42.58,-0.92,0.25,-0.27,34.01,99.34,547.07,2.21,547.08,0
5816.38,-1.84,-68.17,-42.58,-0.92,0.25,-0.27,34.01,99.34,547.07,2.19,547.08,0
