Time,Yaw,Pitch,Roll,a_x,a_y,a_z,Temperature,Pressure,Altitude,kf_velocity,kf_altitude,triggerAltitudeAchieved
6236.094475,153.53,-7.43,1.15,-0.12,-0.02,-0.96,31.80,99.68,450.94,2.89,432.91,0
6236.104791,153.53,-7.43,1.16,-0.13,-0.02,-0.96,31.78,99.68,452.05,4.74,450.13,0
6236.114473,153.53,-7.42,1.16,-0.13,-0.02,-0.96,31.80,99.68,450.94,4.88,450.87,0
6236.124394,153.53,-7.43,1.16,-0.12,-0.02,-0.96,31.80,99.68,450.94,4.89,450.94,0
6236.134105,153.52,-7.43,1.16,-0.12,-0.02,-0.95,31.78,99.67,455.65,6.59,455.18,0
6236.143787,153.52,-7.43,1.16,-0.13,-0.02,-0.96,31.78,99.68,450.94,4.64,451.38,0
6236.153456,153.52,-7.42,1.16,-0.13,-0.02,-0.96,31.78,99.68,452.05,4.98,451.99,0
6236.163102,153.51,-7.42,1.16,-0.12,-0.02,-0.96,31.79,99.68,452.05,4.99,452.05,0
6236.172821,153.51,-7.42,1.16,-0.12,-0.02,-0.96,31.79,99.68,452.05,4.95,452.06,0
6236.182474,153.51,-7.42,1.16,-0.13,-0.02,-0.96,31.80,99.68,450.94,4.04,451.06,0
6236.192164,153.50,-7.42,1.16,-0.13,-0.02,-0.96,31.80,99.68,450.94,3.90,450.96,0
6236.201864,153.50,-7.42,1.16,-0.13,-0.02,-0.96,31.80,99.68,450.94,3.85,450.95,0
6236.211536,153.50,-7.42,1.16,-0.12,-0.02,-0.96,31.78,99.68,452.05,4.94,451.94,0
6236.221459,153.50,-7.42,1.16,-0.12,-0.02,-0.96,31.78,99.68,452.05,5.00,452.04,0
6236.231131,153.49,-7.42,1.16,-0.13,-0.02,-0.96,31.80,99.67,454.26,7.57,454.05,0
6236.241076,153.49,-7.42,1.16,-0.12,-0.02,-0.96,31.79,99.68,452.05,4.97,452.26,0
6236.250842,153.49,-7.42,1.16,-0.12,-0.02,-0.96,31.79,99.68,452.05,4.63,452.08,0
6236.260500,153.48,-7.42,1.16,-0.13,-0.02,-0.96,31.78,99.67,454.26,7.61,454.05,0
6236.275146,153.48,-7.42,1.16,-0.13,-0.02,-0.96,31.78,99.68,452.05,4.58,452.26,0
6236.284974,153.47,-7.42,1.16,-0.12,-0.02,-0.96,31.80,99.67,454.26,7.57,454.07,0
6236.294631,153.47,-7.42,1.16,-0.12,-0.02,-0.96,31.80,99.68,450.94,2.50,451.26,0
6236.304293,153.47,-7.42,1.16,-0.13,-0.02,-0.96,31.79,99.69,448.73,-1.69,448.99,0
6236.314015,153.46,-7.42,1.16,-0.13,-0.02,-0.96,31.78,99.68,452.05,3.54,451.75,0
6236.323745,153.46,-7.42,1.16,-0.13,-0.02,-0.96,31.78,99.68,452.05,4.02,452.02,0
6236.333394,153.45,-7.42,1.16,-0.13,-0.02,-0.96,31.78,99.68,452.05,3.99,452.05,0
6236.343045,153.45,-7.42,1.16,-0.13,-0.02,-0.96,31.80,99.68,450.94,1.86,451.06,0
6236.352707,153.45,-7.42,1.16,-0.13,-0.02,-0.96,31.80,99.67,454.26,7.94,453.95,0
6236.362391,153.45,-7.42,1.16,-0.12,-0.02,-0.96,31.80,99.68,450.94,1.92,451.25,0
6236.372083,153.45,-7.42,1.16,-0.12,-0.02,-0.96,31.80,99.68,450.94,1.27,450.98,0
6236.381766,153.44,-7.42,1.16,-0.13,-0.02,-0.96,31.79,99.68,452.05,3.43,451.95,0
6236.391414,153.44,-7.42,1.16,-0.13,-0.02,-0.96,31.80,99.70,447.62,-5.63,448.05,0
6236.401197,153.44,-7.42,1.16,-0.13,-0.02,-0.96,31.80,99.70,447.62,-6.42,447.66,0
6236.410857,153.43,-7.42,1.16,-0.12,-0.02,-0.96,31.80,99.67,454.26,7.96,453.61,0
6236.420529,153.43,-7.42,1.16,-0.12,-0.02,-0.96,31.80,99.67,454.26,9.22,454.21,0
6236.430373,153.43,-7.42,1.15,-0.13,-0.02,-0.96,31.80,99.68,450.94,1.76,451.28,0
6236.445094,153.43,-7.42,1.15,-0.12,-0.02,-0.96,31.80,99.68,450.94,0.97,450.98,0
6236.454747,153.43,-7.42,1.16,-0.12,-0.02,-0.96,31.82,99.69,449.84,-1.66,449.95,0
6236.464421,153.42,-7.42,1.16,-0.13,-0.02,-0.96,31.80,99.68,450.94,0.68,450.85,0
6236.474104,153.42,-7.42,1.16,-0.13,-0.02,-0.96,31.80,99.68,450.94,0.90,450.94,0
6236.483894,153.42,-7.42,1.15,-0.12,-0.02,-0.96,31.78,99.69,448.73,-4.34,448.95,0
6236.493634,153.41,-7.42,1.15,-0.13,-0.02,-0.96,31.80,99.68,450.94,0.53,450.74,0
6236.503366,153.41,-7.42,1.15,-0.13,-0.02,-0.96,31.78,99.68,450.94,1.00,450.93,0
6236.513239,153.41,-7.42,1.15,-0.13,-0.02,-0.96,31.80,99.68,450.94,1.03,450.94,0
6236.523009,153.41,-7.42,1.15,-0.13,-0.02,-0.96,31.80,99.68,450.94,1.00,450.95,0
6236.532696,153.40,-7.42,1.15,-0.13,-0.02,-0.96,31.80,99.67,454.26,9.21,453.94,0
6236.542395,153.40,-7.42,1.15,-0.13,-0.02,-0.96,31.80,99.68,450.94,1.50,451.25,0
6236.552092,153.40,-7.42,1.15,-0.13,-0.02,-0.96,31.80,99.68,450.94,0.70,450.98,0
6236.561797,153.39,-7.42,1.15,-0.12,-0.02,-0.96,31.80,99.68,450.94,0.60,450.95,0
6236.571514,153.39,-7.42,1.15,-0.12,-0.02,-0.96,31.80,99.68,450.94,0.58,450.95,0
6236.581165,153.39,-7.42,1.15,-0.13,-0.02,-0.96,31.78,99.68,450.94,0.56,450.95,0
6236.590911,153.39,-7.42,1.15,-0.12,-0.02,-0.96,31.80,99.70,447.62,-8.01,447.95,0
6236.600581,153.39,-7.42,1.15,-0.12,-0.02,-0.96,31.80,99.70,447.62,-8.65,447.65,0
6236.610530,153.38,-7.42,1.15,-0.13,-0.02,-0.96,31.78,99.68,452.05,3.03,451.61,0
6236.625130,153.38,-7.42,1.15,-0.13,-0.02,-0.96,31.80,99.68,450.94,1.21,451.01,0
6236.634835,153.38,-7.42,1.15,-0.12,-0.02,-0.96,31.80,99.68,450.94,1.00,450.95,0
6236.644637,153.37,-7.42,1.15,-0.12,-0.02,-0.96,31.78,99.70,447.62,-7.79,447.95,0
6236.654379,153.37,-7.42,1.15,-0.13,-0.02,-0.96,31.80,99.68,450.94,0.32,450.64,0
6236.664041,153.37,-7.42,1.15,-0.13,-0.02,-0.96,31.80,99.68,450.94,1.12,450.92,0
6236.673695,153.37,-7.42,1.15,-0.13,-0.02,-0.96,31.80,99.68,450.94,1.16,450.94,0
6236.683338,153.36,-7.42,1.15,-0.12,-0.02,-0.96,31.79,99.68,452.05,4.09,451.94,0
6236.693104,153.36,-7.42,1.15,-0.13,-0.02,-0.96,31.80,99.70,447.62,-7.58,448.05,0
6236.702747,153.36,-7.42,1.15,-0.13,-0.02,-0.96,31.78,99.68,450.94,0.39,450.65,0
6236.712415,153.36,-7.42,1.16,-0.12,-0.02,-0.96,31.80,99.70,447.62,-7.78,447.92,0
6236.722126,153.36,-7.42,1.16,-0.12,-0.02,-0.96,31.80,99.70,447.62,-8.37,447.65,0
6236.731802,153.35,-7.42,1.15,-0.13,-0.02,-0.96,31.78,99.68,452.05,3.77,451.61,0
6236.741442,153.35,-7.42,1.15,-0.13,-0.02,-0.96,31.78,99.67,454.26,10.86,454.01,0
6236.751103,153.35,-7.42,1.15,-0.13,-0.02,-0.96,31.78,99.67,454.26,11.26,454.25,0
6236.760750,153.35,-7.42,1.15,-0.13,-0.02,-0.96,31.80,99.68,450.94,1.96,451.28,0
6236.770413,153.35,-7.42,1.15,-0.13,-0.02,-0.96,31.80,99.68,450.94,0.99,450.98,0
6236.785150,153.34,-7.42,1.15,-0.12,-0.02,-0.96,31.80,99.68,450.94,0.87,450.95,0
6236.794800,153.34,-7.42,1.15,-0.12,-0.02,-0.96,31.78,99.67,455.65,13.69,455.19,0
6236.804491,153.34,-7.42,1.15,-0.12,-0.02,-0.96,31.80,99.68,450.94,1.70,451.37,0
6236.814143,153.34,-7.42,1.15,-0.13,-0.02,-0.96,31.80,99.68,450.94,0.48,450.99,0
6236.823803,153.34,-7.42,1.15,-0.13,-0.02,-0.96,31.80,99.68,450.94,0.35,450.95,0
6236.833513,153.33,-7.42,1.15,-0.12,-0.02,-0.96,31.78,99.69,448.73,-5.76,448.95,0
6236.843180,153.33,-7.42,1.15,-0.13,-0.02,-0.96,31.80,99.68,450.94,-0.11,450.74,0
6236.852953,153.33,-7.42,1.15,-0.13,-0.02,-0.96,31.78,99.68,452.05,3.49,451.92,0
6236.862605,153.32,-7.42,1.15,-0.12,-0.02,-0.96,31.80,99.68,450.94,0.70,451.04,0
6236.872649,153.32,-7.42,1.15,-0.12,-0.02,-0.96,31.80,99.68,450.94,0.41,450.95,0
6236.882342,153.32,-7.42,1.15,-0.13,-0.02,-0.96,31.79,99.67,455.65,13.35,455.19,0
6236.892057,153.32,-7.42,1.15,-0.13,-0.02,-0.96,31.80,99.68,450.94,1.26,451.37,0
6236.901802,153.32,-7.42,1.15,-0.13,-0.02,-0.96,31.80,99.68,450.94,0.04,450.99,0
6236.911509,153.31,-7.42,1.15,-0.12,-0.02,-0.96,31.80,99.67,454.26,9.10,453.94,0
6236.921167,153.31,-7.42,1.15,-0.12,-0.02,-0.96,31.80,99.67,454.26,9.74,454.24,0
6236.930855,153.30,-7.42,1.15,-0.13,-0.02,-0.96,31.80,99.68,450.94,0.33,451.28,0
6236.940559,153.30,-7.42,1.15,-0.12,-0.02,-0.96,31.80,99.70,447.62,-9.80,447.98,0
6236.955130,153.30,-7.42,1.16,-0.12,-0.02,-0.96,31.80,99.68,450.94,-1.31,450.64,0
6236.960354,153.29,-7.42,1.15,-0.13,-0.02,-0.96,31.80,99.68,450.94,-0.45,450.91,0
6236.970381,153.29,-7.42,1.15,-0.13,-0.02,-0.96,31.80,99.68,450.94,-0.35,450.94,0
6236.985115,153.29,-7.42,1.15,-0.12,-0.02,-0.96,31.79,99.68,452.05,2.74,451.94,0
6236.994789,153.29,-7.42,1.16,-0.12,-0.02,-0.96,31.80,99.67,454.26,9.12,454.04,0
6237.004619,153.29,-7.42,1.16,-0.13,-0.02,-0.96,31.80,99.68,450.94,0.26,451.26,0
6237.014348,153.28,-7.42,1.15,-0.13,-0.02,-0.96,31.80,99.68,450.94,-0.61,450.98,0
6237.024028,153.28,-7.42,1.15,-0.13,-0.02,-0.96,31.80,99.68,450.94,-0.68,450.95,0
6237.033674,153.28,-7.42,1.16,-0.12,-0.02,-0.96,31.80,99.70,447.62,-9.91,447.95,0
6237.043356,153.27,-7.42,1.15,-0.13,-0.02,-0.96,31.80,99.68,450.94,-1.29,450.64,0
6237.053096,153.27,-7.42,1.15,-0.12,-0.02,-0.96,31.78,99.68,452.05,2.67,451.91,0
6237.062809,153.27,-7.42,1.15,-0.12,-0.02,-0.96,31.80,99.68,450.94,-0.10,451.04,0
6237.072483,153.27,-7.42,1.15,-0.12,-0.02,-0.96,31.80,99.68,450.94,-0.37,450.95,0
6237.082184,153.27,-7.42,1.15,-0.13,-0.02,-0.96,31.79,99.68,452.05,2.70,451.94,0
6237.091940,153.26,-7.42,1.15,-0.13,-0.02,-0.96,31.80,99.68,450.94,-0.16,451.04,0
6237.101604,153.26,-7.42,1.15,-0.13,-0.02,-0.96,31.80,99.68,450.94,-0.44,450.95,0
6237.111380,153.26,-7.42,1.16,-0.13,-0.02,-0.96,31.80,99.68,450.94,-0.45,450.95,0
6237.121263,153.26,-7.42,1.16,-0.13,-0.02,-0.96,31.80,99.68,450.94,-0.44,450.94,0
6237.130942,153.25,-7.42,1.15,-0.13,-0.02,-0.96,31.80,99.68,450.94,-0.43,450.94,0
6237.140684,153.25,-7.42,1.15,-0.12,-0.02,-0.96,31.80,99.68,450.94,-0.41,450.94,0
6237.150391,153.25,-7.42,1.15,-0.12,-0.02,-0.96,31.80,99.68,450.94,-0.40,450.94,0
6237.160492,153.25,-7.42,1.15,-0.13,-0.02,-0.96,31.80,99.70,447.62,-9.66,447.95,0
6237.170398,153.25,-7.42,1.15,-0.13,-0.02,-0.96,31.80,99.70,447.62,-10.29,447.65,0
6237.180319,153.24,-7.42,1.15,-0.12,-0.02,-0.96,31.80,99.68,450.94,-0.80,450.61,0
6237.190368,153.24,-7.42,1.15,-0.13,-0.02,-0.96,31.78,99.68,452.05,3.24,451.91,0
6237.200324,153.24,-7.42,1.15,-0.13,-0.02,-0.96,31.78,99.68,452.05,3.55,452.04,0
6237.210557,153.24,-7.42,1.15,-0.12,-0.02,-0.96,31.78,99.68,452.05,3.48,452.05,0
6237.220465,153.24,-7.42,1.15,-0.12,-0.02,-0.96,31.78,99.68,452.05,3.38,452.05,0
6237.230280,153.23,-7.42,1.15,-0.13,-0.02,-0.96,31.80,99.68,450.94,0.18,451.06,0
6237.240334,153.23,-7.42,1.15,-0.13,-0.02,-0.96,31.78,99.70,447.62,-9.41,447.96,0
6237.250391,153.23,-7.42,1.15,-0.13,-0.02,-0.96,31.78,99.70,447.62,-10.09,447.65,0
6237.265142,153.23,-7.42,1.15,-0.12,-0.02,-0.96,31.80,99.67,454.26,8.68,453.61,0
6237.274788,153.22,-7.42,1.15,-0.13,-0.02,-0.96,31.78,99.67,455.65,14.14,455.46,0
6237.284481,153.22,-7.42,1.15,-0.13,-0.02,-0.96,31.80,99.68,450.94,1.14,451.40,0
6237.294126,153.22,-7.42,1.15,-0.12,-0.02,-0.96,31.78,99.67,455.65,12.98,455.23,0
6237.303884,153.21,-7.42,1.15,-0.12,-0.02,-0.96,31.80,99.68,450.94,0.63,451.38,0
6237.313552,153.21,-7.42,1.15,-0.13,-0.02,-0.96,31.80,99.68,450.94,-0.60,450.99,0
6237.323213,153.21,-7.42,1.15,-0.13,-0.02,-0.96,31.80,99.68,450.94,-0.70,450.95,0
6237.332898,153.21,-7.42,1.15,-0.12,-0.02,-0.96,31.80,99.70,447.62,-9.98,447.95,0
6237.342559,153.21,-7.42,1.16,-0.12,-0.02,-0.96,31.80,99.70,447.62,-10.60,447.65,0
6237.352224,153.21,-7.42,1.16,-0.12,-0.02,-0.96,31.80,99.70,447.62,-10.37,447.62,0
6237.361876,153.20,-7.42,1.16,-0.13,-0.02,-0.96,31.80,99.67,454.26,8.51,453.60,0
6237.371558,153.20,-7.42,1.16,-0.13,-0.02,-0.96,31.80,99.67,454.26,10.12,454.21,0
6237.381227,153.20,-7.42,1.15,-0.12,-0.02,-0.96,31.80,99.68,450.94,0.71,451.27,0
6237.390875,153.20,-7.42,1.15,-0.13,-0.02,-0.96,31.80,99.68,450.94,-0.23,450.98,0
6237.400563,153.20,-7.42,1.15,-0.13,-0.02,-0.96,31.80,99.68,450.94,-0.32,450.95,0
6237.415047,153.19,-7.43,1.15,-0.12,-0.02,-0.96,31.80,99.68,450.94,-0.31,450.94,0
6237.424722,153.19,-7.42,1.16,-0.12,-0.02,-0.96,31.80,99.67,454.26,8.98,453.94,0
6237.434368,153.19,-7.42,1.16,-0.13,-0.01,-0.96,31.80,99.67,454.26,9.64,454.24,0
6237.444025,153.19,-7.42,1.15,-0.13,-0.02,-0.96,31.80,99.68,450.94,0.15,451.28,0
6237.453676,153.19,-7.43,1.16,-0.12,-0.02,-0.96,31.80,99.67,454.26,8.50,453.97,0
6237.463373,153.19,-7.43,1.15,-0.12,-0.02,-0.96,31.80,99.68,450.94,-0.21,451.25,0
6237.473082,153.19,-7.43,1.15,-0.12,-0.02,-0.96,31.80,99.68,450.94,-1.05,450.97,0
6237.482746,153.18,-7.42,1.15,-0.13,-0.02,-0.96,31.79,99.68,452.05,1.99,451.94,0
6237.492422,153.18,-7.43,1.15,-0.12,-0.02,-0.95,31.80,99.67,454.26,8.42,454.04,0
6237.502070,153.18,-7.43,1.15,-0.12,-0.02,-0.95,31.80,99.67,454.26,8.82,454.25,0
6237.511718,153.17,-7.42,1.16,-0.13,-0.02,-0.96,31.80,99.68,450.94,-0.68,451.28,0
6237.521385,153.17,-7.42,1.16,-0.13,-0.02,-0.96,31.80,99.68,450.94,-1.59,450.98,0
6237.531061,153.17,-7.43,1.16,-0.12,-0.02,-0.95,31.80,99.68,450.94,-1.63,450.95,0
6237.540710,153.17,-7.43,1.16,-0.13,-0.02,-0.96,31.79,99.68,452.05,1.50,451.94,0
6237.550352,153.17,-7.43,1.16,-0.13,-0.02,-0.96,31.79,99.68,452.05,1.77,452.04,0
6237.565133,153.16,-7.43,1.15,-0.12,-0.02,-0.96,31.80,99.70,447.62,-10.64,448.06,0
6237.574782,153.16,-7.43,1.15,-0.12,-0.02,-0.96,31.80,99.68,450.94,-2.27,450.65,0
6237.584431,153.15,-7.43,1.15,-0.13,-0.02,-0.96,31.80,99.68,450.94,-1.38,450.91,0
6237.594128,153.15,-7.42,1.16,-0.13,-0.02,-0.96,31.81,99.70,447.62,-10.55,447.95,0
6237.603844,153.15,-7.43,1.16,-0.12,-0.02,-0.96,31.79,99.68,452.05,1.23,451.64,0
6237.613498,153.15,-7.43,1.15,-0.12,-0.02,-0.96,31.78,99.68,452.05,2.35,452.01,0
6237.623146,153.15,-7.43,1.15,-0.12,-0.02,-0.96,31.78,99.68,452.05,2.40,452.05,0
6237.632813,153.14,-7.43,1.16,-0.13,-0.02,-0.95,31.80,99.67,454.26,8.53,454.05,0
6237.642487,153.14,-7.42,1.16,-0.13,-0.02,-0.96,31.78,99.67,455.65,12.76,455.50,0
6237.652148,153.14,-7.42,1.16,-0.13,-0.02,-0.96,31.78,99.67,455.65,12.81,455.65,0
6237.661804,153.13,-7.43,1.15,-0.13,-0.02,-0.95,31.79,99.67,455.65,12.46,455.66,0
6237.671535,153.13,-7.43,1.15,-0.13,-0.02,-0.95,31.79,99.67,455.65,12.08,455.66,0
6237.681211,153.13,-7.43,1.15,-0.12,-0.02,-0.97,31.80,99.65,461.18,27.19,460.65,0
6237.690854,153.12,-7.43,1.15,-0.12,-0.02,-0.96,31.78,99.66,458.97,21.71,459.16,0
6237.700534,153.12,-7.43,1.15,-0.12,-0.02,-0.96,31.78,99.66,458.97,20.57,459.01,0
6237.710366,153.12,-7.42,1.16,-0.13,-0.02,-0.95,31.80,99.64,464.50,35.37,463.99,0
6237.720385,153.12,-7.42,1.16,-0.13,-0.02,-0.95,31.80,99.64,464.50,35.83,464.49,0
6237.735150,153.11,-7.43,1.15,-0.12,-0.02,-0.97,31.80,99.61,471.42,54.23,470.78,0
6237.744792,153.11,-7.43,1.15,-0.13,-0.01,-0.96,31.80,99.59,478.06,73.10,477.40,0
6237.754441,153.11,-7.43,1.15,-0.13,-0.02,-0.96,31.80,99.59,478.06,72.91,478.07,0
6237.764084,153.11,-7.43,1.15,-0.12,-0.02,-0.95,31.80,99.56,484.99,90.22,484.38,0
6237.773802,153.11,-7.43,1.15,-0.12,-0.02,-0.95,31.80,99.56,484.99,89.39,485.02,0
6237.783505,153.10,-7.43,1.15,-0.13,-0.02,-0.96,31.79,99.52,496.34,118.58,495.32,0
6237.793176,153.10,-7.43,1.15,-0.13,-0.02,-0.97,31.80,99.51,498.56,124.32,498.36,0
6237.802815,153.10,-7.43,1.15,-0.12,-0.02,-0.96,31.80,99.46,512.13,159.39,510.91,0
6237.812453,153.10,-7.43,1.15,-0.12,-0.02,-0.95,31.80,99.48,508.81,149.06,509.17,0
6237.822123,153.10,-7.43,1.15,-0.12,-0.02,-0.95,31.80,99.48,508.81,143.87,508.99,0
6237.831833,153.09,-7.43,1.15,-0.13,-0.02,-0.96,31.80,99.41,525.72,186.66,524.22,0
6237.841521,153.09,-7.43,1.15,-0.12,-0.02,-0.96,31.80,99.39,532.65,205.01,532.00,0
6237.851168,153.09,-7.43,1.15,-0.12,-0.02,-0.96,31.80,99.39,532.65,201.07,532.78,0
6237.860837,153.09,-7.43,1.15,-0.13,-0.02,-0.96,31.80,99.33,549.57,242.41,548.12,0
6237.870498,153.09,-7.43,1.15,-0.13,-0.02,-0.96,31.80,99.33,549.57,239.67,549.66,0
6237.880467,153.08,-7.43,1.15,-0.12,-0.02,-0.96,31.80,99.28,563.16,270.74,562.08,0
6237.895062,153.08,-7.43,1.15,-0.12,-0.02,-0.96,31.80,99.24,573.43,294.95,572.59,0
6237.904726,153.08,-7.43,1.15,-0.13,-0.02,-0.96,31.79,99.20,584.82,320.92,583.91,0
6237.914387,153.07,-7.43,1.15,-0.12,-0.02,-0.96,31.80,99.18,590.37,330.02,590.05,0
6237.924163,153.07,-7.43,1.15,-0.12,-0.02,-0.96,31.80,99.18,590.37,321.68,590.66,1
6237.933893,153.06,-7.43,1.15,-0.13,-0.02,-0.97,31.78,99.12,608.71,363.18,607.26,1
6237.943588,153.06,-7.43,1.15,-0.13,-0.02,-0.96,31.80,99.08,617.88,382.74,617.20,1
6237.953358,153.06,-7.43,1.15,-0.13,-0.02,-0.95,31.80,99.05,627.89,401.96,627.22,1
6237.963114,153.06,-7.43,1.15,-0.12,-0.02,-0.96,31.80,99.01,638.18,421.39,637.50,1
6237.972962,153.06,-7.43,1.15,-0.12,-0.02,-0.96,31.80,99.01,638.18,411.50,638.53,1
6237.982642,153.05,-7.43,1.15,-0.13,-0.02,-0.96,31.80,98.94,658.77,456.63,657.19,1
6237.992303,153.05,-7.43,1.15,-0.12,-0.02,-0.95,31.80,98.90,669.07,477.09,668.35,1
6238.002155,153.05,-7.43,1.15,-0.12,-0.02,-0.95,31.80,98.90,669.07,465.74,669.47,1
6238.011910,153.04,-7.43,1.15,-0.13,-0.02,-0.97,31.80,98.84,686.06,499.13,684.89,1
6238.021645,153.04,-7.43,1.15,-0.13,-0.02,-0.97,31.80,98.84,686.06,488.43,686.43,1
6238.031319,153.04,-7.43,1.15,-0.12,-0.02,-0.95,31.80,98.76,706.67,531.41,705.17,1
6238.040970,153.03,-7.43,1.15,-0.12,-0.02,-0.95,31.78,98.71,720.33,558.98,719.37,1
6238.050837,153.03,-7.43,1.15,-0.12,-0.02,-0.95,31.78,98.71,720.33,546.03,720.79,1
6238.066185,153.03,-7.43,1.15,-0.13,-0.02,-0.97,31.79,98.62,745.44,599.73,743.56,1
6238.071132,153.03,-7.43,1.15,-0.13,-0.02,-0.97,31.79,98.62,745.44,588.20,745.84,1
6238.081109,153.02,-7.43,1.15,-0.12,-0.02,-0.96,31.80,98.56,764.70,624.51,763.43,1
6238.091130,153.02,-7.43,1.15,-0.13,-0.02,-0.96,31.80,98.51,778.38,648.88,777.53,1
6238.100930,153.02,-7.43,1.15,-0.13,-0.02,-0.96,31.80,98.51,778.38,633.11,778.93,1
6238.110615,153.01,-7.43,1.15,-0.12,-0.02,-0.97,31.80,98.44,795.70,662.31,794.68,1
6238.120422,153.01,-7.43,1.15,-0.12,-0.02,-0.97,31.80,98.44,795.70,646.64,796.25,1
6238.131167,153.01,-7.43,1.15,-0.13,-0.02,-0.95,31.78,98.35,820.86,697.42,819.08,1
6238.140904,153.00,-7.43,1.15,-0.13,-0.02,-0.95,31.79,98.31,834.56,721.22,833.73,1
6238.150633,153.00,-7.43,1.15,-0.13,-0.02,-0.95,31.79,98.31,834.56,703.37,835.19,1
6238.160359,153.00,-7.43,1.15,-0.12,-0.02,-0.96,31.79,98.21,861.99,758.69,860.06,1
6238.175077,152.99,-7.43,1.15,-0.13,-0.02,-0.96,31.80,98.19,867.59,758.55,867.60,1
6238.184943,152.99,-7.43,1.15,-0.13,-0.02,-0.96,31.80,98.13,884.96,785.90,884.00,1
6238.194692,152.99,-7.43,1.15,-0.12,-0.02,-0.96,31.78,98.08,896.45,798.74,896.00,1
6238.204693,152.98,-7.43,1.15,-0.12,-0.02,-0.96,31.80,98.05,905.70,803.54,905.53,1
6238.214365,152.98,-7.43,1.15,-0.13,-0.02,-0.96,31.80,98.02,915.79,809.76,915.58,1
6238.224063,152.98,-7.43,1.15,-0.13,-0.02,-0.96,31.80,98.02,915.79,787.71,916.56,1
6238.233734,152.97,-7.43,1.15,-0.12,-0.02,-0.96,31.80,97.94,936.55,821.60,935.37,1
6238.243670,152.97,-7.43,1.15,-0.12,-0.02,-0.96,31.80,97.88,953.67,849.84,952.69,1
6238.253416,152.97,-7.43,1.16,-0.13,-0.02,-0.96,31.80,97.87,957.32,839.03,957.70,1
6238.263101,152.96,-7.43,1.15,-0.13,-0.02,-0.96,31.78,97.79,977.83,871.87,976.68,1
6238.272750,152.96,-7.43,1.15,-0.13,-0.02,-0.96,31.78,97.79,977.83,850.69,978.57,1
6238.282398,152.96,-7.43,1.15,-0.12,-0.02,-0.95,31.80,97.71,1002.00,892.44,1000.53,1
6238.292151,152.96,-7.43,1.15,-0.13,-0.02,-0.96,31.80,97.67,1012.40,900.67,1012.11,1
6238.301803,152.96,-7.43,1.15,-0.13,-0.02,-0.96,31.80,97.67,1012.40,876.27,1013.25,1
6238.311539,152.95,-7.43,1.15,-0.12,-0.02,-0.96,31.78,97.58,1037.72,920.22,1036.18,1
6238.321228,152.95,-7.43,1.15,-0.12,-0.02,-0.96,31.78,97.58,1037.72,898.77,1038.47,1
6238.330876,152.95,-7.43,1.15,-0.13,-0.02,-0.96,31.80,97.51,1057.43,926.67,1056.45,1
6238.340543,152.94,-7.43,1.15,-0.12,-0.02,-0.96,31.80,97.45,1074.61,951.55,1073.74,1
6238.355204,152.94,-7.43,1.15,-0.12,-0.02,-0.96,31.80,97.43,1081.37,946.28,1081.56,1
6238.364857,152.94,-7.43,1.15,-0.12,-0.02,-0.96,31.80,97.38,1095.46,958.72,1095.03,1
6238.374521,152.94,-7.43,1.15,-0.13,-0.02,-0.96,31.80,97.34,1105.62,961.52,1105.52,1
6238.384186,152.93,-7.43,1.15,-0.12,-0.02,-0.95,31.80,97.28,1123.10,983.82,1122.32,1
6238.393852,152.93,-7.43,1.15,-0.12,-0.02,-0.96,31.78,97.25,1131.01,980.59,1131.12,1
6238.403750,152.93,-7.43,1.15,-0.13,-0.02,-0.96,31.79,97.20,1144.84,991.54,1144.45,1
6238.413412,152.93,-7.43,1.15,-0.13,-0.02,-0.96,31.80,97.17,1154.16,990.94,1154.18,1
6238.423102,152.93,-7.43,1.15,-0.13,-0.02,-0.96,31.80,97.17,1154.16,963.15,1155.13,1
6238.432778,152.92,-7.43,1.15,-0.12,-0.02,-0.96,31.78,97.09,1176.19,995.14,1175.07,1
6238.442480,152.92,-7.43,1.15,-0.13,-0.02,-0.96,31.80,97.05,1188.91,1006.01,1188.53,1
6238.452324,152.92,-7.43,1.15,-0.13,-0.02,-0.96,31.80,97.01,1199.37,1008.20,1199.30,1
6238.462031,152.92,-7.43,1.15,-0.12,-0.02,-0.96,31.78,96.96,1213.23,1018.99,1212.85,1
6238.471697,152.92,-7.43,1.15,-0.12,-0.02,-0.96,31.78,96.96,1213.23,991.53,1214.19,1
6238.481350,152.91,-7.43,1.15,-0.13,-0.02,-0.96,31.80,96.89,1233.89,1018.91,1232.93,1
6238.491064,152.91,-7.43,1.15,-0.13,-0.02,-0.96,31.80,96.86,1240.97,1012.87,1241.18,1
6238.500768,152.91,-7.43,1.15,-0.13,-0.02,-0.96,31.80,96.86,1240.97,983.94,1241.98,1
6238.510525,152.90,-7.43,1.15,-0.12,-0.02,-0.96,31.80,96.76,1268.72,1031.25,1267.07,1
6238.520766,152.90,-7.43,1.15,-0.12,-0.02,-0.96,31.80,96.76,1268.72,1007.02,1269.57,1
6238.530467,152.90,-7.43,1.15,-0.13,-0.02,-0.96,31.80,96.70,1286.30,1025.65,1285.65,1
6238.540480,152.89,-7.43,1.15,-0.12,-0.02,-0.96,31.80,96.65,1300.19,1037.65,1299.77,1
6238.550838,152.89,-7.43,1.15,-0.12,-0.02,-0.96,31.80,96.65,1300.19,1009.79,1301.17,1
6238.560488,152.89,-7.43,1.15,-0.13,-0.02,-0.96,31.80,96.57,1324.60,1047.10,1323.29,1
6238.575070,152.88,-7.43,1.15,-0.13,-0.02,-0.96,31.80,96.55,1328.00,1030.98,1328.57,1
6238.584735,152.88,-7.43,1.15,-0.12,-0.02,-0.96,31.80,96.49,1345.32,1049.02,1344.69,1
6238.594447,152.88,-7.43,1.15,-0.12,-0.02,-0.96,31.80,96.47,1352.42,1041.30,1352.69,1
6238.604170,152.88,-7.43,1.15,-0.13,-0.02,-0.96,31.79,96.42,1367.48,1053.55,1367.05,1
6238.613810,152.88,-7.43,1.15,-0.13,-0.02,-0.96,31.80,96.38,1376.86,1051.51,1376.93,1
6238.623481,152.88,-7.43,1.15,-0.13,-0.02,-0.96,31.80,96.38,1376.86,1021.88,1377.90,1
6238.633153,152.87,-7.43,1.15,-0.12,-0.02,-0.96,31.80,96.31,1397.62,1048.48,1396.69,1
6238.642825,152.87,-7.43,1.15,-0.13,-0.02,-0.96,31.78,96.27,1408.15,1051.20,1408.05,1
6238.652468,152.87,-7.43,1.15,-0.13,-0.02,-0.96,31.80,96.24,1418.67,1051.51,1418.66,1
6238.662150,152.87,-7.43,1.15,-0.12,-0.02,-0.96,31.80,96.20,1429.21,1051.59,1429.21,1
6238.671873,152.87,-7.43,1.15,-0.12,-0.02,-0.96,31.80,96.20,1429.21,1022.17,1430.24,1
6238.681583,152.86,-7.43,1.15,-0.13,-0.02,-0.96,31.78,96.11,1453.70,1059.23,1452.41,1
6238.691256,152.86,-7.43,1.15,-0.13,-0.02,-0.96,31.80,96.08,1464.25,1062.72,1464.12,1
6238.700900,152.86,-7.43,1.15,-0.13,-0.02,-0.96,31.80,96.08,1464.25,1033.33,1465.27,1
6238.710590,152.86,-7.43,1.15,-0.12,-0.02,-0.96,31.80,95.99,1488.48,1069.35,1487.22,1
6238.720355,152.86,-7.43,1.15,-0.12,-0.02,-0.96,31.80,95.99,1488.48,1042.95,1489.40,1
6238.730336,152.85,-7.43,1.15,-0.13,-0.02,-0.96,31.80,95.93,1506.17,1060.68,1505.55,1
6238.745418,152.85,-7.43,1.15,-0.12,-0.02,-0.96,31.80,95.87,1523.58,1081.46,1522.85,1
6238.755072,152.84,-7.43,1.15,-0.12,-0.02,-0.95,31.80,95.84,1530.72,1073.20,1531.01,1
6238.764736,152.84,-7.43,1.15,-0.13,-0.02,-0.96,31.80,95.81,1541.29,1071.93,1541.33,1
6238.774419,152.84,-7.43,1.15,-0.13,-0.02,-0.96,31.78,95.77,1552.71,1073.79,1552.65,1
6238.784076,152.84,-7.43,1.15,-0.12,-0.02,-0.96,31.80,95.71,1569.29,1090.32,1568.72,1
6238.793762,152.84,-7.43,1.15,-0.12,-0.02,-0.96,31.80,95.70,1572.72,1071.03,1573.40,1
6238.803434,152.84,-7.43,1.15,-0.13,-0.02,-0.96,31.79,95.63,1591.31,1091.19,1590.61,1
6238.813116,152.83,-7.43,1.15,-0.13,-0.02,-0.96,31.78,95.61,1598.47,1082.65,1598.77,1
6238.822788,152.83,-7.43,1.15,-0.13,-0.02,-0.96,31.78,95.61,1598.47,1051.51,1599.56,1
6238.832437,152.83,-7.43,1.15,-0.13,-0.02,-0.96,31.80,95.52,1621.94,1084.72,1620.78,1
6238.842121,152.83,-7.43,1.15,-0.13,-0.02,-0.96,31.80,95.49,1632.53,1087.27,1632.45,1
6238.851782,152.83,-7.43,1.15,-0.13,-0.02,-0.96,31.80,95.49,1632.53,1057.09,1633.59,1
6238.861499,152.82,-7.43,1.15,-0.12,-0.02,-0.96,31.79,95.41,1654.60,1086.30,1653.58,1
6238.871148,152.82,-7.43,1.15,-0.12,-0.02,-0.96,31.79,95.41,1654.60,1058.76,1655.56,1
6238.880813,152.82,-7.43,1.15,-0.13,-0.02,-0.96,31.80,95.33,1676.96,1089.02,1675.90,1
6238.890491,152.82,-7.43,1.15,-0.12,-0.02,-0.96,31.80,95.29,1688.72,1094.42,1688.53,1
6238.905057,152.81,-7.43,1.15,-0.12,-0.02,-0.96,31.78,95.25,1700.49,1097.24,1700.39,1
6238.914754,152.81,-7.43,1.15,-0.13,-0.02,-0.96,31.80,95.22,1709.96,1093.32,1710.10,1
6238.924451,152.81,-7.43,1.15,-0.13,-0.02,-0.96,31.80,95.18,1720.30,1091.27,1720.37,1
6238.934090,152.80,-7.43,1.15,-0.12,-0.02,-0.96,31.80,95.14,1730.92,1090.27,1730.96,1
6238.943790,152.80,-7.43,1.15,-0.12,-0.02,-0.96,31.80,95.11,1741.56,1089.41,1741.59,1
6238.953451,152.80,-7.43,1.15,-0.13,-0.02,-0.96,31.80,95.06,1755.64,1098.25,1755.33,1
6238.963331,152.80,-7.43,1.15,-0.13,-0.02,-0.96,31.80,95.02,1766.28,1098.15,1766.28,1
6238.973024,152.80,-7.43,1.15,-0.13,-0.02,-0.96,31.80,95.02,1766.28,1067.41,1767.35,1
6238.982699,152.79,-7.43,1.15,-0.12,-0.02,-0.96,31.80,94.93,1791.02,1103.77,1789.75,1
6238.992411,152.79,-7.43,1.15,-0.13,-0.02,-0.96,31.78,94.91,1799.36,1099.79,1799.50,1
6239.002091,152.79,-7.43,1.15,-0.13,-0.02,-0.96,31.78,94.91,1799.36,1068.63,1800.45,1
6239.011788,152.78,-7.43,1.15,-0.12,-0.02,-0.96,31.80,94.84,1819.23,1091.27,1818.44,1
6239.021740,152.78,-7.43,1.15,-0.12,-0.02,-0.96,31.80,94.84,1819.23,1062.95,1820.22,1
6239.031447,152.78,-7.43,1.15,-0.13,-0.02,-0.96,31.80,94.75,1844.01,1099.77,1842.72,1
6239.041104,152.77,-7.43,1.15,-0.13,-0.02,-0.96,31.80,94.70,1858.14,1112.13,1857.70,1
6239.050767,152.77,-7.43,1.15,-0.13,-0.02,-0.96,31.80,94.70,1858.14,1082.22,1859.18,1
6239.060450,152.77,-7.43,1.15,-0.12,-0.02,-0.96,31.79,94.62,1880.64,1111.97,1879.60,1
6239.075075,152.76,-7.43,1.15,-0.13,-0.02,-0.96,31.80,94.60,1886.41,1099.91,1886.83,1
6239.084736,152.76,-7.43,1.15,-0.13,-0.02,-0.96,31.80,94.55,1900.55,1107.54,1900.29,1
6239.094426,152.76,-7.43,1.15,-0.12,-0.02,-0.96,31.80,94.53,1907.77,1097.49,1908.12,1
6239.104125,152.75,-7.43,1.15,-0.12,-0.02,-0.96,31.79,94.46,1926.55,1118.33,1925.82,1
6239.113790,152.75,-7.43,1.15,-0.13,-0.02,-0.96,31.80,94.44,1932.61,1106.06,1933.04,1
6239.123627,152.75,-7.43,1.15,-0.13,-0.02,-0.96,31.80,94.44,1932.61,1073.91,1933.74,1
6239.133330,152.75,-7.43,1.15,-0.12,-0.02,-0.96,31.80,94.36,1957.48,1110.29,1956.20,1
6239.143107,152.74,-7.43,1.15,-0.12,-0.02,-0.96,31.80,94.31,1971.65,1122.44,1971.22,1
6239.152760,152.74,-7.43,1.15,-0.13,-0.02,-0.96,31.78,94.28,1979.75,1114.89,1980.02,1
6239.162406,152.74,-7.43,1.15,-0.12,-0.02,-0.96,31.80,94.25,1989.30,1109.68,1989.49,1
6239.172045,152.74,-7.43,1.15,-0.12,-0.02,-0.96,31.80,94.25,1989.30,1078.12,1990.41,1
6239.181745,152.74,-7.43,1.15,-0.13,-0.02,-0.96,31.78,94.16,2014.21,1114.55,2012.93,1
6239.191400,152.74,-7.43,1.15,-0.13,-0.02,-0.96,31.80,94.14,2021.45,1107.20,2021.71,1
6239.201087,152.74,-7.43,1.15,-0.13,-0.02,-0.96,31.80,94.14,2021.45,1075.50,2022.56,1
6239.210798,152.73,-7.43,1.15,-0.12,-0.02,-0.96,31.78,94.03,2051.02,1125.04,2049.29,1
6239.220467,152.73,-7.43,1.15,-0.12,-0.02,-0.96,31.78,94.03,2051.02,1098.40,2051.95,1
6239.235095,152.73,-7.43,1.15,-0.13,-0.02,-0.95,31.80,93.98,2067.55,1111.33,2067.10,1
6239.244792,152.73,-7.43,1.15,-0.13,-0.02,-0.96,31.78,93.92,2082.94,1124.54,2082.47,1
6239.254497,152.72,-7.43,1.15,-0.12,-0.02,-0.96,31.78,93.89,2093.68,1124.42,2093.68,1
6239.264161,152.72,-7.43,1.15,-0.13,-0.02,-0.96,31.80,93.84,2106.75,1129.52,2106.57,1
6239.273836,152.72,-7.43,1.15,-0.13,-0.02,-0.96,31.80,93.84,2106.75,1098.41,2107.84,1
6239.283520,152.72,-7.43,1.15,-0.12,-0.02,-0.96,31.78,93.77,2128.25,1124.80,2127.33,1
6239.293173,152.72,-7.43,1.15,-0.12,-0.02,-0.96,31.78,93.75,2132.90,1108.92,2133.46,1
6239.303048,152.71,-7.43,1.15,-0.13,-0.01,-0.96,31.78,93.69,2149.77,1123.53,2149.25,1
6239.312719,152.71,-7.43,1.15,-0.13,-0.02,-0.95,31.80,93.66,2160.24,1122.83,2160.26,1
6239.322469,152.71,-7.43,1.15,-0.13,-0.02,-0.95,31.80,93.66,2160.24,1091.34,2161.34,1
6239.332110,152.70,-7.43,1.15,-0.12,-0.02,-0.96,31.78,93.58,2182.94,1121.25,2181.90,1
6239.341775,152.70,-7.43,1.15,-0.13,-0.02,-0.96,31.80,93.54,2196.05,1129.47,2195.76,1
6239.351451,152.70,-7.43,1.15,-0.13,-0.02,-0.96,31.80,93.54,2196.05,1098.66,2197.12,1
6239.361119,152.70,-7.43,1.15,-0.12,-0.02,-0.96,31.80,93.45,2221.10,1135.02,2219.83,1
6239.370782,152.70,-7.43,1.15,-0.12,-0.02,-0.96,31.80,93.45,2221.10,1106.82,2222.09,1
6239.380476,152.69,-7.43,1.15,-0.13,-0.02,-0.96,31.80,93.38,2242.68,1133.46,2241.75,1
6239.395093,152.69,-7.43,1.15,-0.13,-0.02,-0.96,31.80,93.35,2249.68,1123.95,2250.01,1
6239.404849,152.69,-7.43,1.15,-0.12,-0.02,-0.96,31.80,93.30,2263.98,1131.57,2263.71,1
6239.414530,152.69,-7.43,1.15,-0.12,-0.02,-0.96,31.78,93.26,2275.95,1134.15,2275.86,1
6239.424182,152.69,-7.43,1.15,-0.12,-0.02,-0.96,31.78,93.26,2275.95,1102.66,2277.05,1
6239.433824,152.69,-7.43,1.15,-0.13,-0.02,-0.96,31.78,93.20,2293.76,1118.57,2293.20,1
6239.443528,152.68,-7.43,1.15,-0.12,-0.02,-0.96,31.80,93.14,2310.70,1136.25,2310.09,1
6239.453167,152.68,-7.43,1.15,-0.12,-0.02,-0.96,31.80,93.13,2314.21,1116.00,2314.92,1
6239.462825,152.68,-7.42,1.15,-0.13,-0.02,-0.96,31.80,93.08,2328.54,1122.87,2328.30,1
6239.472476,152.68,-7.42,1.15,-0.13,-0.02,-0.96,31.80,93.08,2328.54,1092.12,2329.61,1
6239.482253,152.67,-7.42,1.15,-0.12,-0.02,-0.96,31.80,93.00,2353.69,1128.95,2352.41,1
6239.491910,152.67,-7.43,1.15,-0.12,-0.02,-0.95,31.80,92.97,2361.01,1121.44,2361.27,1
6239.501701,152.67,-7.43,1.15,-0.12,-0.02,-0.95,31.80,92.97,2361.01,1089.32,2362.14,1
6239.511388,152.67,-7.43,1.15,-0.13,-0.02,-0.96,31.80,92.88,2386.19,1126.16,2384.90,1
6239.521121,152.67,-7.43,1.15,-0.13,-0.02,-0.96,31.80,92.88,2386.19,1098.25,2387.17,1
6239.530793,152.66,-7.43,1.15,-0.12,-0.02,-0.96,31.80,92.80,2411.10,1134.48,2409.83,1
6239.540481,152.67,-7.43,1.15,-0.13,-0.02,-0.96,31.80,92.77,2418.43,1126.79,2418.70,1
6239.555094,152.67,-7.42,1.15,-0.13,-0.02,-0.96,31.80,92.74,2429.28,1124.87,2429.34,1
6239.564799,152.66,-7.43,1.15,-0.12,-0.02,-0.96,31.80,92.69,2443.65,1133.43,2443.35,1
6239.574483,152.66,-7.43,1.15,-0.12,-0.02,-0.96,31.80,92.66,2450.70,1122.26,2451.09,1
6239.584169,152.66,-7.43,1.15,-0.13,-0.02,-0.96,31.80,92.61,2465.37,1130.83,2465.07,1
6239.593820,152.66,-7.43,1.15,-0.13,-0.02,-0.96,31.80,92.57,2479.76,1140.29,2479.43,1
6239.603557,152.66,-7.43,1.15,-0.12,-0.02,-0.96,31.80,92.53,2490.34,1138.90,2490.38,1
6239.613346,152.65,-7.43,1.15,-0.12,-0.02,-0.96,31.80,92.50,2497.68,1127.45,2498.08,1
6239.622997,152.65,-7.43,1.15,-0.12,-0.02,-0.96,31.80,92.50,2497.68,1094.78,2498.83,1
6239.632655,152.65,-7.43,1.15,-0.12,-0.02,-0.96,31.80,92.42,2522.97,1131.70,2521.67,1
6239.642344,152.65,-7.43,1.15,-0.12,-0.02,-0.96,31.80,92.36,2540.91,1153.87,2540.14,1
6239.652039,152.65,-7.43,1.15,-0.12,-0.02,-0.96,31.80,92.36,2540.91,1123.75,2541.97,1
6239.661768,152.65,-7.43,1.15,-0.13,-0.02,-0.96,31.80,92.31,2555.33,1129.71,2555.13,1
6239.671511,152.65,-7.43,1.15,-0.13,-0.02,-0.96,31.80,92.31,2555.33,1098.68,2556.42,1
6239.681294,152.65,-7.43,1.15,-0.12,-0.02,-0.96,31.79,92.23,2578.31,1129.18,2577.24,1
6239.691016,152.65,-7.43,1.15,-0.12,-0.02,-0.96,31.80,92.19,2591.56,1137.67,2591.27,1
6239.700680,152.65,-7.43,1.15,-0.12,-0.02,-0.96,31.80,92.19,2591.56,1106.66,2592.65,1
6239.710376,152.64,-7.43,1.15,-0.13,-0.02,-0.96,31.80,92.12,2609.84,1123.81,2609.24,1
6239.725061,152.64,-7.43,1.15,-0.12,-0.02,-0.96,31.80,92.07,2624.29,1134.47,2623.92,1
6239.734714,152.64,-7.43,1.15,-0.13,-0.02,-0.96,31.80,92.05,2631.37,1123.59,2631.75,1
6239.744367,152.64,-7.43,1.15,-0.13,-0.02,-0.96,31.78,92.00,2645.83,1131.54,2645.56,1
6239.754028,152.64,-7.43,1.15,-0.12,-0.02,-0.96,31.80,91.95,2660.30,1141.15,2659.97,1
6239.763702,152.63,-7.43,1.15,-0.12,-0.02,-0.96,31.80,91.93,2667.69,1130.82,2668.05,1
6239.773349,152.63,-7.43,1.15,-0.12,-0.02,-0.96,31.80,91.93,2667.69,1098.16,2668.83,1
6239.783081,152.63,-7.43,1.15,-0.13,-0.02,-0.96,31.80,91.84,2693.10,1135.34,2691.80,1
6239.792801,152.63,-7.43,1.15,-0.12,-0.02,-0.96,31.80,91.80,2704.04,1137.83,2703.95,1
6239.802457,152.63,-7.43,1.15,-0.12,-0.02,-0.96,31.80,91.77,2714.68,1136.02,2714.75,1
6239.812106,152.62,-7.43,1.15,-0.13,-0.02,-0.96,31.80,91.74,2722.08,1124.75,2722.47,1
6239.821868,152.62,-7.43,1.15,-0.13,-0.02,-0.96,31.80,91.74,2722.08,1092.17,2723.22,1
6239.831514,152.62,-7.43,1.15,-0.12,-0.02,-0.96,31.80,91.67,2743.98,1119.70,2743.02,1
6239.841190,152.62,-7.43,1.15,-0.12,-0.02,-0.96,31.80,91.62,2758.49,1131.67,2758.07,1
6239.850941,152.62,-7.43,1.15,-0.12,-0.02,-0.96,31.80,91.62,2758.49,1101.17,2759.56,1
6239.860709,152.61,-7.43,1.15,-0.13,-0.02,-0.96,31.80,91.56,2776.56,1117.94,2775.97,1
6239.875302,152.61,-7.43,1.15,-0.12,-0.02,-0.96,31.80,91.51,2791.09,1128.95,2790.70,1
6239.885011,152.61,-7.43,1.15,-0.12,-0.02,-0.96,31.80,91.47,2802.06,1129.13,2802.05,1
6239.894686,152.60,-7.43,1.15,-0.13,-0.02,-0.96,31.78,91.45,2810.36,1120.79,2810.65,1
6239.904353,152.60,-7.43,1.15,-0.13,-0.02,-0.96,31.80,91.40,2824.01,1126.81,2823.80,1
6239.914047,152.60,-7.43,1.15,-0.12,-0.02,-0.96,31.80,91.36,2834.69,1125.76,2834.73,1
6239.923724,152.60,-7.43,1.15,-0.12,-0.02,-0.96,31.80,91.36,2834.69,1094.15,2835.80,1
6239.934289,152.59,-7.43,1.15,-0.13,-0.02,-0.96,31.78,91.29,2857.86,1125.26,2856.77,1
6239.944133,152.59,-7.43,1.15,-0.13,-0.02,-0.96,31.80,91.24,2871.23,1134.23,2870.91,1
6239.953911,152.59,-7.43,1.15,-0.12,-0.02,-0.96,31.80,91.20,2882.23,1134.15,2882.23,1
6239.963726,152.59,-7.43,1.15,-0.12,-0.02,-0.96,31.78,91.18,2889.66,1123.20,2890.04,1
6239.973561,152.59,-7.43,1.15,-0.12,-0.02,-0.96,31.78,91.18,2889.66,1090.70,2890.80,1
6239.983291,152.58,-7.43,1.15,-0.13,-0.02,-0.95,31.79,91.09,2916.13,1131.08,2914.72,1
6239.992938,152.57,-7.43,1.15,-0.12,-0.02,-0.96,31.80,91.06,2925.95,1130.86,2925.96,1
6240.002626,152.57,-7.43,1.15,-0.12,-0.02,-0.96,31.80,91.02,2936.97,1130.02,2937.00,1
6240.012303,152.57,-7.43,1.15,-0.13,-0.02,-0.96,31.80,90.98,2947.99,1129.15,2948.02,1
6240.022139,152.57,-7.43,1.15,-0.13,-0.02,-0.96,31.80,90.98,2947.99,1097.47,2949.10,1
6240.031786,152.56,-7.43,1.15,-0.12,-0.02,-0.96,31.80,90.91,2970.04,1125.36,2969.06,1
6240.041587,152.56,-7.43,1.15,-0.12,-0.02,-0.96,31.79,90.86,2985.84,1140.81,2985.30,1
6240.051240,152.56,-7.43,1.15,-0.12,-0.02,-0.96,31.79,90.86,2985.84,1110.40,2986.90,1
6240.060882,152.55,-7.43,1.15,-0.13,-0.02,-0.96,31.80,90.80,3002.84,1123.93,3002.37,1
6240.070577,152.55,-7.43,1.15,-0.13,-0.02,-0.96,31.80,90.80,3002.84,1093.80,3003.89,1
6240.085113,152.54,-7.43,1.15,-0.12,-0.02,-0.96,31.80,90.72,3024.92,1122.04,3023.94,1
6240.094754,152.54,-7.43,1.15,-0.13,-0.02,-0.96,31.80,90.68,3039.56,1134.36,3039.13,1
6240.104624,152.53,-7.43,1.15,-0.13,-0.02,-0.96,31.80,90.65,3046.73,1123.88,3047.09,1
6240.114294,152.53,-7.43,1.15,-0.12,-0.02,-0.96,31.80,90.63,3054.19,1112.30,3054.60,1
6240.124043,152.53,-7.43,1.15,-0.12,-0.02,-0.96,31.80,90.63,3054.19,1080.04,3055.32,1
6240.133761,152.53,-7.43,1.15,-0.13,-0.02,-0.96,31.80,90.55,3076.02,1107.73,3075.05,1
6240.143734,152.52,-7.43,1.15,-0.12,-0.02,-0.96,31.80,90.50,3090.97,1121.28,3090.49,1
6240.153431,152.52,-7.43,1.15,-0.12,-0.02,-0.96,31.80,90.47,3101.74,1121.37,3101.74,1
6240.163098,152.52,-7.43,1.16,-0.13,-0.02,-0.96,31.80,90.42,3116.40,1131.04,3116.07,1
6240.172752,152.52,-7.43,1.16,-0.13,-0.02,-0.96,31.80,90.42,3116.40,1100.33,3117.48,1
6240.182428,152.51,-7.43,1.15,-0.13,-0.02,-0.96,31.80,90.36,3134.97,1118.49,3134.33,1
6240.192093,152.51,-7.43,1.16,-0.12,-0.02,-0.96,31.80,90.32,3146.05,1119.99,3146.00,1
6240.201782,152.51,-7.43,1.16,-0.12,-0.02,-0.96,31.80,90.32,3146.05,1088.79,3147.14,1
6240.211428,152.50,-7.43,1.16,-0.13,-0.02,-0.96,31.80,90.25,3167.93,1116.50,3166.97,1
6240.221135,152.50,-7.43,1.16,-0.13,-0.02,-0.96,31.80,90.25,3167.93,1087.97,3168.93,1
6240.230899,152.50,-7.43,1.16,-0.12,-0.02,-0.96,31.80,90.16,3193.73,1126.92,3192.37,1
6240.240562,152.50,-7.43,1.16,-0.13,-0.02,-0.96,31.80,90.12,3204.83,1130.27,3204.72,1
6240.250384,152.50,-7.43,1.16,-0.13,-0.02,-0.96,31.80,90.12,3204.83,1098.97,3205.93,1
6240.265125,152.50,-7.43,1.16,-0.12,-0.02,-0.96,31.80,90.06,3223.15,1116.40,3222.54,1
6240.274840,152.50,-7.43,1.16,-0.12,-0.02,-0.96,31.80,90.03,3234.26,1117.97,3234.21,1
6240.284514,152.50,-7.43,1.16,-0.13,-0.02,-0.96,31.80,89.99,3245.38,1117.94,3245.38,1
6240.294159,152.50,-7.43,1.16,-0.13,-0.02,-0.96,31.78,89.95,3257.70,1121.14,3257.59,1
6240.303803,152.49,-7.43,1.16,-0.12,-0.02,-0.95,31.80,89.90,3271.23,1127.94,3270.99,1
6240.313516,152.49,-7.43,1.16,-0.12,-0.02,-0.96,31.80,89.88,3278.75,1118.09,3279.10,1
6240.323236,152.49,-7.43,1.16,-0.12,-0.02,-0.96,31.80,89.88,3278.75,1085.84,3279.88,1
6240.332912,152.49,-7.43,1.16,-0.13,-0.02,-0.96,31.80,89.79,3304.33,1123.88,3303.00,1
6240.342594,152.49,-7.43,1.16,-0.12,-0.02,-0.95,31.80,89.76,3315.47,1127.33,3315.35,1
6240.352280,152.49,-7.43,1.16,-0.12,-0.02,-0.95,31.80,89.72,3326.62,1127.31,3326.62,1
6240.361947,152.48,-7.43,1.16,-0.13,-0.02,-0.96,31.80,89.68,3337.77,1126.95,3337.78,1
6240.371817,152.48,-7.43,1.16,-0.13,-0.02,-0.96,31.80,89.68,3337.77,1095.38,3338.87,1
6240.381527,152.48,-7.43,1.16,-0.12,-0.02,-0.96,31.80,89.61,3360.08,1124.07,3359.07,1
6240.391209,152.48,-7.43,1.16,-0.12,-0.02,-0.96,31.78,89.57,3372.14,1129.18,3371.96,1
6240.400860,152.48,-7.43,1.16,-0.12,-0.02,-0.96,31.78,89.57,3372.14,1098.08,3373.23,1
6240.410638,152.47,-7.43,1.16,-0.13,-0.02,-0.96,31.80,89.50,3393.26,1123.42,3392.38,1
6240.420389,152.47,-7.43,1.16,-0.13,-0.02,-0.96,31.80,89.50,3393.26,1094.46,3394.28,1
6240.430347,152.47,-7.43,1.16,-0.12,-0.02,-0.96,31.80,89.44,3411.68,1112.54,3411.05,1
6240.445038,152.47,-7.43,1.16,-0.13,-0.02,-0.96,31.80,89.39,3426.48,1124.60,3426.06,1
6240.454810,152.47,-7.42,1.16,-0.13,-0.02,-0.96,31.80,89.36,3434.04,1115.45,3434.36,1
6240.464475,152.46,-7.43,1.16,-0.12,-0.02,-0.96,31.80,89.33,3445.22,1114.64,3445.25,1
6240.474263,152.46,-7.43,1.16,-0.12,-0.02,-0.96,31.80,89.29,3456.41,1114.68,3456.41,1
6240.484037,152.46,-7.43,1.16,-0.13,-0.02,-0.96,31.80,89.24,3471.23,1124.96,3470.87,1
6240.493676,152.46,-7.43,1.16,-0.13,-0.02,-0.96,31.80,89.22,3478.49,1114.81,3478.85,1
6240.503356,152.45,-7.43,1.16,-0.12,-0.02,-0.96,31.80,89.19,3486.06,1103.80,3486.45,1
6240.513045,152.45,-7.43,1.16,-0.12,-0.02,-0.96,31.80,89.14,3500.90,1113.34,3500.56,1
6240.522744,152.45,-7.43,1.16,-0.12,-0.02,-0.96,31.80,89.14,3500.90,1083.12,3501.95,1
6240.532417,152.44,-7.42,1.16,-0.13,-0.02,-0.96,31.80,89.09,3515.74,1091.39,3515.45,1
6240.542073,152.44,-7.43,1.16,-0.12,-0.02,-0.96,31.80,89.04,3530.59,1103.21,3530.17,1
6240.551772,152.44,-7.43,1.16,-0.12,-0.02,-0.96,31.80,89.04,3530.59,1073.49,3531.63,1
6240.561417,152.44,-7.42,1.16,-0.13,-0.02,-0.96,31.80,88.96,3556.67,1113.52,3555.27,1
6240.571069,152.44,-7.42,1.16,-0.13,-0.02,-0.96,31.80,88.96,3556.67,1086.28,3557.62,1
6240.580763,152.44,-7.42,1.16,-0.12,-0.02,-0.96,31.80,88.90,3575.17,1105.01,3574.52,1
6240.590455,152.43,-7.42,1.16,-0.12,-0.02,-0.96,31.80,88.86,3586.41,1107.35,3586.32,1
6240.600446,152.43,-7.42,1.16,-0.12,-0.02,-0.96,31.80,88.86,3586.41,1076.59,3587.48,1
6240.615099,152.43,-7.42,1.16,-0.13,-0.02,-0.96,31.80,88.77,3612.53,1116.55,3611.13,1
6240.624767,152.43,-7.42,1.16,-0.12,-0.02,-0.96,31.80,88.75,3620.12,1110.48,3620.34,1
6240.634430,152.43,-7.42,1.16,-0.12,-0.02,-0.96,31.80,88.71,3631.07,1109.42,3631.10,1
6240.644160,152.43,-7.42,1.16,-0.13,-0.02,-0.96,31.80,88.68,3642.32,1109.76,3642.30,1
6240.653867,152.42,-7.43,1.16,-0.12,-0.02,-0.96,31.80,88.65,3649.92,1100.02,3650.26,1
6240.663541,152.42,-7.43,1.16,-0.12,-0.02,-0.96,31.80,88.61,3661.18,1099.78,3661.18,1
6240.673191,152.42,-7.43,1.16,-0.12,-0.02,-0.96,31.80,88.61,3661.18,1068.98,3662.25,1
6240.682872,152.42,-7.42,1.16,-0.13,-0.02,-0.96,31.80,88.53,3687.36,1109.32,3685.95,1
6240.692573,152.42,-7.42,1.16,-0.13,-0.02,-0.96,31.82,88.51,3693.45,1099.26,3693.80,1
6240.702251,152.42,-7.43,1.16,-0.12,-0.02,-0.96,31.80,88.47,3705.94,1102.47,3705.83,1
6240.711955,152.42,-7.43,1.16,-0.12,-0.02,-0.96,31.80,88.44,3713.25,1092.40,3713.60,1
6240.721645,152.42,-7.43,1.16,-0.12,-0.02,-0.96,31.80,88.44,3713.25,1060.85,3714.36,1
6240.731331,152.41,-7.43,1.16,-0.12,-0.02,-0.96,31.80,88.37,3735.81,1091.20,3734.75,1
6240.741107,152.41,-7.43,1.16,-0.12,-0.02,-0.96,31.80,88.33,3747.10,1095.22,3746.96,1
6240.750862,152.41,-7.43,1.16,-0.12,-0.02,-0.96,31.80,88.33,3747.10,1064.97,3748.16,1
6240.760551,152.41,-7.42,1.16,-0.13,-0.02,-0.96,31.80,88.25,3773.35,1105.65,3771.92,1
6240.775110,152.41,-7.42,1.16,-0.13,-0.02,-0.96,31.78,88.22,3781.90,1102.62,3782.00,1
6240.784753,152.41,-7.42,1.16,-0.12,-0.02,-0.96,31.80,88.18,3791.97,1099.67,3792.08,1
6240.794393,152.40,-7.42,1.16,-0.12,-0.02,-0.96,31.80,88.16,3799.61,1089.99,3799.95,1
6240.804037,152.40,-7.42,1.16,-0.13,-0.02,-0.96,31.80,88.11,3814.59,1100.45,3814.22,1
6240.813730,152.40,-7.43,1.16,-0.12,-0.02,-0.96,31.80,88.09,3821.93,1091.21,3822.25,1
6240.823375,152.40,-7.43,1.16,-0.12,-0.02,-0.96,31.80,88.09,3821.93,1059.76,3823.03,1
6240.833026,152.40,-7.43,1.16,-0.13,-0.02,-0.96,31.80,88.01,3844.56,1090.37,3843.49,1
6240.842722,152.39,-7.42,1.16,-0.13,-0.02,-0.96,31.80,87.96,3859.56,1104.82,3859.05,1
6240.852387,152.39,-7.42,1.16,-0.12,-0.02,-0.96,31.80,87.94,3867.21,1096.74,3867.49,1
6240.862029,152.39,-7.42,1.16,-0.12,-0.02,-0.96,31.80,87.89,3882.22,1107.24,3881.85,1
6240.871741,152.39,-7.42,1.16,-0.12,-0.02,-0.96,31.80,87.89,3882.22,1077.29,3883.26,1
6240.881452,152.39,-7.42,1.16,-0.13,-0.02,-0.96,31.80,87.83,3900.91,1096.52,3900.24,1
6240.891184,152.39,-7.43,1.16,-0.12,-0.02,-0.96,31.82,87.81,3907.34,1085.72,3907.72,1
6240.900851,152.39,-7.43,1.16,-0.12,-0.02,-0.96,31.82,87.81,3907.34,1054.28,3908.44,1
6240.910763,152.39,-7.42,1.16,-0.13,-0.02,-0.96,31.80,87.73,3930.96,1087.78,3929.79,1
6240.920419,152.39,-7.42,1.16,-0.13,-0.02,-0.96,31.80,87.73,3930.96,1060.62,3931.91,1
6240.935203,152.38,-7.42,1.16,-0.12,-0.02,-0.96,31.80,87.67,3949.98,1081.52,3949.25,1
6240.944907,152.38,-7.42,1.16,-0.12,-0.02,-0.96,31.80,87.63,3961.34,1085.09,3961.22,1
6240.954572,152.38,-7.42,1.16,-0.13,-0.02,-0.96,31.80,87.61,3968.71,1075.70,3969.04,1
6240.964421,152.38,-7.42,1.16,-0.13,-0.02,-0.96,31.80,87.55,3987.45,1097.12,3986.70,1
6240.974133,152.38,-7.42,1.16,-0.13,-0.02,-0.96,31.80,87.55,3987.45,1068.51,3988.45,1
6240.984053,152.37,-7.43,1.16,-0.12,-0.02,-0.96,31.80,87.50,4002.82,1078.82,4002.46,1
6240.993815,152.37,-7.42,1.16,-0.13,-0.01,-0.96,31.80,87.46,4013.89,1080.61,4013.83,1
6241.003493,152.37,-7.42,1.16,-0.13,-0.02,-0.96,31.80,87.41,4028.04,1090.15,4027.71,1
6241.013174,152.37,-7.42,1.16,-0.12,-0.02,-0.96,31.80,87.40,4032.96,1074.35,4033.51,1
6241.022825,152.37,-7.42,1.16,-0.12,-0.02,-0.96,31.80,87.40,4032.96,1042.74,4034.07,1
6241.032518,152.36,-7.42,1.16,-0.13,-0.02,-0.96,31.80,87.33,4055.43,1073.35,4054.36,1
6241.042285,152.36,-7.42,1.16,-0.13,-0.02,-0.96,31.80,87.29,4066.83,1078.20,4066.66,1
6241.051925,152.36,-7.42,1.16,-0.13,-0.02,-0.96,31.80,87.29,4066.83,1048.50,4067.87,1
6241.061571,152.36,-7.42,1.16,-0.12,-0.02,-0.96,31.80,87.21,4089.63,1080.06,4088.52,1
6241.071279,152.36,-7.42,1.16,-0.12,-0.02,-0.96,31.80,87.21,4089.63,1052.92,4090.58,1
6241.080931,152.35,-7.42,1.16,-0.13,-0.02,-0.96,31.80,87.14,4112.14,1083.79,4111.06,1
6241.090589,152.35,-7.42,1.16,-0.12,-0.02,-0.96,31.80,87.12,4119.85,1078.06,4120.05,1
6241.100430,152.35,-7.42,1.16,-0.12,-0.02,-0.96,31.80,87.12,4119.85,1047.33,4120.92,1
6241.115087,152.35,-7.42,1.16,-0.13,-0.02,-0.96,31.80,87.04,4142.69,1078.93,4141.58,1
6241.124777,152.35,-7.42,1.16,-0.13,-0.02,-0.96,31.80,87.01,4153.80,1082.94,4153.66,1
6241.134434,152.35,-7.42,1.16,-0.12,-0.02,-0.96,31.80,86.98,4161.53,1074.63,4161.82,1
6241.144116,152.35,-7.42,1.16,-0.12,-0.02,-0.96,31.80,86.94,4172.96,1075.73,4172.92,1
6241.153906,152.34,-7.42,1.16,-0.13,-0.02,-0.96,31.80,86.91,4184.39,1077.74,4184.32,1
6241.163596,152.34,-7.42,1.16,-0.12,-0.02,-0.96,31.80,86.89,4190.58,1065.08,4191.02,1
6241.173266,152.34,-7.42,1.16,-0.12,-0.02,-0.96,31.80,86.89,4190.58,1034.04,4191.66,1
6241.182906,152.34,-7.42,1.16,-0.12,-0.02,-0.96,31.80,86.81,4214.70,1069.57,4213.46,1
6241.192617,152.34,-7.42,1.16,-0.13,-0.02,-0.96,31.80,86.79,4222.13,1063.90,4222.33,1
6241.202303,152.33,-7.42,1.16,-0.12,-0.02,-0.96,31.80,86.75,4233.58,1065.63,4233.52,1
6241.211997,152.33,-7.42,1.16,-0.12,-0.02,-0.96,31.80,86.72,4241.32,1057.63,4241.60,1
6241.221777,152.33,-7.42,1.16,-0.12,-0.02,-0.96,31.80,86.72,4241.32,1027.25,4242.38,1
6241.231428,152.33,-7.42,1.16,-0.13,-0.02,-0.96,31.80,86.65,4263.93,1058.81,4262.83,1
6241.241102,152.33,-7.42,1.16,-0.13,-0.02,-0.96,31.80,86.60,4278.19,1072.17,4277.72,1
6241.250757,152.33,-7.42,1.16,-0.13,-0.02,-0.96,31.80,86.60,4278.19,1043.47,4279.19,1
6241.260402,152.33,-7.42,1.16,-0.12,-0.02,-0.96,31.80,86.54,4298.35,1067.87,4297.49,1
6241.270615,152.33,-7.42,1.16,-0.12,-0.02,-0.96,31.80,86.54,4298.35,1040.37,4299.31,1
6241.285150,152.32,-7.42,1.16,-0.13,-0.02,-0.96,31.80,86.48,4317.27,1061.53,4316.53,1
6241.294803,152.32,-7.42,1.16,-0.12,-0.02,-0.96,31.80,86.44,4328.76,1066.04,4328.60,1
6241.304498,152.32,-7.42,1.16,-0.13,-0.02,-0.95,31.80,86.42,4335.28,1054.89,4335.67,1
6241.314220,152.32,-7.42,1.16,-0.14,-0.02,-0.96,31.81,86.38,4347.70,1059.04,4347.56,1
6241.323867,152.32,-7.42,1.16,-0.14,-0.02,-0.96,31.81,86.38,4347.70,1029.82,4348.72,1
6241.333510,152.32,-7.42,1.16,-0.12,-0.02,-0.96,31.80,86.32,4366.97,1052.05,4366.19,1
6241.343203,152.31,-7.42,1.16,-0.13,-0.02,-0.96,31.82,86.28,4378.47,1056.97,4378.30,1
6241.352891,152.31,-7.42,1.16,-0.13,-0.02,-0.96,31.80,86.26,4385.93,1048.76,4386.22,1
6241.362570,152.31,-7.42,1.16,-0.12,-0.02,-0.96,31.80,86.22,4396.20,1047.33,4396.25,1
6241.372237,152.31,-7.42,1.16,-0.12,-0.02,-0.96,31.80,86.22,4396.20,1017.89,4397.23,1
6241.381899,152.31,-7.42,1.16,-0.12,-0.02,-0.96,31.82,86.15,4419.23,1050.97,4418.07,1
6241.391684,152.30,-7.42,1.16,-0.13,-0.02,-0.96,31.81,86.13,4424.21,1038.74,4424.64,1
6241.401388,152.30,-7.42,1.16,-0.13,-0.02,-0.96,31.81,86.13,4424.21,1008.47,4425.27,1
6241.411034,152.30,-7.42,1.16,-0.12,-0.02,-0.95,31.80,86.06,4447.26,1041.78,4446.09,1
6241.420717,152.30,-7.42,1.16,-0.12,-0.02,-0.95,31.80,86.06,4447.26,1015.89,4448.16,1
6241.435213,152.30,-7.42,1.16,-0.13,-0.02,-0.96,31.82,86.00,4465.02,1034.64,4464.37,1
6241.444847,152.29,-7.42,1.16,-0.12,-0.02,-0.96,31.80,85.96,4477.81,1043.30,4477.50,1
6241.454513,152.29,-7.42,1.16,-0.12,-0.02,-0.96,31.80,85.93,4489.35,1047.25,4489.21,1
6241.464151,152.29,-7.42,1.16,-0.13,-0.02,-0.96,31.80,85.90,4496.84,1039.29,4497.12,1
6241.473833,152.29,-7.42,1.16,-0.13,-0.02,-0.96,31.80,85.90,4496.84,1009.42,4497.88,1
6241.483533,152.29,-7.42,1.16,-0.12,-0.02,-0.96,31.80,85.84,4515.88,1031.53,4515.10,1
6241.493176,152.29,-7.42,1.16,-0.12,-0.02,-0.96,31.80,85.80,4527.43,1037.17,4527.23,1
6241.502839,152.28,-7.42,1.16,-0.13,-0.02,-0.96,31.80,85.78,4535.24,1030.54,4535.47,1
6241.512482,152.28,-7.42,1.16,-0.13,-0.02,-0.96,31.80,85.74,4546.80,1033.41,4546.70,1
6241.522251,152.28,-7.42,1.16,-0.13,-0.02,-0.96,31.80,85.74,4546.80,1004.77,4547.80,1
6241.532016,152.28,-7.42,1.16,-0.12,-0.02,-0.96,31.81,85.68,4565.87,1027.22,4565.09,1
6241.541662,152.28,-7.42,1.16,-0.13,-0.02,-0.96,31.80,85.63,4581.20,1043.55,4580.62,1
6241.551333,152.28,-7.42,1.16,-0.13,-0.02,-0.96,31.80,85.63,4581.20,1015.95,4582.16,1
6241.561084,152.27,-7.42,1.16,-0.12,-0.02,-0.96,31.80,85.58,4596.53,1027.73,4596.12,1
6241.570728,152.27,-7.42,1.16,-0.12,-0.02,-0.96,31.80,85.58,4596.53,1000.12,4597.50,1
6241.580483,152.27,-7.42,1.16,-0.13,-0.02,-0.96,31.80,85.52,4615.94,1023.75,4615.11,1
6241.595095,152.27,-7.42,1.16,-0.13,-0.02,-0.96,31.80,85.50,4623.46,1018.45,4623.64,1
6241.604782,152.27,-7.42,1.16,-0.12,-0.02,-0.96,31.80,85.45,4637.87,1029.76,4637.47,1
6241.614428,152.27,-7.42,1.16,-0.12,-0.02,-0.96,31.81,85.42,4646.64,1026.61,4646.76,1
6241.624133,152.27,-7.42,1.16,-0.12,-0.02,-0.96,31.81,85.42,4646.64,997.57,4647.66,1
6241.633798,152.26,-7.42,1.17,-0.13,-0.02,-0.96,31.80,85.37,4662.01,1009.81,4661.58,1
6241.643463,152.26,-7.42,1.16,-0.12,-0.02,-0.96,31.80,85.32,4677.38,1025.76,4676.82,1
6241.653117,152.26,-7.42,1.16,-0.12,-0.02,-0.95,31.80,85.30,4684.91,1019.69,4685.12,1
6241.662815,152.26,-7.42,1.16,-0.13,-0.02,-0.96,31.80,85.28,4692.76,1012.52,4693.01,1
6241.672496,152.26,-7.42,1.16,-0.13,-0.02,-0.96,31.80,85.28,4692.76,983.49,4693.77,1
6241.682190,152.25,-7.42,1.17,-0.12,-0.02,-0.96,31.80,85.21,4711.91,1006.72,4711.10,1
6241.691850,152.25,-7.42,1.16,-0.12,-0.02,-0.96,31.80,85.18,4723.53,1013.35,4723.30,1
6241.701568,152.25,-7.42,1.16,-0.12,-0.02,-0.96,31.80,85.18,4723.53,985.64,4724.50,1
6241.711237,152.25,-7.42,1.17,-0.13,-0.02,-0.96,31.82,85.13,4737.99,995.80,4737.63,1
6241.720972,152.25,-7.42,1.17,-0.13,-0.02,-0.96,31.82,85.13,4737.99,968.93,4738.93,1
6241.730652,152.24,-7.42,1.17,-0.12,-0.02,-0.96,31.80,85.05,4762.20,1006.94,4760.87,1
6241.745177,152.24,-7.41,1.17,-0.13,-0.02,-0.96,31.80,85.03,4768.81,1000.97,4769.02,1
6241.754821,152.24,-7.41,1.17,-0.13,-0.02,-0.96,31.80,85.01,4777.62,997.03,4777.76,1
6241.764474,152.24,-7.41,1.17,-0.12,-0.02,-0.96,31.82,84.97,4789.27,1001.33,4789.11,1
6241.774264,152.24,-7.41,1.17,-0.12,-0.02,-0.96,31.82,84.96,4791.78,980.78,4792.50,1
6241.783909,152.24,-7.41,1.17,-0.13,-0.02,-0.96,31.80,84.91,4808.47,998.03,4807.87,1
6241.793548,152.24,-7.42,1.17,-0.13,-0.02,-0.96,31.80,84.88,4816.35,993.83,4816.50,1
6241.803245,152.23,-7.41,1.17,-0.12,-0.02,-0.96,31.82,84.83,4831.79,1008.82,4831.27,1
6241.813035,152.23,-7.41,1.17,-0.12,-0.02,-0.96,31.80,84.82,4835.58,992.64,4836.14,1
6241.822719,152.23,-7.41,1.17,-0.12,-0.02,-0.96,31.80,84.82,4835.58,963.28,4836.60,1
6241.832383,152.23,-7.41,1.17,-0.12,-0.02,-0.96,31.80,84.75,4858.91,998.76,4857.67,1
6241.842083,152.23,-7.41,1.17,-0.12,-0.02,-0.95,31.80,84.72,4866.49,995.47,4866.60,1
6241.851726,152.23,-7.41,1.17,-0.12,-0.02,-0.95,31.80,84.72,4866.49,967.29,4867.47,1
6241.861536,152.22,-7.41,1.17,-0.13,-0.02,-0.96,31.82,84.66,4886.06,992.23,4885.18,1
6241.871243,152.22,-7.41,1.17,-0.13,-0.02,-0.96,31.82,84.66,4886.06,966.91,4886.94,1
6241.880952,152.22,-7.42,1.17,-0.12,-0.02,-0.96,31.80,84.59,4909.11,1001.89,4907.89,1
6241.890599,152.22,-7.42,1.17,-0.13,-0.02,-0.96,31.80,84.58,4913.22,988.78,4913.68,1
6241.905099,152.21,-7.42,1.17,-0.13,-0.02,-0.96,31.80,84.54,4924.60,991.67,4924.50,1
6241.914766,152.21,-7.42,1.17,-0.13,-0.02,-0.96,31.82,84.53,4927.44,972.16,4928.13,1
6241.924408,152.21,-7.42,1.17,-0.12,-0.02,-0.96,31.80,84.49,4940.41,979.32,4940.16,1
6241.934047,152.21,-7.42,1.17,-0.12,-0.02,-0.96,31.80,84.45,4951.80,984.49,4951.62,1
6241.943730,152.21,-7.41,1.17,-0.13,-0.02,-0.96,31.80,84.43,4959.71,979.58,4959.88,1
6241.953492,152.21,-7.41,1.17,-0.12,-0.02,-0.96,31.81,84.40,4967.30,972.94,4967.53,1
6241.963203,152.21,-7.42,1.17,-0.12,-0.02,-0.96,31.80,84.37,4978.07,975.19,4977.99,1
6241.972869,152.21,-7.42,1.17,-0.12,-0.02,-0.96,31.80,84.37,4978.07,948.12,4979.01,1
6241.982524,152.20,-7.42,1.17,-0.13,-0.02,-0.96,31.80,84.32,4994.54,965.02,4993.94,1
6241.992167,152.20,-7.42,1.17,-0.12,-0.02,-0.97,31.80,84.29,5002.45,961.83,5002.57,1
6242.001821,152.20,-7.42,1.17,-0.12,-0.02,-0.97,31.80,84.29,5002.45,934.60,5003.41,1
6242.011481,152.20,-7.41,1.17,-0.13,-0.02,-0.96,31.80,84.23,5021.79,959.89,5020.91,1
6242.021133,152.20,-7.41,1.17,-0.13,-0.02,-0.96,31.80,84.23,5021.79,935.51,5022.64,1
6242.030844,152.19,-7.42,1.17,-0.12,-0.02,-0.96,31.82,84.17,5040.18,958.41,5039.38,1
6242.040503,152.19,-7.42,1.17,-0.12,-0.02,-0.96,31.82,84.13,5052.87,969.35,5052.49,1
6242.055069,152.19,-7.42,1.17,-0.13,-0.02,-0.96,31.80,84.11,5060.81,965.50,5060.94,1
6242.064780,152.19,-7.42,1.17,-0.13,-0.02,-0.96,31.80,84.07,5072.55,970.97,5072.36,1
6242.074446,152.19,-7.42,1.17,-0.12,-0.02,-0.96,31.80,84.06,5076.37,955.00,5076.92,1
6242.084156,152.19,-7.42,1.17,-0.12,-0.02,-0.96,31.82,84.02,5088.12,959.60,5087.96,1
6242.093839,152.18,-7.42,1.16,-0.13,-0.02,-0.95,31.80,84.01,5091.93,943.87,5092.48,1
6242.103520,152.18,-7.42,1.17,-0.13,-0.02,-0.96,31.80,83.96,5107.50,959.49,5106.96,1
6242.113166,152.18,-7.42,1.17,-0.12,-0.02,-0.96,31.80,83.95,5111.63,945.73,5112.12,1
6242.122815,152.18,-7.42,1.17,-0.12,-0.02,-0.96,31.80,83.95,5111.63,917.92,5112.61,1
6242.132822,152.17,-7.42,1.17,-0.13,-0.02,-0.96,31.80,83.89,5131.03,943.80,5130.13,1
6242.142520,152.17,-7.42,1.17,-0.13,-0.02,-0.96,31.80,83.85,5142.80,952.86,5142.49,1
6242.152207,152.17,-7.42,1.17,-0.13,-0.02,-0.96,31.80,83.85,5142.80,927.08,5143.71,1
6242.161917,152.17,-7.42,1.16,-0.12,-0.02,-0.96,31.80,83.79,5160.95,949.38,5160.17,1
6242.171622,152.17,-7.42,1.16,-0.12,-0.02,-0.96,31.80,83.79,5160.95,925.00,5161.80,1
6242.181306,152.17,-7.42,1.16,-0.13,-0.02,-0.96,31.82,83.73,5181.65,954.66,5180.61,1
6242.190979,152.17,-7.42,1.17,-0.12,-0.02,-0.96,31.80,83.72,5185.79,942.44,5186.22,1
6242.200664,152.17,-7.42,1.17,-0.12,-0.02,-0.96,31.80,83.72,5185.79,914.87,5186.76,1
6242.210364,152.17,-7.42,1.17,-0.13,-0.02,-0.96,31.80,83.66,5205.23,940.97,5204.32,1
6242.220434,152.17,-7.42,1.17,-0.13,-0.02,-0.96,31.80,83.66,5205.23,917.20,5206.06,1
6242.230390,152.17,-7.42,1.17,-0.12,-0.02,-0.96,31.80,83.62,5217.03,922.22,5216.86,1
6242.245107,152.16,-7.42,1.17,-0.12,-0.02,-0.96,31.82,83.57,5232.66,940.65,5232.02,1
6242.254828,152.16,-7.42,1.17,-0.13,-0.02,-0.96,31.80,83.56,5236.49,926.84,5236.97,1
6242.264523,152.16,-7.42,1.17,-0.13,-0.02,-0.96,31.80,83.52,5247.03,929.03,5246.95,1
6242.274176,152.16,-7.42,1.17,-0.13,-0.02,-0.96,31.80,83.52,5247.03,903.25,5247.93,1
6242.283825,152.16,-7.42,1.17,-0.12,-0.02,-0.96,31.80,83.47,5263.95,922.81,5263.26,1
6242.293508,152.16,-7.42,1.17,-0.13,-0.02,-0.96,31.82,83.44,5274.49,928.39,5274.29,1
6242.303165,152.16,-7.42,1.17,-0.13,-0.02,-0.96,31.80,83.41,5282.48,925.32,5282.59,1
6242.312819,152.16,-7.42,1.17,-0.12,-0.02,-0.96,31.80,83.40,5287.59,913.43,5288.01,1
6242.322494,152.16,-7.42,1.17,-0.12,-0.02,-0.96,31.80,83.40,5287.59,886.70,5288.53,1
6242.332156,152.16,-7.42,1.17,-0.13,-0.02,-0.95,31.80,83.34,5307.09,913.85,5306.14,1
6242.341841,152.16,-7.42,1.17,-0.13,-0.02,-0.96,31.82,83.30,5318.93,924.05,5318.57,1
6242.351498,152.16,-7.42,1.17,-0.13,-0.02,-0.96,31.82,83.30,5318.93,899.19,5319.80,1
6242.361194,152.15,-7.42,1.16,-0.12,-0.02,-0.96,31.80,83.25,5334.61,915.47,5334.04,1
6242.370924,152.15,-7.42,1.16,-0.12,-0.02,-0.96,31.80,83.25,5334.61,891.44,5335.45,1
6242.380592,152.15,-7.42,1.16,-0.13,-0.02,-0.96,31.80,83.19,5354.14,918.80,5353.18,1
6242.395143,152.15,-7.42,1.17,-0.12,-0.02,-0.96,31.80,83.18,5358.30,907.42,5358.70,1
6242.404824,152.15,-7.42,1.16,-0.12,-0.02,-0.96,31.80,83.14,5370.15,914.08,5369.92,1
6242.414491,152.15,-7.42,1.16,-0.13,-0.02,-0.95,31.80,83.12,5377.84,910.68,5377.96,1
6242.424186,152.15,-7.42,1.16,-0.13,-0.02,-0.95,31.80,83.12,5377.84,884.86,5378.75,1
6242.433830,152.14,-7.42,1.16,-0.12,-0.02,-0.96,31.80,83.07,5393.55,901.53,5392.97,1
6242.443511,152.14,-7.42,1.16,-0.13,-0.02,-0.96,31.80,83.03,5405.42,911.13,5405.08,1
6242.453189,152.14,-7.42,1.16,-0.13,-0.02,-0.96,31.80,83.00,5413.44,909.02,5413.51,1
6242.462880,152.14,-7.42,1.17,-0.13,-0.02,-0.96,31.80,82.98,5421.14,904.93,5421.28,1
6242.472573,152.14,-7.42,1.17,-0.13,-0.02,-0.96,31.80,82.98,5421.14,879.21,5422.04,1
6242.482222,152.14,-7.42,1.17,-0.12,-0.02,-0.96,31.80,82.93,5435.90,893.40,5435.41,1
6242.491910,152.13,-7.42,1.17,-0.13,-0.02,-0.96,31.80,82.89,5448.75,905.73,5448.32,1
6242.501562,152.13,-7.42,1.17,-0.13,-0.02,-0.96,31.80,82.89,5448.75,881.60,5449.59,1
6242.511366,152.13,-7.42,1.17,-0.12,-0.02,-0.96,31.80,82.86,5460.64,887.83,5460.42,1
6242.521042,152.13,-7.42,1.17,-0.12,-0.02,-0.96,31.80,82.86,5460.64,863.59,5461.48,1
6242.530707,152.13,-7.42,1.17,-0.13,-0.02,-0.96,31.82,82.80,5479.28,889.21,5478.38,1
6242.540396,152.13,-7.42,1.17,-0.13,-0.02,-0.96,31.80,82.76,5492.14,902.83,5491.66,1
6242.555103,152.13,-7.42,1.17,-0.12,-0.02,-0.96,31.82,82.76,5490.85,875.30,5491.82,1
6242.564822,152.13,-7.42,1.17,-0.13,-0.02,-0.96,31.82,82.72,5504.04,885.02,5503.70,1
6242.574471,152.13,-7.42,1.17,-0.13,-0.02,-0.96,31.80,82.71,5507.90,872.00,5508.36,1
6242.584141,152.12,-7.42,1.17,-0.13,-0.02,-0.96,31.81,82.66,5522.71,887.76,5522.15,1
6242.593795,152.12,-7.42,1.17,-0.12,-0.02,-0.96,31.80,82.65,5527.53,877.97,5527.88,1
6242.603452,152.12,-7.42,1.17,-0.13,-0.02,-0.96,31.80,82.62,5535.58,874.97,5535.69,1
6242.613162,152.12,-7.42,1.17,-0.13,-0.02,-0.96,31.82,82.60,5542.35,869.12,5542.55,1
6242.627653,152.12,-7.42,1.17,-0.12,-0.02,-0.96,31.82,82.57,5554.27,877.58,5553.97,1
6242.632495,152.12,-7.42,1.17,-0.12,-0.02,-0.96,31.80,82.55,5559.42,868.28,5559.75,1
6242.642192,152.11,-7.42,1.17,-0.13,-0.02,-0.96,31.80,82.52,5570.06,872.83,5569.90,1
6242.651858,152.11,-7.42,1.17,-0.13,-0.02,-0.96,31.80,82.52,5570.06,848.85,5570.90,1
6242.661568,152.11,-7.42,1.17,-0.12,-0.02,-0.96,31.80,82.46,5587.15,870.58,5586.39,1
6242.671211,152.11,-7.42,1.17,-0.12,-0.02,-0.96,31.80,82.46,5587.15,848.34,5587.93,1
6242.680882,152.11,-7.42,1.17,-0.13,-0.02,-0.95,31.81,82.43,5598.76,854.93,5598.53,1
6242.690566,152.11,-7.42,1.17,-0.13,-0.02,-0.96,31.82,82.41,5605.54,850.61,5605.69,1
6242.705121,152.11,-7.42,1.17,-0.12,-0.02,-0.96,31.82,82.37,5617.48,859.80,5617.16,1
6242.714773,152.11,-7.42,1.17,-0.12,-0.02,-0.96,31.80,82.34,5626.52,861.94,5626.45,1
6242.724448,152.11,-7.42,1.17,-0.13,-0.02,-0.96,31.82,82.32,5634.60,860.63,5634.64,1
6242.734115,152.11,-7.42,1.17,-0.13,-0.02,-0.96,31.82,82.31,5637.50,844.55,5638.07,1
6242.743767,152.11,-7.42,1.17,-0.12,-0.02,-0.96,31.81,82.27,5649.14,851.89,5648.88,1
6242.753411,152.11,-7.42,1.17,-0.12,-0.02,-0.96,31.80,82.24,5658.51,855.00,5658.40,1
6242.763104,152.11,-7.41,1.17,-0.13,-0.02,-0.96,31.80,82.22,5666.27,853.09,5666.33,1
6242.772746,152.11,-7.41,1.17,-0.13,-0.02,-0.96,31.80,82.22,5666.27,829.03,5667.11,1
6242.782425,152.11,-7.41,1.17,-0.12,-0.02,-0.96,31.80,82.17,5682.11,847.81,5681.45,1
6242.792134,152.11,-7.41,1.17,-0.12,-0.02,-0.96,31.80,82.15,5690.20,848.56,5690.17,1
6242.801842,152.11,-7.41,1.17,-0.12,-0.02,-0.96,31.80,82.15,5690.20,824.89,5691.03,1
6242.811539,152.10,-7.41,1.17,-0.13,-0.02,-0.96,31.81,82.11,5702.17,833.00,5701.89,1
6242.821188,152.10,-7.41,1.17,-0.13,-0.02,-0.96,31.81,82.11,5702.17,810.48,5702.96,1
6242.830931,152.10,-7.41,1.17,-0.12,-0.02,-0.96,31.80,82.05,5721.92,840.86,5720.86,1
6242.840652,152.10,-7.41,1.17,-0.13,-0.02,-0.96,31.80,82.02,5729.70,842.06,5729.66,1
6242.850359,152.10,-7.41,1.17,-0.13,-0.02,-0.96,31.80,82.02,5729.70,818.61,5730.52,1
6242.865052,152.10,-7.41,1.17,-0.12,-0.02,-0.96,31.82,81.96,5749.79,849.63,5748.70,1
6242.874924,152.10,-7.41,1.17,-0.12,-0.02,-0.96,31.80,81.95,5753.68,839.77,5754.02,1
6242.884636,152.10,-7.41,1.17,-0.13,-0.02,-0.96,31.80,81.94,5756.60,823.48,5757.17,1
6242.894299,152.10,-7.41,1.17,-0.13,-0.02,-0.96,31.80,81.91,5765.68,824.24,5765.65,1
6242.903944,152.10,-7.41,1.17,-0.12,-0.02,-0.96,31.81,81.88,5776.38,831.20,5776.13,1
6242.913592,152.10,-7.41,1.17,-0.12,-0.02,-0.96,31.81,81.86,5781.57,823.15,5781.85,1
6242.923302,152.10,-7.41,1.17,-0.12,-0.02,-0.96,31.81,81.86,5781.57,799.33,5782.40,1
6242.933064,152.11,-7.41,1.17,-0.13,-0.02,-0.96,31.80,81.80,5801.37,830.03,5800.29,1
6242.942711,152.10,-7.41,1.17,-0.12,-0.02,-0.96,31.80,81.79,5805.59,821.62,5805.88,1
6242.952481,152.10,-7.41,1.17,-0.12,-0.02,-0.96,31.80,81.77,5813.38,819.61,5813.45,1
6242.962140,152.11,-7.41,1.17,-0.13,-0.02,-0.96,31.82,81.74,5820.20,815.57,5820.34,1
6242.971946,152.11,-7.41,1.17,-0.13,-0.02,-0.96,31.82,81.74,5820.20,792.35,5821.01,1
6242.981635,152.11,-7.41,1.17,-0.12,-0.02,-0.96,31.81,81.70,5836.12,812.45,5835.42,1
6242.991298,152.10,-7.41,1.17,-0.12,-0.02,-0.96,31.82,81.67,5844.25,814.43,5844.18,1
6243.000961,152.10,-7.41,1.17,-0.12,-0.02,-0.96,31.82,81.67,5844.25,791.83,5845.04,1
6243.010750,152.11,-7.41,1.17,-0.13,-0.02,-0.96,31.80,81.62,5861.16,814.78,5860.35,1
6243.020428,152.11,-7.41,1.17,-0.13,-0.02,-0.96,31.80,81.62,5861.16,794.22,5861.88,1
6243.035111,152.11,-7.41,1.17,-0.12,-0.02,-0.96,31.81,81.59,5869.29,792.74,5869.34,1
6243.044797,152.11,-7.41,1.17,-0.13,-0.02,-0.96,31.80,81.54,5885.23,815.03,5884.45,1
6243.054459,152.11,-7.41,1.17,-0.13,-0.02,-0.95,31.81,81.53,5889.14,805.33,5889.48,1
6243.064118,152.11,-7.41,1.17,-0.12,-0.02,-0.96,31.80,81.49,5904.12,823.77,5903.47,1
6243.073842,152.11,-7.41,1.17,-0.12,-0.02,-0.96,31.80,81.49,5904.12,802.52,5904.86,1
6243.083545,152.11,-7.41,1.17,-0.13,-0.02,-0.96,31.82,81.46,5913.24,803.50,5913.20,1
