Time,Yaw,Pitch,Roll,a_x,a_y,a_z,Temperature,Pressure,Altitude,kf_velocity,kf_altitude,triggerAltitudeAchieved
8041.24,-15.43,-68.02,-21.60,-0.91,0.14,-0.34,34.99,99.33,549.29,1.96,470.82,0
8041.25,-15.43,-68.02,-21.60,-0.92,0.14,-0.35,35.01,99.33,547.90,2.78,527.92,0
8041.26,-15.43,-68.03,-21.58,-0.92,0.14,-0.35,35.00,99.32,552.62,3.18,546.02,0
8041.27,-15.43,-68.03,-21.58,-0.92,0.13,-0.34,34.99,99.32,552.62,3.32,550.86,0
8041.28,-15.43,-68.02,-21.59,-0.91,0.14,-0.34,34.99,99.32,552.62,3.37,552.15,0
8041.29,-15.43,-68.02,-21.59,-0.92,0.14,-0.34,34.99,99.33,549.29,3.28,550.06,0
8041.30,-15.43,-68.02,-21.58,-0.92,0.14,-0.34,34.99,99.33,549.29,3.25,549.50,0
8041.31,-15.42,-68.02,-21.59,-0.92,0.14,-0.34,34.99,99.33,547.90,3.19,548.34,0
8041.32,-15.42,-68.02,-21.58,-0.91,0.13,-0.34,34.99,99.33,549.29,3.23,549.04,0
8041.33,-15.42,-68.03,-21.58,-0.91,0.14,-0.34,34.99,99.33,549.29,3.24,549.23,0
8041.34,-15.43,-68.02,-21.59,-0.92,0.14,-0.34,34.97,99.32,552.62,3.42,551.72,0
8041.35,-15.43,-68.02,-21.59,-0.92,0.13,-0.34,34.99,99.33,549.29,3.28,549.94,0
8041.36,-15.43,-68.03,-21.58,-0.91,0.13,-0.34,34.99,99.34,545.68,3.01,546.83,0
8041.37,-15.43,-68.03,-21.58,-0.92,0.13,-0.34,34.99,99.32,552.62,3.40,551.07,0
8041.38,-15.42,-68.02,-21.59,-0.92,0.14,-0.34,34.99,99.33,549.29,3.27,549.77,0
8041.39,-15.42,-68.02,-21.58,-0.92,0.13,-0.34,34.99,99.32,552.62,3.48,551.86,0
8041.40,-15.43,-68.02,-21.58,-0.91,0.13,-0.34,34.99,99.33,549.29,3.27,549.98,0
8041.41,-15.42,-68.03,-21.59,-0.92,0.14,-0.35,34.99,99.32,552.62,3.49,551.92,0
8041.42,-15.42,-68.02,-21.58,-0.92,0.14,-0.34,34.99,99.33,549.29,3.26,550.00,0
8041.43,-15.42,-68.03,-21.58,-0.92,0.13,-0.34,34.99,99.33,549.29,3.19,549.48,0
8041.44,-15.42,-68.03,-21.58,-0.91,0.13,-0.34,34.99,99.32,552.62,3.50,551.79,0
8041.45,-15.42,-68.03,-21.58,-0.92,0.14,-0.34,35.00,99.32,551.51,3.46,551.59,0
8041.46,-15.42,-68.03,-21.59,-0.92,0.14,-0.35,34.99,99.32,552.62,3.57,552.35,0
8041.47,-15.42,-68.03,-21.58,-0.92,0.14,-0.34,34.99,99.33,549.29,3.23,550.11,0
8041.48,-15.43,-68.03,-21.58,-0.91,0.13,-0.34,34.99,99.32,552.62,3.52,551.95,0
8041.49,-15.43,-68.03,-21.58,-0.92,0.14,-0.34,34.99,99.32,552.62,3.59,552.45,0
8041.50,-15.43,-68.03,-21.58,-0.92,0.13,-0.34,34.99,99.33,549.29,3.20,550.14,0
8041.51,-15.42,-68.03,-21.58,-0.91,0.13,-0.34,34.99,99.33,549.29,3.08,549.52,0
8041.52,-15.42,-68.03,-21.58,-0.91,0.14,-0.34,34.99,99.32,552.62,3.50,551.80,0
8041.53,-15.42,-68.03,-21.58,-0.92,0.13,-0.34,34.99,99.33,549.29,3.15,549.97,0
8041.54,-15.43,-68.03,-21.57,-0.92,0.14,-0.34,34.99,99.33,549.29,3.05,549.48,0
8041.55,-15.42,-68.02,-21.58,-0.92,0.14,-0.35,34.99,99.33,549.29,3.02,549.34,0
8041.56,-15.42,-68.02,-21.58,-0.91,0.13,-0.35,34.99,99.32,552.62,3.51,551.75,0
8041.57,-15.42,-68.02,-21.58,-0.92,0.14,-0.34,34.99,99.33,549.29,3.12,549.95,0
8041.58,-15.42,-68.03,-21.57,-0.92,0.14,-0.34,34.99,99.32,552.62,3.55,551.91,0
8041.59,-15.43,-68.03,-21.57,-0.91,0.13,-0.34,34.99,99.32,552.62,3.66,552.44,0
8041.60,-15.42,-68.02,-21.58,-0.91,0.13,-0.35,34.99,99.32,552.62,3.69,552.58,0
8041.61,-15.42,-68.03,-21.58,-0.92,0.14,-0.34,35.00,99.33,547.90,2.87,549.16,0
8041.62,-15.42,-68.03,-21.58,-0.92,0.13,-0.34,34.99,99.32,552.62,3.49,551.70,0
8041.63,-15.42,-68.02,-21.58,-0.91,0.13,-0.34,34.99,99.33,549.29,3.04,549.94,0
8041.64,-15.43,-68.03,-21.57,-0.91,0.13,-0.34,34.99,99.33,549.29,2.92,549.47,0
8041.65,-15.43,-68.03,-21.57,-0.92,0.14,-0.34,34.99,99.33,549.29,2.88,549.34,0
8041.66,-15.43,-68.03,-21.56,-0.92,0.13,-0.34,34.99,99.32,552.62,3.52,551.75,0
8041.67,-15.43,-68.02,-21.58,-0.91,0.14,-0.34,34.99,99.32,552.62,3.68,552.39,0
8041.68,-15.43,-68.03,-21.58,-0.92,0.14,-0.35,34.99,99.31,553.73,3.95,553.38,0
8041.69,-15.43,-68.03,-21.57,-0.92,0.14,-0.34,34.99,99.33,549.29,3.10,550.39,0
8041.70,-15.42,-68.03,-21.57,-0.92,0.13,-0.34,34.99,99.32,552.62,3.57,552.03,0
8041.71,-15.42,-68.03,-21.57,-0.91,0.14,-0.35,34.99,99.32,552.62,3.69,552.47,0
8041.72,-15.42,-68.03,-21.58,-0.92,0.13,-0.34,34.99,99.33,549.29,2.99,550.15,0
8041.73,-15.42,-68.03,-21.58,-0.92,0.14,-0.34,34.99,99.33,549.29,2.79,549.52,0
8041.74,-15.42,-68.02,-21.58,-0.91,0.13,-0.34,34.99,99.32,552.62,3.49,551.80,0
8041.75,-15.41,-68.03,-21.58,-0.91,0.14,-0.34,34.99,99.33,549.29,2.90,549.97,0
8041.76,-15.41,-68.03,-21.58,-0.91,0.14,-0.34,34.99,99.33,549.29,2.74,549.47,0
8041.77,-15.41,-68.03,-21.58,-0.92,0.13,-0.35,34.99,99.32,552.62,3.49,551.78,0
8041.78,-15.40,-68.03,-21.58,-0.92,0.14,-0.34,34.99,99.33,549.29,2.88,549.96,0
8041.79,-15.40,-68.02,-21.58,-0.91,0.13,-0.34,34.99,99.33,549.29,2.71,549.47,0
8041.80,-15.40,-68.03,-21.59,-0.92,0.14,-0.34,34.99,99.32,552.62,3.50,551.78,0
8041.81,-15.40,-68.03,-21.58,-0.92,0.14,-0.35,34.99,99.32,552.62,3.70,552.40,0
8041.82,-15.40,-68.02,-21.59,-0.91,0.13,-0.34,34.99,99.32,552.62,3.76,552.57,0
8041.83,-15.40,-68.02,-21.59,-0.91,0.14,-0.34,34.99,99.33,549.29,2.88,550.17,0
8041.84,-15.40,-68.02,-21.59,-0.92,0.14,-0.34,35.00,99.33,547.90,2.27,548.51,0
8041.85,-15.40,-68.02,-21.58,-0.92,0.14,-0.34,34.99,99.32,552.62,3.38,551.52,0
8041.86,-15.40,-68.02,-21.59,-0.91,0.13,-0.34,35.00,99.33,547.90,2.37,548.88,0
8041.87,-15.40,-68.02,-21.59,-0.91,0.14,-0.34,34.99,99.32,552.62,3.42,551.62,0
8041.88,-15.40,-68.02,-21.59,-0.92,0.14,-0.34,34.99,99.33,549.29,2.75,549.92,0
8041.89,-15.40,-68.02,-21.59,-0.91,0.13,-0.34,34.99,99.32,552.62,3.52,551.90,0
8041.90,-15.39,-68.02,-21.59,-0.91,0.14,-0.34,34.99,99.32,552.62,3.73,552.43,0
8041.91,-15.39,-68.02,-21.59,-0.92,0.14,-0.34,35.00,99.33,549.29,2.79,550.14,0
8041.92,-15.40,-68.02,-21.59,-0.92,0.14,-0.34,34.99,99.33,549.29,2.53,549.52,0
8041.93,-15.40,-68.02,-21.59,-0.92,0.14,-0.34,34.99,99.33,549.29,2.46,549.36,0
8041.94,-15.39,-68.02,-21.59,-0.91,0.14,-0.34,35.00,99.32,551.51,3.11,550.94,0
8041.95,-15.38,-68.02,-21.60,-0.92,0.14,-0.34,34.99,99.32,552.62,3.63,552.17,0
8041.96,-15.38,-68.02,-21.59,-0.92,0.14,-0.34,35.00,99.33,547.90,2.28,549.05,0
8041.97,-15.39,-68.02,-21.59,-0.91,0.13,-0.34,34.99,99.33,549.29,2.35,549.23,0
8041.98,-15.38,-68.02,-21.59,-0.91,0.14,-0.34,34.99,99.33,549.29,2.36,549.28,0
8041.99,-15.38,-68.02,-21.60,-0.92,0.14,-0.35,34.99,99.32,552.62,3.45,551.73,0
8042.00,-15.38,-68.02,-21.59,-0.92,0.14,-0.35,34.99,99.33,549.29,2.64,549.95,0
8042.01,-15.38,-68.02,-21.60,-0.91,0.13,-0.34,34.99,99.32,552.62,3.52,551.91,0
8042.02,-15.38,-68.02,-21.60,-0.91,0.13,-0.34,34.99,99.32,552.62,3.75,552.44,0
8042.03,-15.38,-68.02,-21.59,-0.92,0.14,-0.34,34.99,99.33,549.29,2.67,550.14,0
8042.04,-15.38,-68.02,-21.59,-0.92,0.13,-0.34,34.99,99.33,549.29,2.38,549.52,0
8042.05,-15.38,-68.02,-21.59,-0.91,0.13,-0.34,34.99,99.33,549.29,2.29,549.35,0
8042.06,-15.38,-68.02,-21.60,-0.92,0.14,-0.35,34.99,99.32,552.62,3.43,551.75,0
8042.07,-15.38,-68.02,-21.60,-0.92,0.13,-0.34,34.99,99.33,549.29,2.55,549.95,0
8042.08,-15.38,-68.02,-21.59,-0.91,0.13,-0.35,34.99,99.33,549.29,2.31,549.47,0
8042.09,-15.38,-68.02,-21.59,-0.91,0.14,-0.34,34.99,99.32,552.62,3.44,551.78,0
8042.10,-15.39,-68.02,-21.59,-0.92,0.14,-0.34,34.99,99.32,552.62,3.74,552.40,0
8042.11,-15.38,-68.02,-21.59,-0.91,0.13,-0.35,34.99,99.33,549.29,2.59,550.13,0
8042.12,-15.39,-68.02,-21.59,-0.91,0.13,-0.34,34.99,99.33,549.29,2.27,549.52,0
8042.13,-15.38,-68.02,-21.59,-0.92,0.14,-0.34,34.99,99.33,549.29,2.18,549.35,0
8042.14,-15.38,-68.02,-21.59,-0.92,0.14,-0.34,34.98,99.32,552.62,3.41,551.75,0
8042.15,-15.39,-68.02,-21.59,-0.92,0.13,-0.34,34.99,99.33,549.29,2.46,549.95,0
8042.16,-15.39,-68.02,-21.59,-0.91,0.13,-0.35,35.00,99.33,549.29,2.20,549.47,0
8042.17,-15.39,-68.02,-21.59,-0.92,0.14,-0.34,34.99,99.32,552.62,3.42,551.78,0
8042.18,-15.38,-68.02,-21.59,-0.92,0.14,-0.35,34.99,99.33,549.29,2.43,549.96,0
8042.19,-15.38,-68.02,-21.59,-0.92,0.14,-0.34,34.99,99.33,549.29,2.16,549.47,0
8042.20,-15.38,-68.02,-21.60,-0.91,0.13,-0.35,34.99,99.33,549.29,2.08,549.34,0
8042.21,-15.39,-68.02,-21.59,-0.91,0.14,-0.34,34.99,99.33,549.29,2.06,549.31,0
8042.22,-15.39,-68.02,-21.59,-0.92,0.13,-0.34,35.01,99.33,547.90,1.48,548.28,0
8042.23,-15.39,-68.02,-21.60,-0.92,0.13,-0.35,35.00,99.33,549.29,1.89,549.02,0
8042.24,-15.38,-68.02,-21.60,-0.91,0.14,-0.34,34.99,99.32,552.62,3.36,551.66,0
8042.25,-15.39,-68.02,-21.60,-0.92,0.14,-0.35,34.99,99.32,551.51,3.29,551.55,0
8042.26,-15.39,-68.02,-21.59,-0.92,0.14,-0.35,35.00,99.33,549.29,2.34,549.90,0
8042.27,-15.39,-68.02,-21.59,-0.91,0.13,-0.34,34.99,99.33,549.29,2.07,549.46,0
8042.28,-15.39,-68.02,-21.60,-0.91,0.13,-0.34,35.00,99.32,552.62,3.41,551.78,0
8042.29,-15.39,-68.02,-21.59,-0.92,0.14,-0.34,35.00,99.33,549.29,2.34,549.96,0
8042.30,-15.40,-68.02,-21.59,-0.91,0.14,-0.35,34.99,99.32,552.62,3.47,551.91,0
8042.31,-15.39,-68.02,-21.59,-0.91,0.14,-0.34,34.99,99.34,545.68,0.77,547.35,0
8042.33,-15.39,-68.02,-21.59,-0.92,0.14,-0.35,34.99,99.32,552.62,3.06,551.21,0
8042.34,-15.39,-68.02,-21.59,-0.92,0.14,-0.34,34.99,99.32,552.62,3.67,552.25,0
8042.35,-15.39,-68.02,-21.59,-0.91,0.14,-0.35,34.99,99.33,549.29,2.35,550.09,0
8042.36,-15.39,-68.02,-21.59,-0.92,0.14,-0.34,34.99,99.33,549.29,1.99,549.51,0
8042.37,-15.40,-68.02,-21.59,-0.91,0.13,-0.34,34.99,99.33,549.29,1.89,549.35,0
8042.38,-15.40,-68.03,-21.59,-0.91,0.14,-0.35,34.99,99.33,549.29,1.86,549.31,0
8042.39,-15.40,-68.03,-21.59,-0.92,0.14,-0.35,34.99,99.33,549.29,1.84,549.30,0
8042.40,-15.40,-68.03,-21.59,-0.91,0.13,-0.35,35.00,99.33,549.29,1.84,549.29,0
8042.41,-15.41,-68.02,-21.60,-0.91,0.14,-0.34,34.99,99.33,549.29,1.83,549.29,0
8042.42,-15.41,-68.02,-21.60,-0.91,0.14,-0.34,34.99,99.32,552.62,3.35,551.73,0
8042.43,-15.41,-68.03,-21.59,-0.92,0.14,-0.34,34.99,99.33,549.29,2.21,549.95,0
8042.44,-15.41,-68.03,-21.59,-0.91,0.14,-0.34,34.99,99.32,552.62,3.45,551.91,0
8042.45,-15.40,-68.02,-21.60,-0.92,0.14,-0.34,34.99,99.33,549.29,2.21,549.99,0
8042.46,-15.40,-68.02,-21.60,-0.92,0.14,-0.34,34.99,99.33,549.29,1.87,549.48,0
8042.47,-15.40,-68.02,-21.60,-0.92,0.14,-0.34,34.99,99.33,549.29,1.78,549.34,0
8042.48,-15.41,-68.03,-21.59,-0.92,0.13,-0.34,35.01,99.33,549.29,1.74,549.31,0
8042.49,-15.41,-68.03,-21.59,-0.92,0.14,-0.34,34.99,99.33,549.29,1.73,549.30,0
8042.50,-15.40,-68.03,-21.60,-0.91,0.13,-0.34,34.99,99.32,552.62,3.33,551.74,0
8042.51,-15.40,-68.02,-21.60,-0.92,0.14,-0.34,34.99,99.33,549.29,2.13,549.95,0
8042.52,-15.40,-68.03,-21.59,-0.91,0.13,-0.35,34.99,99.33,549.29,1.80,549.47,0
8042.54,-15.40,-68.03,-21.59,-0.91,0.13,-0.35,34.99,99.32,552.62,3.34,551.78,0
8042.55,-15.40,-68.03,-21.59,-0.91,0.13,-0.35,34.99,99.32,552.62,3.74,552.40,0
8042.56,-15.40,-68.03,-21.59,-0.91,0.14,-0.34,35.00,99.33,549.29,2.19,550.13,0
8042.57,-15.40,-68.02,-21.60,-0.91,0.13,-0.35,34.99,99.33,549.29,1.77,549.52,0
8042.58,-15.40,-68.03,-21.59,-0.92,0.14,-0.34,34.99,99.33,549.29,1.65,549.35,0
8042.59,-15.40,-68.03,-21.59,-0.91,0.13,-0.34,34.99,99.32,552.62,3.28,551.75,0
8042.60,-15.40,-68.03,-21.59,-0.92,0.14,-0.34,34.99,99.33,549.29,2.03,549.95,0
8042.61,-15.40,-68.03,-21.60,-0.92,0.14,-0.34,34.99,99.33,549.29,1.69,549.47,0
8042.62,-15.40,-68.03,-21.60,-0.92,0.14,-0.34,34.99,99.33,549.29,1.60,549.34,0
8042.63,-15.40,-68.03,-21.60,-0.92,0.13,-0.34,34.99,99.33,549.29,1.56,549.31,0
8042.64,-15.40,-68.03,-21.59,-0.92,0.14,-0.34,34.99,99.32,552.62,3.26,551.74,0
8042.65,-15.40,-68.03,-21.59,-0.91,0.13,-0.34,34.99,99.33,549.29,1.99,549.95,0
8042.66,-15.40,-68.03,-21.60,-0.92,0.14,-0.35,34.99,99.33,549.29,1.64,549.47,0
8042.67,-15.40,-68.03,-21.60,-0.91,0.14,-0.34,34.98,99.31,553.73,3.85,552.59,0
8042.69,-15.40,-68.03,-21.59,-0.91,0.13,-0.34,34.98,99.33,549.29,2.11,550.18,0
8042.70,-15.40,-68.03,-21.59,-0.91,0.14,-0.34,34.99,99.33,549.29,1.64,549.53,0
8042.71,-15.40,-68.03,-21.59,-0.91,0.14,-0.34,34.99,99.33,549.29,1.51,549.36,0
8042.72,-15.40,-68.03,-21.59,-0.91,0.14,-0.34,34.99,99.33,549.29,1.47,549.31,0
8042.73,-15.40,-68.03,-21.60,-0.92,0.14,-0.34,34.99,99.32,552.62,3.22,551.74,0
8042.74,-15.40,-68.03,-21.59,-0.91,0.14,-0.34,34.99,99.33,549.29,1.90,549.95,0
8042.75,-15.40,-68.03,-21.59,-0.92,0.13,-0.34,34.99,99.32,552.62,3.33,551.91,0
8042.76,-15.40,-68.03,-21.59,-0.92,0.14,-0.35,35.00,99.32,551.51,3.10,551.62,0
8042.77,-15.40,-68.03,-21.60,-0.92,0.14,-0.34,34.99,99.33,549.29,1.83,549.92,0
8042.79,-15.40,-68.03,-21.60,-0.92,0.14,-0.34,34.99,99.33,549.29,1.48,549.46,0
8042.80,-15.40,-68.03,-21.60,-0.92,0.14,-0.34,34.99,99.33,549.29,1.39,549.34,0
8042.81,-15.40,-68.03,-21.59,-0.91,0.13,-0.34,35.00,99.32,551.51,2.57,550.93,0
8042.82,-15.40,-68.03,-21.59,-0.92,0.14,-0.34,34.99,99.33,549.29,1.66,549.73,0
8042.83,-15.40,-68.02,-21.60,-0.91,0.13,-0.34,34.99,99.33,549.29,1.41,549.41,0
8042.84,-15.40,-68.03,-21.60,-0.91,0.14,-0.34,34.99,99.32,552.62,3.17,551.77,0
8042.85,-15.40,-68.03,-21.59,-0.91,0.13,-0.35,35.01,99.31,554.84,4.86,554.02,0
8042.86,-15.40,-68.03,-21.59,-0.91,0.13,-0.34,34.99,99.33,549.29,2.22,550.56,0
8042.87,-15.40,-68.03,-21.59,-0.91,0.13,-0.34,34.99,99.33,549.29,1.50,549.63,0
8042.88,-15.40,-68.03,-21.59,-0.92,0.14,-0.34,34.99,99.33,549.29,1.30,549.38,0
8042.89,-15.40,-68.03,-21.60,-0.91,0.14,-0.34,35.00,99.32,551.51,2.49,550.94,0
8042.90,-15.41,-68.03,-21.59,-0.92,0.14,-0.35,34.99,99.33,549.29,1.55,549.73,0
8042.91,-15.41,-68.03,-21.59,-0.92,0.14,-0.35,34.99,99.33,549.29,1.30,549.41,0
8042.92,-15.41,-68.03,-21.60,-0.92,0.14,-0.34,35.01,99.32,551.51,2.48,550.95,0
8042.94,-15.41,-68.03,-21.60,-0.92,0.14,-0.34,34.99,99.32,552.62,3.42,552.18,0
8042.95,-15.41,-68.03,-21.60,-0.92,0.14,-0.34,34.99,99.32,552.62,3.66,552.51,0
8042.96,-15.41,-68.03,-21.60,-0.91,0.13,-0.34,34.99,99.33,549.29,1.80,550.15,0
8042.97,-15.41,-68.03,-21.59,-0.92,0.13,-0.34,35.00,99.33,549.29,1.30,549.52,0
8042.98,-15.40,-68.03,-21.60,-0.91,0.14,-0.34,35.01,99.32,552.62,3.08,551.80,0
8042.99,-15.40,-68.03,-21.60,-0.91,0.14,-0.35,34.99,99.32,552.62,3.54,552.40,0
8043.00,-15.40,-68.03,-21.60,-0.91,0.14,-0.34,34.99,99.33,549.29,1.73,550.13,0
8043.01,-15.40,-68.03,-21.59,-0.91,0.14,-0.34,34.99,99.32,552.62,3.17,551.96,0
8043.02,-15.40,-68.03,-21.59,-0.91,0.14,-0.34,34.99,99.32,552.62,3.54,552.45,0
8043.03,-15.40,-68.03,-21.60,-0.92,0.14,-0.34,35.00,99.33,549.29,1.68,550.14,0
8043.04,-15.40,-68.03,-21.60,-0.91,0.13,-0.34,34.99,99.33,549.29,1.18,549.52,0
8043.05,-15.40,-68.03,-21.60,-0.92,0.14,-0.34,34.99,99.32,552.62,3.00,551.79,0
8043.06,-15.40,-68.03,-21.59,-0.92,0.14,-0.35,34.99,99.32,552.62,3.47,552.40,0
8043.07,-15.40,-68.03,-21.59,-0.92,0.14,-0.34,34.99,99.32,552.62,3.59,552.57,0
8043.09,-15.40,-68.03,-21.60,-0.92,0.14,-0.34,35.00,99.33,547.90,0.81,549.15,0
8043.10,-15.40,-68.03,-21.60,-0.92,0.14,-0.34,35.00,99.33,547.90,0.07,548.24,0
8043.11,-15.40,-68.03,-21.60,-0.91,0.13,-0.34,34.99,99.32,552.62,2.67,551.45,0
8043.12,-15.40,-68.03,-21.59,-0.92,0.14,-0.35,34.99,99.33,549.29,1.38,549.87,0
8043.13,-15.40,-68.03,-21.59,-0.91,0.13,-0.34,34.99,99.33,549.29,1.02,549.45,0
8043.14,-15.40,-68.03,-21.59,-0.91,0.14,-0.34,34.99,99.32,552.62,2.92,551.77,0
8043.15,-15.40,-68.03,-21.59,-0.91,0.14,-0.34,35.01,99.33,547.90,0.58,548.94,0
8043.16,-15.40,-68.03,-21.59,-0.91,0.13,-0.34,34.99,99.33,549.29,0.79,549.20,0
8043.17,-15.40,-68.03,-21.59,-0.91,0.13,-0.34,34.99,99.33,549.29,0.84,549.27,0
8043.18,-15.40,-68.03,-21.59,-0.92,0.14,-0.35,35.00,99.32,552.62,2.87,551.73,0
8043.19,-15.40,-68.03,-21.59,-0.91,0.14,-0.34,34.99,99.33,549.29,1.38,549.94,0
8043.20,-15.41,-68.03,-21.59,-0.92,0.14,-0.34,34.99,99.32,552.62,3.00,551.91,0
8043.21,-15.40,-68.03,-21.59,-0.92,0.14,-0.35,34.99,99.34,545.68,-0.80,547.35,0
8043.22,-15.40,-68.03,-21.59,-0.92,0.13,-0.34,34.99,99.34,545.68,-1.82,546.13,0
8043.24,-15.40,-68.03,-21.59,-0.92,0.14,-0.34,34.99,99.33,549.29,0.13,548.44,0
8043.25,-15.40,-68.03,-21.59,-0.92,0.14,-0.34,34.99,99.33,549.29,0.65,549.06,0
8043.26,-15.40,-68.03,-21.59,-0.91,0.13,-0.34,35.00,99.33,549.29,0.78,549.23,0
8043.27,-15.40,-68.03,-21.59,-0.92,0.13,-0.35,34.99,99.32,552.62,2.87,551.72,0
8043.28,-15.40,-68.03,-21.59,-0.91,0.13,-0.34,34.99,99.33,549.29,1.36,549.94,0
8043.29,-15.40,-68.03,-21.59,-0.91,0.14,-0.34,34.99,99.32,552.62,3.01,551.91,0
8043.30,-15.40,-68.03,-21.59,-0.91,0.14,-0.35,34.99,99.33,549.29,1.37,549.99,0
8043.31,-15.40,-68.03,-21.59,-0.91,0.14,-0.35,34.99,99.32,552.62,3.00,551.92,0
8043.32,-15.40,-68.03,-21.59,-0.91,0.14,-0.35,34.99,99.32,552.62,3.42,552.44,0
8043.33,-15.41,-68.02,-21.59,-0.92,0.14,-0.34,34.99,99.32,552.62,3.52,552.58,0
8043.34,-15.41,-68.03,-21.59,-0.91,0.14,-0.34,34.99,99.33,549.29,1.45,550.17,0
8043.35,-15.41,-68.03,-21.59,-0.92,0.14,-0.35,35.01,99.32,551.51,2.29,551.15,0
8043.36,-15.41,-68.03,-21.59,-0.92,0.13,-0.35,35.00,99.33,549.29,1.11,549.79,0
8043.37,-15.41,-68.03,-21.59,-0.92,0.14,-0.34,34.99,99.32,552.62,2.88,551.87,0
8043.39,-15.41,-68.03,-21.59,-0.92,0.14,-0.35,34.99,99.33,549.29,1.25,549.98,0
8043.40,-15.41,-68.03,-21.59,-0.92,0.14,-0.35,34.99,99.33,549.29,0.80,549.48,0
8043.41,-15.41,-68.03,-21.59,-0.91,0.13,-0.34,34.99,99.33,549.29,0.68,549.34,0
8043.42,-15.41,-68.03,-21.59,-0.92,0.14,-0.34,34.99,99.33,549.29,0.65,549.30,0
8043.43,-15.41,-68.03,-21.59,-0.91,0.13,-0.34,34.99,99.32,552.62,2.75,551.74,0
8043.44,-15.41,-68.03,-21.59,-0.91,0.14,-0.34,34.99,99.32,552.62,3.30,552.39,0
8043.45,-15.41,-68.03,-21.60,-0.91,0.14,-0.34,34.99,99.33,549.29,1.31,550.12,0
8043.46,-15.41,-68.03,-21.59,-0.91,0.13,-0.34,34.99,99.33,549.29,0.78,549.51,0
8043.47,-15.41,-68.03,-21.59,-0.91,0.13,-0.34,34.99,99.33,549.29,0.63,549.35,0
8043.48,-15.41,-68.03,-21.59,-0.92,0.14,-0.34,34.99,99.33,547.90,-0.30,548.29,0
8043.49,-15.41,-68.03,-21.59,-0.91,0.14,-0.35,35.00,99.32,552.62,2.48,551.46,0
8043.50,-15.41,-68.02,-21.60,-0.92,0.14,-0.34,35.00,99.33,547.90,0.18,548.85,0
8043.51,-15.41,-68.03,-21.59,-0.92,0.14,-0.34,34.99,99.32,552.62,2.60,551.62,0
8043.52,-15.41,-68.03,-21.59,-0.91,0.13,-0.34,34.99,99.33,549.29,1.09,549.91,0
8043.54,-15.41,-68.03,-21.59,-0.92,0.14,-0.34,34.99,99.32,552.62,2.83,551.90,0
8043.55,-15.41,-68.03,-21.59,-0.92,0.14,-0.34,34.99,99.32,552.62,3.28,552.43,0
8043.56,-15.41,-68.03,-21.60,-0.91,0.14,-0.34,34.99,99.32,552.62,3.39,552.57,0
8043.57,-15.41,-68.03,-21.60,-0.92,0.14,-0.34,34.99,99.31,555.95,5.56,555.05,0
8043.58,-15.41,-68.03,-21.59,-0.91,0.14,-0.34,34.99,99.32,552.62,3.96,553.28,0
8043.59,-15.41,-68.03,-21.59,-0.92,0.13,-0.34,35.00,99.33,547.90,0.45,549.34,0
8043.61,-15.41,-68.03,-21.59,-0.92,0.13,-0.34,35.00,99.33,547.90,-0.49,548.29,0
8043.62,-15.41,-68.03,-21.60,-0.91,0.13,-0.34,34.99,99.32,552.62,2.34,551.46,0
8043.63,-15.41,-68.03,-21.59,-0.92,0.14,-0.34,34.99,99.32,552.62,3.08,552.31,0
8043.64,-15.41,-68.03,-21.59,-0.91,0.13,-0.34,34.99,99.32,552.62,3.27,552.54,0
8043.65,-15.41,-68.02,-21.60,-0.92,0.14,-0.34,34.99,99.32,552.62,3.31,552.60,0
8043.66,-15.41,-68.02,-21.60,-0.92,0.14,-0.34,34.99,99.32,552.62,3.30,552.62,0
8043.67,-15.41,-68.03,-21.59,-0.92,0.13,-0.34,35.00,99.33,549.29,1.10,550.18,0
8043.69,-15.41,-68.03,-21.59,-0.92,0.14,-0.35,34.99,99.31,555.95,4.89,554.41,0
8043.70,-15.41,-68.03,-21.59,-0.92,0.14,-0.35,34.99,99.31,555.95,5.88,555.55,0
8043.71,-15.41,-68.02,-21.60,-0.91,0.14,-0.34,34.99,99.33,549.29,1.73,550.97,0
8043.72,-15.41,-68.02,-21.59,-0.92,0.13,-0.34,34.99,99.32,552.62,2.81,552.18,0
8043.73,-15.41,-68.03,-21.58,-0.91,0.14,-0.35,34.98,99.32,552.62,3.09,552.51,0
8043.74,-15.41,-68.03,-21.59,-0.92,0.14,-0.34,35.01,99.33,547.90,0.03,549.13,0
8043.75,-15.41,-68.02,-21.59,-0.91,0.14,-0.34,34.99,99.32,552.62,2.34,551.69,0
8043.76,-15.41,-68.02,-21.59,-0.91,0.13,-0.34,35.00,99.32,552.62,2.94,552.38,0
8043.77,-15.41,-68.02,-21.59,-0.91,0.13,-0.34,35.00,99.32,552.62,3.09,552.56,0
8043.78,-15.41,-68.02,-21.59,-0.92,0.14,-0.34,35.00,99.33,547.90,-0.01,549.15,0
8043.79,-15.41,-68.03,-21.59,-0.92,0.13,-0.34,35.00,99.33,549.29,0.08,549.25,0
8043.80,-15.41,-68.02,-21.59,-0.92,0.14,-0.34,34.99,99.32,552.62,2.32,551.72,0
8043.81,-15.41,-68.02,-21.59,-0.92,0.14,-0.34,34.99,99.32,552.62,2.91,552.38,0
8043.82,-15.41,-68.03,-21.59,-0.92,0.13,-0.34,34.99,99.32,552.62,3.06,552.56,0
8043.84,-15.41,-68.03,-21.59,-0.92,0.14,-0.35,34.99,99.32,552.62,3.08,552.61,0
8043.85,-15.41,-68.03,-21.59,-0.92,0.14,-0.35,34.99,99.32,552.62,3.08,552.62,0
8043.86,-15.41,-68.02,-21.59,-0.91,0.13,-0.35,34.99,99.33,549.29,0.83,550.18,0
8043.87,-15.41,-68.02,-21.59,-0.92,0.14,-0.34,34.99,99.32,552.62,2.46,551.97,0
8043.88,-15.41,-68.03,-21.58,-0.91,0.13,-0.34,34.99,99.33,549.29,0.65,550.01,0
8043.89,-15.41,-68.03,-21.58,-0.91,0.13,-0.34,34.99,99.33,549.29,0.17,549.48,0
8043.90,-15.42,-68.02,-21.59,-0.91,0.14,-0.34,34.99,99.33,549.29,0.04,549.34,0
8043.91,-15.42,-68.02,-21.59,-0.91,0.13,-0.34,35.01,99.33,547.90,-0.93,548.28,0
8043.92,-15.42,-68.02,-21.59,-0.91,0.13,-0.34,35.01,99.33,547.90,-1.19,548.00,0
8043.93,-15.42,-68.03,-21.58,-0.92,0.14,-0.34,34.99,99.31,555.95,4.18,553.83,0
8043.94,-15.42,-68.03,-21.58,-0.91,0.13,-0.35,34.99,99.32,552.62,3.34,552.95,0
8043.95,-15.42,-68.02,-21.58,-0.92,0.14,-0.34,34.99,99.32,552.62,3.11,552.71,0
8043.96,-15.41,-68.02,-21.59,-0.92,0.14,-0.34,34.99,99.32,552.62,3.03,552.65,0
8043.97,-15.41,-68.02,-21.59,-0.92,0.13,-0.34,34.99,99.32,551.51,2.24,551.82,0
8043.99,-15.41,-68.03,-21.58,-0.92,0.13,-0.34,35.00,99.32,552.62,2.78,552.41,0
8044.00,-15.41,-68.03,-21.58,-0.92,0.13,-0.34,35.00,99.32,552.62,2.91,552.57,0
8044.01,-15.41,-68.03,-21.58,-0.92,0.13,-0.35,34.99,99.33,549.29,0.67,550.17,0
8044.02,-15.42,-68.02,-21.59,-0.92,0.14,-0.34,34.99,99.32,552.62,2.33,551.97,0
8044.03,-15.42,-68.03,-21.59,-0.91,0.13,-0.34,34.99,99.33,549.29,0.50,550.01,0
8044.04,-15.42,-68.03,-21.58,-0.91,0.14,-0.34,34.99,99.33,549.29,0.01,549.48,0
8044.05,-15.42,-68.03,-21.58,-0.92,0.13,-0.34,34.99,99.33,549.29,-0.12,549.34,0
8044.06,-15.41,-68.03,-21.59,-0.91,0.14,-0.34,35.00,99.33,547.90,-1.10,548.28,0
8044.07,-15.41,-68.03,-21.59,-0.91,0.14,-0.34,35.00,99.33,547.90,-1.36,548.00,0
8044.08,-15.42,-68.02,-21.59,-0.92,0.14,-0.35,35.01,99.33,549.29,-0.47,548.94,0
8044.09,-15.41,-68.03,-21.58,-0.91,0.14,-0.34,34.99,99.32,552.62,2.04,551.64,0
8044.10,-15.42,-68.03,-21.58,-0.92,0.14,-0.34,35.00,99.33,547.90,-0.52,548.90,0
8044.11,-15.42,-68.03,-21.58,-0.92,0.14,-0.35,34.99,99.33,549.29,-0.25,549.18,0
8044.12,-15.41,-68.02,-21.59,-0.92,0.14,-0.35,34.99,99.33,549.29,-0.18,549.26,0
8044.14,-15.41,-68.03,-21.58,-0.92,0.14,-0.35,34.99,99.34,545.68,-2.64,546.64,0
8044.15,-15.41,-68.03,-21.58,-0.92,0.14,-0.35,34.99,99.34,545.68,-3.28,545.93,0
8044.16,-15.41,-68.03,-21.58,-0.91,0.13,-0.34,34.99,99.32,552.62,1.33,550.83,0
8044.17,-15.41,-68.03,-21.58,-0.92,0.14,-0.34,35.00,99.33,549.29,0.26,549.70,0
8044.18,-15.42,-68.02,-21.59,-0.91,0.13,-0.34,34.99,99.32,552.62,2.27,551.84,0
8044.19,-15.42,-68.02,-21.58,-0.92,0.13,-0.34,34.99,99.33,549.29,0.50,549.97,0
8044.20,-15.42,-68.03,-21.58,-0.92,0.13,-0.34,34.99,99.33,549.29,0.03,549.47,0
8044.21,-15.42,-68.02,-21.58,-0.91,0.13,-0.34,34.99,99.32,552.62,2.20,551.78,0
8044.22,-15.42,-68.02,-21.58,-0.91,0.13,-0.34,34.99,99.32,552.62,2.77,552.40,0
8044.23,-15.42,-68.02,-21.58,-0.92,0.14,-0.34,35.00,99.33,549.29,0.61,550.12,0
8044.24,-15.42,-68.02,-21.58,-0.91,0.14,-0.35,34.99,99.32,552.62,2.33,551.95,0
8044.25,-15.42,-68.02,-21.58,-0.92,0.13,-0.34,34.99,99.32,552.62,2.78,552.45,0
8044.26,-15.42,-68.03,-21.57,-0.92,0.14,-0.34,34.99,99.32,552.62,2.89,552.58,0
8044.31,-15.42,-68.03,-21.57,-0.92,0.14,-0.34,34.99,99.32,552.62,2.90,552.61,0
8044.35,-15.42,-68.03,-21.57,-0.92,0.14,-0.34,34.99,99.32,552.62,2.89,552.62,0
8044.38,-15.42,-68.03,-21.57,-0.92,0.14,-0.34,34.99,99.32,552.62,2.88,552.62,0
8044.58,-15.42,-68.03,-21.57,-0.92,0.14,-0.34,34.99,99.32,552.62,2.86,552.63,0
8044.66,-15.42,-68.03,-21.57,-0.92,0.14,-0.34,34.99,99.32,552.62,2.85,552.63,0
8044.69,-15.42,-68.03,-21.57,-0.92,0.14,-0.34,34.99,99.32,552.62,2.83,552.63,0
8044.72,-15.42,-68.03,-21.57,-0.92,0.14,-0.34,34.99,99.32,552.62,2.81,552.63,0
8044.75,-15.42,-68.03,-21.57,-0.92,0.14,-0.34,34.99,99.32,552.62,2.79,552.63,0
8044.79,-15.42,-68.03,-21.57,-0.92,0.14,-0.34,34.99,99.32,552.62,2.78,552.63,0
8044.84,-15.42,-68.03,-21.57,-0.92,0.14,-0.34,34.99,99.32,552.62,2.76,552.63,0
8044.88,-15.42,-68.03,-21.57,-0.92,0.14,-0.34,34.99,99.32,552.62,2.75,552.63,0
8044.93,-15.42,-68.03,-21.57,-0.92,0.14,-0.34,34.99,99.32,552.62,2.73,552.63,0
8044.97,-15.42,-68.03,-21.57,-0.92,0.14,-0.34,34.99,99.32,552.62,2.71,552.63,0
8045.02,-15.42,-68.03,-21.57,-0.92,0.14,-0.34,34.99,99.32,552.62,2.70,552.63,0
8045.21,-15.42,-68.03,-21.57,-0.92,0.14,-0.34,34.99,99.32,552.62,2.68,552.63,0
8045.30,-15.42,-68.03,-21.57,-0.92,0.14,-0.34,34.99,99.32,552.62,2.66,552.62,0
8045.35,-15.42,-68.03,-21.57,-0.92,0.14,-0.34,34.99,99.32,552.62,2.65,552.62,0
8045.40,-15.42,-68.03,-21.57,-0.92,0.14,-0.34,34.99,99.32,552.62,2.63,552.62,0
8045.43,-15.42,-68.03,-21.57,-0.92,0.14,-0.34,34.99,99.32,552.62,2.62,552.62,0
8045.48,-15.42,-68.03,-21.57,-0.92,0.14,-0.34,34.99,99.32,552.62,2.60,552.62,0
8045.52,-15.42,-68.03,-21.57,-0.92,0.14,-0.34,34.99,99.32,552.62,2.59,552.62,0
8045.57,-15.42,-68.03,-21.57,-0.92,0.14,-0.34,34.99,99.32,552.62,2.57,552.62,0
8045.59,-15.42,-68.03,-21.57,-0.92,0.14,-0.34,34.99,99.32,552.62,2.56,552.62,0
8045.60,-15.43,-68.02,-21.58,-0.92,0.14,-0.34,34.99,99.32,552.62,2.54,552.62,0
8045.61,-15.42,-68.02,-21.58,-0.92,0.13,-0.34,34.99,99.32,552.62,2.52,552.62,0
8045.62,-15.42,-68.02,-21.58,-0.91,0.14,-0.35,34.98,99.32,551.51,1.73,551.81,0
8045.63,-15.43,-68.02,-21.57,-0.91,0.14,-0.35,34.99,99.34,545.68,-2.58,547.32,0
8045.64,-15.43,-68.02,-21.57,-0.92,0.14,-0.34,34.99,99.33,549.29,-1.19,548.76,0
8045.65,-15.42,-68.02,-21.57,-0.92,0.14,-0.34,34.99,99.33,549.29,-0.81,549.15,0
8045.66,-15.42,-68.02,-21.58,-0.91,0.13,-0.34,34.99,99.33,549.29,-0.70,549.25,0
8045.67,-15.42,-68.02,-21.57,-0.91,0.14,-0.35,34.99,99.32,552.62,1.67,551.72,0
8045.68,-15.42,-68.02,-21.57,-0.91,0.14,-0.34,35.00,99.32,552.62,2.30,552.38,0
8045.69,-15.42,-68.02,-21.57,-0.92,0.14,-0.34,34.99,99.32,552.62,2.45,552.56,0
8045.70,-15.42,-68.02,-21.58,-0.92,0.14,-0.34,34.99,99.34,545.68,-2.40,547.52,0
8045.71,-15.42,-68.02,-21.58,-0.91,0.14,-0.34,34.99,99.32,552.62,1.20,551.26,0
8045.72,-15.42,-68.02,-21.58,-0.92,0.14,-0.35,34.99,99.33,549.29,-0.19,549.82,0
8045.73,-15.42,-68.02,-21.57,-0.92,0.14,-0.34,34.99,99.33,549.29,-0.56,549.43,0
8045.74,-15.42,-68.02,-21.58,-0.92,0.14,-0.34,34.99,99.33,549.29,-0.66,549.33,0
8045.75,-15.42,-68.02,-21.57,-0.92,0.13,-0.34,34.99,99.32,552.62,1.67,551.74,0
8045.76,-15.42,-68.02,-21.58,-0.91,0.13,-0.34,34.99,99.33,549.29,-0.07,549.94,0
8045.77,-15.41,-68.02,-21.58,-0.91,0.14,-0.34,34.99,99.33,549.29,-0.53,549.46,0
8045.78,-15.41,-68.02,-21.58,-0.92,0.14,-0.34,34.99,99.33,549.29,-0.65,549.33,0
8045.98,-15.41,-68.02,-21.58,-0.92,0.14,-0.34,34.99,99.33,549.29,-0.68,549.30,0
8046.27,-15.41,-68.02,-21.58,-0.92,0.14,-0.34,34.99,99.33,549.29,-0.69,549.29,0
8046.45,-15.41,-68.02,-21.58,-0.92,0.14,-0.34,34.99,99.33,549.29,-0.68,549.29,0
8046.66,-15.41,-68.02,-21.58,-0.92,0.14,-0.34,34.99,99.33,549.29,-0.68,549.29,0
8047.17,-15.41,-68.02,-21.58,-0.92,0.14,-0.34,34.99,99.33,549.29,-0.68,549.29,0
8047.23,-15.41,-68.02,-21.58,-0.92,0.14,-0.34,34.99,99.33,549.29,-0.67,549.29,0
8047.27,-15.41,-68.02,-21.58,-0.92,0.14,-0.34,34.99,99.33,549.29,-0.67,549.29,0
8047.28,-15.41,-68.02,-21.58,-0.92,0.14,-0.34,35.01,99.33,547.90,-1.65,548.27,0
8047.29,-15.40,-68.02,-21.58,-0.91,0.13,-0.34,34.99,99.33,549.29,-0.92,549.01,0
8047.30,-15.40,-68.02,-21.58,-0.91,0.14,-0.34,35.00,99.33,549.29,-0.72,549.21,0
8047.31,-15.40,-68.02,-21.58,-0.92,0.14,-0.34,34.99,99.33,549.29,-0.66,549.27,0
8047.32,-15.40,-68.02,-21.58,-0.92,0.14,-0.35,35.00,99.33,547.90,-1.63,548.26,0
8047.33,-15.40,-68.02,-21.58,-0.91,0.14,-0.34,34.99,99.33,549.29,-0.90,549.01,0
8047.34,-15.40,-68.02,-21.57,-0.91,0.14,-0.34,34.99,99.33,549.29,-0.70,549.21,0
8047.35,-15.40,-68.02,-21.57,-0.92,0.14,-0.34,34.99,99.32,552.62,1.73,551.71,0
8047.36,-15.39,-68.02,-21.59,-0.92,0.14,-0.34,34.99,99.33,549.29,-0.00,549.94,0
8047.37,-15.39,-68.02,-21.59,-0.91,0.13,-0.35,34.99,99.32,552.62,1.91,551.90,0
8047.38,-15.39,-68.02,-21.57,-0.91,0.13,-0.34,34.99,99.33,549.29,0.04,549.99,0
8047.39,-15.39,-68.02,-21.59,-0.92,0.14,-0.34,34.99,99.33,549.29,-0.46,549.48,0
8047.40,-15.39,-68.02,-21.58,-0.92,0.14,-0.34,35.00,99.33,549.29,-0.59,549.34,0
8047.41,-15.39,-68.02,-21.59,-0.91,0.14,-0.35,34.97,99.31,553.73,2.54,552.56,0
8047.42,-15.39,-68.02,-21.58,-0.91,0.13,-0.35,34.99,99.33,549.29,0.20,550.16,0
8047.43,-15.38,-68.02,-21.59,-0.92,0.14,-0.34,34.99,99.32,552.62,1.94,551.97,0
8047.44,-15.38,-68.02,-21.58,-0.92,0.14,-0.35,34.99,99.32,552.62,2.40,552.45,0
8047.45,-15.38,-68.02,-21.58,-0.91,0.13,-0.34,35.00,99.32,551.51,1.72,551.76,0
8047.46,-15.37,-68.02,-21.59,-0.91,0.14,-0.34,34.99,99.33,549.29,-0.05,549.95,0
8047.47,-15.37,-68.02,-21.60,-0.92,0.14,-0.34,34.99,99.33,549.29,-0.52,549.47,0
8047.48,-15.38,-68.02,-21.59,-0.92,0.14,-0.34,35.00,99.33,547.90,-1.64,548.32,0
8047.49,-15.38,-68.02,-21.58,-0.91,0.13,-0.34,34.99,99.34,545.68,-3.51,546.38,0
8047.50,-15.38,-68.02,-21.59,-0.91,0.14,-0.34,34.99,99.32,552.62,0.96,550.95,0
8047.51,-15.38,-68.02,-21.59,-0.92,0.14,-0.34,34.99,99.34,545.68,-2.81,547.09,0
8047.52,-15.39,-68.02,-21.58,-0.92,0.14,-0.34,34.99,99.33,549.29,-1.22,548.70,0
8047.53,-15.38,-68.03,-21.58,-0.91,0.14,-0.34,34.99,99.32,552.62,1.58,551.57,0
8047.54,-15.38,-68.02,-21.59,-0.92,0.14,-0.34,34.99,99.33,549.29,-0.05,549.90,0
8047.55,-15.38,-68.02,-21.59,-0.92,0.14,-0.35,34.99,99.33,549.29,-0.49,549.45,0
8047.56,-15.38,-68.02,-21.59,-0.91,0.14,-0.35,34.99,99.33,549.29,-0.61,549.33,0
8047.57,-15.39,-68.02,-21.58,-0.91,0.13,-0.34,35.01,99.33,547.90,-1.63,548.28,0
8047.58,-15.39,-68.02,-21.58,-0.92,0.14,-0.34,35.00,99.33,547.90,-1.89,548.00,0
8047.59,-15.39,-68.02,-21.58,-0.92,0.14,-0.34,35.00,99.33,547.90,-1.95,547.92,0
8047.60,-15.39,-68.02,-21.58,-0.91,0.14,-0.35,34.99,99.33,549.29,-0.97,548.92,0
8047.61,-15.39,-68.02,-21.58,-0.91,0.14,-0.34,34.99,99.32,552.62,1.68,551.63,0
8047.62,-15.39,-68.02,-21.58,-0.92,0.14,-0.34,34.99,99.33,549.29,-0.00,549.92,0
8047.63,-15.39,-68.02,-21.58,-0.92,0.14,-0.34,34.99,99.32,552.62,1.93,551.90,0
8047.64,-15.39,-68.02,-21.58,-0.91,0.13,-0.34,34.99,99.33,549.29,0.06,549.99,0
8047.65,-15.39,-68.02,-21.58,-0.92,0.14,-0.34,34.99,99.32,552.62,1.94,551.92,0
8047.66,-15.38,-68.02,-21.59,-0.92,0.14,-0.34,34.99,99.33,549.29,0.05,549.99,0
8047.67,-15.39,-68.02,-21.59,-0.92,0.14,-0.34,34.99,99.32,552.62,1.93,551.92,0
8047.68,-15.38,-68.03,-21.59,-0.91,0.13,-0.34,34.99,99.32,552.62,2.42,552.44,0
8047.69,-15.38,-68.03,-21.58,-0.91,0.14,-0.34,34.99,99.32,552.62,2.54,552.57,0
8047.70,-15.38,-68.03,-21.58,-0.92,0.14,-0.35,34.99,99.33,549.29,0.18,550.17,0
8047.72,-15.38,-68.03,-21.58,-0.92,0.14,-0.35,34.99,99.33,549.29,-0.46,549.52,0
8047.73,-15.38,-68.03,-21.59,-0.92,0.14,-0.34,34.99,99.32,552.62,1.77,551.79,0
8047.74,-15.38,-68.03,-21.59,-0.91,0.14,-0.34,34.99,99.33,549.29,-0.04,549.96,0
8047.75,-15.38,-68.03,-21.58,-0.92,0.13,-0.34,34.99,99.33,549.29,-0.52,549.47,0
8047.76,-15.38,-68.03,-21.59,-0.92,0.14,-0.34,34.99,99.33,549.29,-0.64,549.34,0
8047.77,-15.38,-68.03,-21.58,-0.91,0.14,-0.34,34.99,99.32,552.62,1.72,551.74,0
8047.78,-15.38,-68.03,-21.59,-0.91,0.13,-0.35,34.99,99.33,549.29,-0.05,549.95,0
8047.79,-15.38,-68.03,-21.59,-0.92,0.14,-0.34,34.99,99.32,552.62,1.87,551.91,0
8047.80,-15.38,-68.03,-21.58,-0.92,0.14,-0.35,34.99,99.33,549.29,-0.02,549.99,0
8047.81,-15.38,-68.03,-21.58,-0.91,0.14,-0.35,35.00,99.33,547.90,-1.52,548.46,0
8047.82,-15.39,-68.03,-21.58,-0.91,0.13,-0.34,34.99,99.33,549.29,-0.92,549.07,0
8047.83,-15.39,-68.03,-21.57,-0.92,0.14,-0.34,34.99,99.33,549.29,-0.75,549.23,0
8047.84,-15.39,-68.03,-21.58,-0.92,0.14,-0.34,34.99,99.31,555.95,4.08,554.16,0
8047.85,-15.38,-68.03,-21.58,-0.91,0.14,-0.35,34.99,99.32,551.51,2.16,552.22,0
8047.86,-15.38,-68.03,-21.58,-0.92,0.14,-0.34,34.99,99.32,552.62,2.44,552.52,0
8047.87,-15.38,-68.03,-21.58,-0.92,0.14,-0.35,34.99,99.33,549.29,0.10,550.15,0
8047.88,-15.39,-68.03,-21.58,-0.92,0.13,-0.34,34.99,99.32,552.62,1.88,551.96,0
8047.89,-15.39,-68.03,-21.58,-0.91,0.14,-0.34,34.99,99.32,552.62,2.34,552.45,0
8047.90,-15.39,-68.03,-21.58,-0.91,0.13,-0.35,34.99,99.32,552.62,2.46,552.58,0
8047.91,-15.39,-68.03,-21.57,-0.92,0.14,-0.34,34.99,99.33,549.29,0.08,550.17,0
8047.92,-15.39,-68.03,-21.57,-0.91,0.13,-0.35,35.01,99.33,547.90,-1.56,548.50,0
8047.93,-15.39,-68.02,-21.58,-0.91,0.13,-0.34,34.99,99.33,549.29,-0.99,549.08,0
8047.94,-15.39,-68.03,-21.58,-0.92,0.13,-0.34,35.01,99.33,547.90,-1.83,548.21,0
8047.95,-15.39,-68.03,-21.57,-0.92,0.14,-0.34,34.99,99.33,549.29,-1.05,549.00,0
8047.96,-15.40,-68.03,-21.57,-0.91,0.13,-0.34,35.00,99.33,549.29,-0.83,549.21,0
8047.97,-15.40,-68.03,-21.57,-0.91,0.14,-0.35,35.01,99.32,551.51,0.83,550.89,0
8047.98,-15.40,-68.03,-21.57,-0.92,0.14,-0.34,34.99,99.33,549.29,-0.33,549.72,0
8047.99,-15.40,-68.03,-21.57,-0.92,0.14,-0.34,34.99,99.33,549.29,-0.64,549.40,0
8048.00,-15.40,-68.03,-21.58,-0.91,0.13,-0.34,34.99,99.33,549.29,-0.72,549.32,0
8048.01,-15.40,-68.03,-21.58,-0.91,0.14,-0.34,34.99,99.32,552.62,1.66,551.74,0
8048.02,-15.40,-68.03,-21.58,-0.92,0.14,-0.34,34.99,99.33,549.29,-0.11,549.94,0
8048.03,-15.40,-68.03,-21.57,-0.91,0.14,-0.34,34.99,99.33,549.29,-0.58,549.46,0
8048.04,-15.40,-68.02,-21.58,-0.91,0.13,-0.34,34.99,99.32,552.62,1.70,551.78,0
8048.05,-15.40,-68.03,-21.57,-0.92,0.14,-0.34,34.99,99.33,549.29,-0.11,549.95,0
8048.06,-15.40,-68.03,-21.57,-0.92,0.14,-0.34,35.00,99.33,549.29,-0.59,549.47,0
8048.07,-15.41,-68.03,-21.57,-0.92,0.14,-0.35,34.99,99.33,549.29,-0.71,549.34,0
8048.08,-15.41,-68.03,-21.57,-0.92,0.14,-0.34,35.00,99.33,549.29,-0.74,549.30,0
8048.09,-15.41,-68.03,-21.57,-0.91,0.13,-0.34,34.99,99.32,552.62,1.66,551.73,0
8048.10,-15.41,-68.03,-21.57,-0.91,0.14,-0.35,34.99,99.33,549.29,-0.12,549.94,0
8048.11,-15.41,-68.03,-21.57,-0.91,0.13,-0.34,34.99,99.31,555.95,4.22,554.35,0
8048.12,-15.41,-68.03,-21.57,-0.91,0.13,-0.34,34.99,99.31,555.95,5.36,555.53,0
8048.13,-15.41,-68.03,-21.57,-0.92,0.14,-0.34,34.99,99.32,552.62,3.23,553.40,0
8048.15,-15.41,-68.03,-21.57,-0.91,0.13,-0.34,34.99,99.32,552.62,2.65,552.83,0
8048.16,-15.41,-68.03,-21.57,-0.92,0.14,-0.34,34.99,99.33,549.29,0.08,550.24,0
8048.17,-15.41,-68.03,-21.57,-0.92,0.14,-0.34,34.99,99.33,549.29,-0.61,549.54,0
8048.18,-15.41,-68.03,-21.57,-0.92,0.14,-0.34,34.99,99.32,552.62,1.62,551.80,0
8048.19,-15.41,-68.03,-21.57,-0.92,0.14,-0.34,34.99,99.32,552.62,2.21,552.40,0
8048.20,-15.42,-68.03,-21.57,-0.91,0.13,-0.34,34.99,99.33,549.29,-0.06,550.12,0
8048.21,-15.42,-68.03,-21.57,-0.92,0.14,-0.34,34.99,99.33,549.29,-0.66,549.51,0
8048.22,-15.42,-68.03,-21.57,-0.91,0.13,-0.34,34.99,99.33,549.29,-0.82,549.35,0
8048.24,-15.42,-68.03,-21.57,-0.91,0.14,-0.34,34.99,99.32,552.62,1.55,551.75,0
8048.25,-15.42,-68.03,-21.57,-0.91,0.14,-0.34,34.99,99.32,552.62,2.18,552.39,0
8048.26,-15.41,-68.03,-21.57,-0.92,0.14,-0.34,34.99,99.32,552.62,2.34,552.56,0
8048.27,-15.41,-68.03,-21.57,-0.91,0.14,-0.34,35.00,99.32,552.62,2.37,552.61,0
8048.28,-15.41,-68.03,-21.57,-0.92,0.14,-0.35,34.99,99.33,547.90,-1.05,549.16,0
8048.29,-15.41,-68.03,-21.57,-0.91,0.14,-0.34,35.00,99.34,545.68,-3.56,546.61,0
8048.30,-15.42,-68.03,-21.57,-0.92,0.13,-0.34,35.00,99.32,551.51,0.00,550.20,0
8048.31,-15.42,-68.03,-21.57,-0.92,0.14,-0.34,35.01,99.32,551.51,0.95,551.16,0
8048.32,-15.42,-68.03,-21.57,-0.92,0.14,-0.34,35.01,99.32,551.51,1.20,551.42,0
8048.33,-15.42,-68.03,-21.57,-0.92,0.14,-0.34,35.00,99.32,552.62,2.07,552.30,0
8048.34,-15.42,-68.03,-21.57,-0.92,0.14,-0.34,34.99,99.32,552.62,2.29,552.54,0
8048.35,-15.42,-68.03,-21.57,-0.91,0.14,-0.34,34.97,99.31,553.73,3.14,553.41,0
8048.36,-15.41,-68.03,-21.57,-0.92,0.14,-0.34,34.99,99.33,549.29,0.14,550.39,0
8048.37,-15.41,-68.03,-21.57,-0.91,0.13,-0.35,34.99,99.32,551.51,0.94,551.21,0
8048.39,-15.41,-68.03,-21.57,-0.91,0.13,-0.35,35.01,99.33,547.90,-1.46,548.78,0
8048.40,-15.41,-68.03,-21.57,-0.91,0.13,-0.35,35.01,99.33,547.90,-2.09,548.13,0
8048.41,-15.41,-68.03,-21.57,-0.91,0.14,-0.34,34.99,99.32,552.62,1.17,551.42,0
8048.42,-15.41,-68.03,-21.57,-0.91,0.13,-0.34,34.99,99.32,552.62,2.03,552.30,0
8048.43,-15.42,-68.03,-21.57,-0.92,0.14,-0.34,34.99,99.32,552.62,2.25,552.54,0
8048.44,-15.41,-68.03,-21.57,-0.92,0.14,-0.34,35.00,99.33,549.29,-0.11,550.16,0
8048.45,-15.41,-68.03,-21.57,-0.92,0.14,-0.35,34.99,99.33,549.29,-0.74,549.52,0
8048.46,-15.41,-68.03,-21.57,-0.92,0.14,-0.34,34.99,99.33,549.29,-0.91,549.35,0
8048.47,-15.41,-68.03,-21.57,-0.92,0.14,-0.34,34.99,99.33,549.29,-0.95,549.30,0
8048.48,-15.41,-68.03,-21.57,-0.92,0.13,-0.34,34.99,99.33,549.29,-0.95,549.29,0
8048.49,-15.41,-68.03,-21.57,-0.92,0.14,-0.34,35.00,99.32,551.51,0.66,550.92,0
8048.50,-15.41,-68.03,-21.57,-0.91,0.14,-0.34,35.01,99.35,544.57,-3.95,546.26,0
8048.51,-15.41,-68.03,-21.57,-0.92,0.14,-0.34,34.99,99.32,552.62,0.68,550.92,0
8048.52,-15.41,-68.03,-21.57,-0.91,0.14,-0.34,35.01,99.32,551.51,1.11,551.35,0
8048.54,-15.41,-68.03,-21.57,-0.91,0.13,-0.34,35.00,99.33,549.29,-0.40,549.84,0
8048.55,-15.41,-68.03,-21.57,-0.91,0.13,-0.34,35.00,99.33,549.29,-0.79,549.44,0
8048.56,-15.41,-68.03,-21.57,-0.91,0.13,-0.34,35.00,99.33,549.29,-0.90,549.33,0
8048.57,-15.42,-68.03,-21.57,-0.92,0.14,-0.34,34.99,99.33,549.29,-0.92,549.30,0
8048.59,-15.42,-68.03,-21.57,-0.91,0.14,-0.35,34.99,99.33,549.29,-0.92,549.29,0
8048.60,-15.42,-68.03,-21.57,-0.91,0.14,-0.35,34.99,99.33,549.29,-0.92,549.29,0
8048.61,-15.42,-68.03,-21.57,-0.92,0.14,-0.34,34.99,99.32,552.62,1.50,551.73,0
8048.62,-15.42,-68.03,-21.57,-0.92,0.14,-0.34,34.99,99.33,549.29,-0.27,549.94,0
8048.63,-15.42,-68.03,-21.57,-0.92,0.14,-0.34,34.99,99.32,552.62,1.67,551.91,0
8048.64,-15.42,-68.03,-21.57,-0.92,0.14,-0.34,34.99,99.33,547.90,-1.24,548.97,0
8048.65,-15.42,-68.03,-21.57,-0.91,0.13,-0.34,34.99,99.33,549.29,-1.01,549.20,0
8048.66,-15.42,-68.03,-21.58,-0.92,0.14,-0.35,34.99,99.33,549.29,-0.94,549.26,0
8048.67,-15.42,-68.03,-21.58,-0.92,0.14,-0.35,34.99,99.33,549.29,-0.92,549.28,0
8048.68,-15.42,-68.03,-21.57,-0.91,0.13,-0.34,34.99,99.32,552.62,1.51,551.73,0
8048.69,-15.42,-68.03,-21.57,-0.91,0.13,-0.34,34.99,99.32,552.62,2.15,552.38,0
8048.70,-15.42,-68.03,-21.57,-0.91,0.14,-0.35,34.99,99.33,549.29,-0.11,550.12,0
8048.71,-15.42,-68.03,-21.57,-0.91,0.14,-0.34,34.99,99.32,552.62,1.71,551.95,0
8048.72,-15.42,-68.03,-21.57,-0.92,0.14,-0.34,35.01,99.32,551.51,1.38,551.63,0
8048.74,-15.42,-68.03,-21.57,-0.91,0.14,-0.34,34.99,99.33,549.29,-0.33,549.91,0
8048.75,-15.42,-68.03,-21.57,-0.91,0.14,-0.34,34.99,99.33,549.29,-0.78,549.46,0
8048.76,-15.42,-68.03,-21.57,-0.92,0.14,-0.35,35.01,99.32,551.51,0.71,550.96,0
8048.77,-15.41,-68.03,-21.57,-0.92,0.14,-0.35,34.99,99.32,552.62,1.92,552.18,0
8048.78,-15.42,-68.03,-21.58,-0.92,0.13,-0.35,34.99,99.32,552.62,2.23,552.50,0
8048.79,-15.42,-68.03,-21.57,-0.92,0.14,-0.34,34.99,99.33,549.29,-0.12,550.15,0
8048.80,-15.42,-68.03,-21.57,-0.91,0.13,-0.34,34.99,99.33,549.29,-0.74,549.52,0
8048.81,-15.42,-68.03,-21.57,-0.92,0.14,-0.34,34.99,99.32,552.62,1.51,551.79,0
8048.82,-15.42,-68.03,-21.57,-0.92,0.14,-0.34,34.99,99.32,552.62,2.11,552.40,0
8048.83,-15.42,-68.03,-21.58,-0.91,0.14,-0.34,34.99,99.32,552.62,2.26,552.56,0
8048.84,-15.42,-68.03,-21.57,-0.91,0.14,-0.34,34.99,99.33,549.29,-0.13,550.17,0
8048.85,-15.42,-68.03,-21.57,-0.91,0.13,-0.34,34.99,99.32,552.62,1.65,551.97,0
8048.86,-15.42,-68.03,-21.57,-0.91,0.13,-0.35,34.99,99.32,552.62,2.12,552.45,0
8048.87,-15.43,-68.03,-21.58,-0.92,0.14,-0.34,34.99,99.32,552.62,2.23,552.58,0
8048.89,-15.43,-68.03,-21.57,-0.91,0.14,-0.34,35.00,99.32,551.51,1.45,551.80,0
8048.90,-15.43,-68.03,-21.57,-0.91,0.14,-0.34,35.00,99.32,551.51,1.23,551.59,0
8048.91,-15.43,-68.03,-21.57,-0.92,0.14,-0.35,34.99,99.33,549.29,-0.45,549.90,0
8048.92,-15.43,-68.03,-21.57,-0.92,0.14,-0.34,34.99,99.32,552.62,1.53,551.89,0
8048.94,-15.43,-68.03,-21.57,-0.92,0.14,-0.34,34.99,99.32,552.62,2.05,552.43,0
8048.95,-15.42,-68.03,-21.57,-0.92,0.14,-0.34,34.99,99.33,549.29,-0.24,550.13,0
8048.96,-15.42,-68.03,-21.57,-0.91,0.13,-0.34,34.99,99.32,552.62,1.57,551.96,0
8048.97,-15.43,-68.03,-21.57,-0.92,0.13,-0.34,35.00,99.33,549.29,-0.38,550.00,0
8048.98,-15.43,-68.03,-21.58,-0.91,0.14,-0.34,34.99,99.33,549.29,-0.89,549.48,0
8048.99,-15.43,-68.03,-21.58,-0.91,0.14,-0.34,34.99,99.32,552.62,1.39,551.78,0
8049.00,-15.43,-68.03,-21.58,-0.92,0.13,-0.34,34.99,99.33,549.29,-0.42,549.96,0
8049.01,-15.43,-68.03,-21.57,-0.91,0.13,-0.34,34.99,99.32,552.62,1.52,551.91,0
8049.02,-15.43,-68.03,-21.57,-0.91,0.13,-0.34,34.99,99.32,552.62,2.02,552.43,0
8049.03,-15.42,-68.03,-21.58,-0.92,0.14,-0.34,34.99,99.33,549.29,-0.27,550.13,0
8049.04,-15.42,-68.03,-21.58,-0.91,0.14,-0.35,34.99,99.33,547.90,-1.89,548.49,0
8049.05,-15.43,-68.03,-21.57,-0.92,0.14,-0.34,34.99,99.33,549.29,-1.30,549.07,0
8049.06,-15.43,-68.03,-21.57,-0.92,0.14,-0.34,34.99,99.33,549.29,-1.14,549.23,0
8049.07,-15.42,-68.03,-21.57,-0.92,0.14,-0.34,35.01,99.32,552.62,1.33,551.71,0
8049.09,-15.43,-68.02,-21.57,-0.92,0.13,-0.34,34.99,99.33,549.29,-0.44,549.94,0
8049.10,-15.43,-68.02,-21.57,-0.92,0.13,-0.34,34.99,99.33,549.29,-0.91,549.46,0
8049.11,-15.43,-68.03,-21.57,-0.91,0.13,-0.34,34.99,99.32,552.62,1.39,551.78,0
8049.12,-15.43,-68.03,-21.57,-0.92,0.14,-0.34,34.99,99.32,552.62,2.00,552.40,0
8049.13,-15.43,-68.03,-21.57,-0.91,0.13,-0.34,34.99,99.33,549.29,-0.27,550.12,0
8049.14,-15.43,-68.03,-21.57,-0.91,0.14,-0.34,34.99,99.32,551.51,0.74,551.14,0
8049.15,-15.43,-68.03,-21.57,-0.92,0.14,-0.34,34.99,99.32,552.62,1.81,552.23,0
8049.16,-15.43,-68.03,-21.57,-0.91,0.13,-0.34,35.00,99.33,547.90,-1.34,549.06,0
8049.17,-15.43,-68.03,-21.57,-0.91,0.13,-0.34,35.00,99.33,547.90,-2.18,548.21,0
8049.18,-15.43,-68.03,-21.57,-0.92,0.14,-0.34,34.99,99.32,552.62,1.04,551.44,0
8049.19,-15.43,-68.03,-21.57,-0.91,0.14,-0.34,34.99,99.33,549.29,-0.53,549.86,0
8049.20,-15.43,-68.03,-21.57,-0.92,0.14,-0.34,35.00,99.31,554.84,3.10,553.51,0
8049.21,-15.43,-68.03,-21.57,-0.92,0.14,-0.34,34.99,99.33,549.29,0.01,550.42,0
8049.22,-15.43,-68.03,-21.57,-0.92,0.13,-0.35,34.99,99.32,552.62,1.61,552.03,0
8049.24,-15.43,-68.03,-21.56,-0.92,0.14,-0.35,34.99,99.33,549.29,-0.39,550.02,0
8049.25,-15.43,-68.03,-21.56,-0.92,0.14,-0.35,34.99,99.33,549.29,-0.93,549.48,0
8049.26,-15.43,-68.03,-21.57,-0.91,0.13,-0.34,34.99,99.32,552.62,1.36,551.78,0
8049.27,-15.43,-68.03,-21.57,-0.92,0.13,-0.34,34.99,99.32,552.62,1.96,552.40,0
8049.28,-15.43,-68.03,-21.57,-0.91,0.13,-0.35,34.99,99.33,549.29,-0.31,550.12,0
8049.29,-15.43,-68.03,-21.57,-0.91,0.13,-0.34,34.99,99.33,549.29,-0.91,549.51,0
8049.34,-15.43,-68.03,-21.57,-0.91,0.13,-0.34,34.99,99.33,549.29,-1.07,549.35,0
8049.38,-15.43,-68.03,-21.57,-0.91,0.13,-0.34,34.99,99.33,549.29,-1.11,549.30,0
8049.41,-15.43,-68.03,-21.57,-0.91,0.13,-0.34,34.99,99.33,549.29,-1.11,549.29,0
8049.61,-15.43,-68.03,-21.57,-0.91,0.13,-0.34,34.99,99.33,549.29,-1.11,549.29,0
8049.82,-15.43,-68.03,-21.57,-0.91,0.13,-0.34,34.99,99.33,549.29,-1.10,549.29,0
8050.18,-15.43,-68.03,-21.57,-0.91,0.13,-0.34,34.99,99.33,549.29,-1.09,549.29,0
8050.24,-15.43,-68.03,-21.57,-0.91,0.13,-0.34,34.99,99.33,549.29,-1.09,549.29,0
8050.28,-15.43,-68.03,-21.57,-0.91,0.13,-0.34,34.99,99.33,549.29,-1.08,549.29,0
8050.31,-15.43,-68.03,-21.57,-0.91,0.13,-0.34,34.99,99.33,549.29,-1.07,549.29,0
8050.35,-15.43,-68.03,-21.57,-0.91,0.13,-0.34,34.99,99.33,549.29,-1.07,549.29,0
8050.38,-15.43,-68.03,-21.57,-0.91,0.13,-0.34,34.99,99.33,549.29,-1.06,549.29,0
8050.42,-15.43,-68.03,-21.57,-0.91,0.13,-0.34,34.99,99.33,549.29,-1.05,549.29,0
8050.61,-15.43,-68.03,-21.57,-0.91,0.13,-0.34,34.99,99.33,549.29,-1.05,549.29,0
8050.82,-15.43,-68.03,-21.57,-0.91,0.13,-0.34,34.99,99.33,549.29,-1.04,549.29,0
8051.30,-15.43,-68.03,-21.57,-0.91,0.13,-0.34,34.99,99.33,549.29,-1.03,549.29,0
8051.33,-15.43,-68.03,-21.57,-0.91,0.13,-0.34,34.99,99.33,549.29,-1.03,549.29,0
8051.36,-15.43,-68.03,-21.57,-0.91,0.13,-0.34,34.99,99.33,549.29,-1.02,549.29,0
8051.38,-15.43,-68.03,-21.57,-0.91,0.13,-0.34,34.99,99.33,549.29,-1.02,549.29,0
8051.42,-15.43,-68.03,-21.57,-0.91,0.13,-0.34,34.99,99.33,549.29,-1.01,549.29,0
8051.46,-15.43,-68.03,-21.57,-0.91,0.13,-0.34,34.99,99.33,549.29,-1.00,549.29,0
8051.49,-15.43,-68.03,-21.57,-0.91,0.13,-0.34,34.99,99.33,549.29,-1.00,549.29,0
8051.68,-15.43,-68.03,-21.57,-0.91,0.13,-0.34,34.99,99.33,549.29,-0.99,549.29,0
8051.89,-15.43,-68.03,-21.57,-0.91,0.13,-0.34,34.99,99.33,549.29,-0.98,549.29,0
8052.29,-15.43,-68.03,-21.57,-0.91,0.13,-0.34,34.99,99.33,549.29,-0.98,549.29,0
8052.36,-15.43,-68.03,-21.57,-0.91,0.13,-0.34,34.99,99.33,549.29,-0.97,549.29,0
8052.46,-15.43,-68.03,-21.57,-0.91,0.13,-0.34,34.99,99.33,549.29,-0.97,549.29,0
8052.67,-15.43,-68.03,-21.57,-0.91,0.13,-0.34,34.99,99.33,549.29,-0.96,549.29,0
8053.12,-15.43,-68.03,-21.57,-0.91,0.13,-0.34,34.99,99.33,549.29,-0.95,549.29,0
8053.23,-15.43,-68.03,-21.57,-0.91,0.13,-0.34,34.99,99.33,549.29,-0.95,549.29,0
8053.27,-15.43,-68.03,-21.57,-0.91,0.13,-0.34,34.99,99.33,549.29,-0.94,549.29,0
8053.30,-15.43,-68.03,-21.57,-0.91,0.13,-0.34,34.99,99.33,549.29,-0.94,549.29,0
8053.50,-15.43,-68.03,-21.57,-0.91,0.13,-0.34,34.99,99.33,549.29,-0.93,549.29,0
8053.70,-15.43,-68.03,-21.57,-0.91,0.13,-0.34,34.99,99.33,549.29,-0.92,549.29,0
8054.10,-15.43,-68.03,-21.57,-0.91,0.13,-0.34,34.99,99.33,549.29,-0.92,549.29,0
8054.16,-15.43,-68.03,-21.57,-0.91,0.13,-0.34,34.99,99.33,549.29,-0.91,549.29,0
8054.21,-15.43,-68.03,-21.57,-0.91,0.13,-0.34,34.99,99.33,549.29,-0.91,549.29,0
8054.24,-15.43,-68.03,-21.57,-0.91,0.13,-0.34,34.99,99.33,549.29,-0.90,549.29,0
8054.26,-15.43,-68.03,-21.57,-0.91,0.13,-0.34,34.99,99.33,549.29,-0.90,549.29,0
8054.47,-15.43,-68.03,-21.57,-0.91,0.13,-0.34,34.99,99.33,549.29,-0.89,549.29,0
8054.91,-15.43,-68.03,-21.57,-0.91,0.13,-0.34,34.99,99.33,549.29,-0.89,549.29,0
8054.98,-15.43,-68.03,-21.57,-0.91,0.13,-0.34,34.99,99.33,549.29,-0.88,549.29,0
8055.03,-15.43,-68.03,-21.57,-0.91,0.13,-0.34,34.99,99.33,549.29,-0.87,549.29,0
8055.06,-15.43,-68.03,-21.57,-0.91,0.13,-0.34,34.99,99.33,549.29,-0.87,549.29,0
8055.08,-15.43,-68.03,-21.57,-0.91,0.13,-0.34,34.99,99.33,549.29,-0.86,549.29,0
8055.29,-15.43,-68.03,-21.57,-0.91,0.13,-0.34,34.99,99.33,549.29,-0.86,549.29,0
8055.73,-15.43,-68.03,-21.57,-0.92,0.14,-0.34,34.99,99.33,549.29,-0.85,549.29,0
8055.80,-15.43,-68.03,-21.57,-0.91,0.14,-0.34,34.99,99.32,552.62,1.58,551.73,0
8055.84,-15.42,-68.03,-21.57,-0.91,0.14,-0.34,34.99,99.32,552.62,2.22,552.38,0
8055.88,-15.42,-68.03,-21.57,-0.91,0.14,-0.34,34.99,99.32,552.62,2.38,552.56,0
8055.91,-15.42,-68.03,-21.57,-0.91,0.14,-0.34,34.99,99.32,552.62,2.41,552.61,0
8055.92,-15.42,-68.03,-21.57,-0.91,0.14,-0.34,34.99,99.32,552.62,2.41,552.62,0
8055.93,-15.43,-68.03,-21.57,-0.91,0.14,-0.34,34.99,99.31,555.95,4.82,555.06,0
8055.94,-15.43,-68.02,-21.57,-0.92,0.13,-0.34,34.99,99.33,549.29,0.59,550.84,0
8055.95,-15.43,-68.03,-21.57,-0.92,0.14,-0.35,35.01,99.32,551.51,1.08,551.33,0
8055.96,-15.43,-68.03,-21.57,-0.92,0.14,-0.34,34.99,99.32,552.62,2.01,552.28,0
8055.97,-15.43,-68.03,-21.57,-0.91,0.13,-0.34,34.99,99.33,549.29,-0.17,550.09,0
8055.98,-15.43,-68.03,-21.58,-0.91,0.14,-0.34,34.99,99.32,552.62,1.67,551.94,0
8056.00,-15.43,-68.03,-21.58,-0.91,0.14,-0.34,34.99,99.32,552.62,2.16,552.44,0
8056.01,-15.43,-68.03,-21.57,-0.91,0.14,-0.34,34.99,99.33,549.29,-0.15,550.13,0
8056.02,-15.43,-68.03,-21.57,-0.92,0.14,-0.34,34.99,99.32,552.62,1.66,551.96,0
8056.03,-15.43,-68.03,-21.57,-0.92,0.14,-0.35,34.99,99.32,552.62,2.14,552.45,0
8056.04,-15.43,-68.03,-21.58,-0.92,0.14,-0.34,35.00,99.32,551.51,1.44,551.76,0
8056.05,-15.42,-68.03,-21.57,-0.91,0.13,-0.34,35.00,99.33,547.90,-1.38,548.93,0
8056.06,-15.42,-68.03,-21.58,-0.91,0.14,-0.35,34.99,99.32,552.62,1.32,551.63,0
8056.07,-15.42,-68.03,-21.58,-0.92,0.14,-0.35,35.00,99.33,549.29,-0.40,549.92,0
8056.08,-15.41,-68.03,-21.58,-0.92,0.14,-0.34,34.99,99.32,552.62,1.57,551.90,0
8056.09,-15.41,-68.03,-21.58,-0.91,0.13,-0.34,34.99,99.32,551.51,1.28,551.61,0
8056.10,-15.41,-68.03,-21.57,-0.91,0.13,-0.34,35.00,99.33,549.29,-0.42,549.91,0
8056.11,-15.42,-68.03,-21.57,-0.92,0.14,-0.34,34.99,99.32,552.62,1.56,551.90,0
8056.12,-15.41,-68.03,-21.58,-0.92,0.14,-0.34,34.99,99.33,549.29,-0.35,549.99,0
8056.13,-15.40,-68.03,-21.58,-0.91,0.14,-0.34,34.99,99.33,549.29,-0.86,549.47,0
8056.14,-15.40,-68.03,-21.58,-0.91,0.13,-0.35,34.99,99.33,549.29,-0.99,549.34,0
8056.15,-15.41,-68.03,-21.58,-0.92,0.14,-0.34,34.99,99.32,552.62,1.41,551.74,0
8056.16,-15.40,-68.03,-21.58,-0.92,0.14,-0.34,34.99,99.32,552.62,2.04,552.39,0
8056.17,-15.40,-68.03,-21.58,-0.91,0.14,-0.34,34.99,99.32,552.62,2.20,552.56,0
8056.18,-15.40,-68.03,-21.58,-0.91,0.14,-0.34,34.99,99.33,549.29,-0.20,550.16,0
8056.19,-15.40,-68.03,-21.58,-0.92,0.14,-0.34,35.01,99.32,551.51,0.78,551.15,0
8056.20,-15.40,-68.02,-21.58,-0.92,0.14,-0.34,34.99,99.32,552.62,1.85,552.23,0
8056.21,-15.40,-68.03,-21.58,-0.91,0.13,-0.34,34.97,99.33,550.40,0.51,550.89,0
8056.22,-15.40,-68.02,-21.59,-0.92,0.14,-0.35,34.99,99.32,552.62,1.77,552.16,0
8056.23,-15.40,-68.02,-21.58,-0.92,0.14,-0.34,35.00,99.32,551.51,1.28,551.68,0
8056.24,-15.39,-68.02,-21.58,-0.92,0.14,-0.34,34.99,99.33,549.29,-0.47,549.93,0
8056.25,-15.38,-68.02,-21.59,-0.91,0.14,-0.34,34.99,99.32,552.62,1.50,551.90,0
8056.26,-15.38,-68.03,-21.59,-0.91,0.14,-0.35,34.99,99.32,552.62,2.01,552.43,0
8056.27,-15.38,-68.02,-21.59,-0.92,0.14,-0.35,34.99,99.34,545.68,-2.92,547.48,0
8056.28,-15.38,-68.02,-21.59,-0.92,0.14,-0.34,34.98,99.33,547.90,-2.60,547.78,0
8056.29,-15.39,-68.02,-21.58,-0.91,0.13,-0.34,34.99,99.33,549.29,-1.49,548.88,0
8056.30,-15.39,-68.02,-21.59,-0.91,0.14,-0.34,34.99,99.32,552.62,1.24,551.62,0
8056.31,-15.39,-68.03,-21.58,-0.92,0.14,-0.34,35.00,99.33,547.90,-1.48,548.89,0
8056.32,-15.39,-68.03,-21.58,-0.92,0.14,-0.35,34.99,99.32,552.62,1.24,551.62,0
8056.33,-15.39,-68.03,-21.58,-0.91,0.14,-0.34,34.99,99.33,549.29,-0.46,549.91,0
8056.34,-15.39,-68.03,-21.58,-0.91,0.14,-0.34,34.99,99.33,549.29,-0.92,549.45,0
8056.35,-15.39,-68.03,-21.58,-0.92,0.14,-0.34,34.99,99.32,552.62,1.39,551.77,0
8056.36,-15.39,-68.03,-21.58,-0.92,0.14,-0.34,34.99,99.33,549.29,-0.42,549.95,0
8056.37,-15.40,-68.03,-21.58,-0.91,0.13,-0.35,34.99,99.32,552.62,1.52,551.91,0
8056.38,-15.40,-68.03,-21.57,-0.91,0.14,-0.34,35.01,99.32,551.51,1.22,551.62,0
8056.39,-15.40,-68.03,-21.57,-0.92,0.13,-0.34,34.99,99.33,549.29,-0.48,549.91,0
8056.40,-15.39,-68.03,-21.57,-0.92,0.14,-0.34,34.99,99.32,552.62,1.50,551.90,0
8056.41,-15.39,-68.03,-21.57,-0.91,0.13,-0.34,34.99,99.33,549.29,-0.41,549.99,0
8056.42,-15.39,-68.03,-21.57,-0.91,0.13,-0.34,34.99,99.32,552.62,1.51,551.92,0
8056.43,-15.38,-68.03,-21.57,-0.92,0.14,-0.34,34.99,99.34,545.68,-3.04,547.35,0
8056.44,-15.38,-68.03,-21.57,-0.91,0.13,-0.34,34.98,99.33,550.40,-0.80,549.58,0
8056.45,-15.38,-68.03,-21.57,-0.91,0.13,-0.34,34.99,99.31,555.95,3.84,554.25,0
8056.46,-15.37,-68.03,-21.58,-0.92,0.14,-0.34,34.98,99.31,553.73,3.44,553.87,0
8056.47,-15.37,-68.03,-21.57,-0.91,0.14,-0.34,34.99,99.32,552.62,2.51,552.96,0
8056.48,-15.37,-68.03,-21.57,-0.91,0.13,-0.34,34.99,99.33,549.29,-0.17,550.27,0
8056.49,-15.37,-68.03,-21.57,-0.92,0.14,-0.35,35.00,99.33,549.29,-0.89,549.55,0
8056.50,-15.37,-68.03,-21.57,-0.92,0.14,-0.34,34.99,99.33,549.29,-1.08,549.36,0
8056.51,-15.37,-68.03,-21.56,-0.92,0.14,-0.34,34.99,99.32,552.62,1.31,551.75,0
8056.52,-15.37,-68.03,-21.57,-0.91,0.13,-0.34,34.99,99.33,549.29,-0.49,549.95,0
8056.54,-15.37,-68.03,-21.57,-0.91,0.13,-0.34,34.99,99.32,552.62,1.46,551.91,0
8056.55,-15.37,-68.03,-21.57,-0.91,0.14,-0.35,34.99,99.33,549.29,-0.46,549.99,0
8056.56,-15.36,-68.03,-21.57,-0.92,0.14,-0.34,34.99,99.32,552.62,1.47,551.92,0
8056.57,-15.36,-68.03,-21.58,-0.92,0.14,-0.35,34.99,99.32,552.62,1.97,552.43,0
8056.58,-15.38,-68.03,-21.56,-0.92,0.14,-0.34,34.99,99.33,549.29,-0.33,550.13,0
8056.59,-15.37,-68.03,-21.57,-0.91,0.13,-0.35,34.99,99.33,549.29,-0.94,549.51,0
8056.61,-15.37,-68.03,-21.56,-0.92,0.14,-0.35,34.99,99.32,552.62,1.33,551.79,0
8056.62,-15.37,-68.03,-21.56,-0.92,0.14,-0.35,34.99,99.32,552.62,1.92,552.40,0
8056.63,-15.37,-68.03,-21.57,-0.92,0.14,-0.35,34.99,99.33,549.29,-0.35,550.12,0
8056.64,-15.37,-68.03,-21.56,-0.91,0.14,-0.34,35.01,99.32,551.51,0.66,551.14,0
8056.65,-15.37,-68.03,-21.56,-0.92,0.14,-0.35,34.99,99.33,549.29,-0.69,549.78,0
8056.66,-15.37,-68.03,-21.56,-0.92,0.14,-0.34,34.99,99.33,549.29,-1.05,549.42,0
8056.67,-15.37,-68.03,-21.56,-0.92,0.13,-0.34,34.99,99.32,552.62,1.29,551.77,0
8056.68,-15.37,-68.03,-21.57,-0.91,0.13,-0.34,34.99,99.32,552.62,1.91,552.39,0
8056.69,-15.37,-68.03,-21.56,-0.92,0.14,-0.34,34.99,99.32,552.62,2.06,552.56,0
8056.70,-15.37,-68.03,-21.56,-0.92,0.14,-0.35,34.99,99.33,549.29,-0.34,550.16,0
8056.71,-15.37,-68.03,-21.56,-0.91,0.13,-0.34,34.99,99.33,549.29,-0.97,549.52,0
8056.72,-15.39,-68.02,-21.56,-0.91,0.13,-0.34,34.99,99.33,549.29,-1.14,549.35,0
8056.73,-15.37,-68.03,-21.56,-0.92,0.14,-0.35,35.00,99.29,559.55,6.31,556.83,0
8056.74,-15.37,-68.04,-21.54,-0.91,0.13,-0.34,35.01,99.28,561.78,9.89,560.47,0
8056.75,-15.37,-68.02,-21.57,-0.92,0.13,-0.35,34.99,99.28,562.88,11.60,562.26,0
8056.76,-15.36,-68.03,-21.57,-0.92,0.14,-0.34,35.00,99.28,562.88,12.01,562.74,0
8056.77,-15.36,-68.03,-21.55,-0.92,0.14,-0.34,34.99,99.28,562.88,12.06,562.87,0
8056.78,-15.36,-68.03,-21.56,-0.92,0.14,-0.34,34.99,99.26,569.82,17.08,567.99,0
8056.79,-15.36,-68.03,-21.56,-0.91,0.13,-0.35,34.99,99.24,573.16,20.77,571.81,0
8056.80,-15.36,-68.03,-21.56,-0.91,0.13,-0.34,34.99,99.24,573.16,21.66,572.83,0
8056.81,-15.35,-68.03,-21.57,-0.92,0.14,-0.35,34.99,99.23,576.49,24.22,575.55,0
8056.82,-15.35,-68.03,-21.55,-0.92,0.14,-0.34,34.99,99.22,580.10,27.43,578.93,0
8056.83,-15.36,-68.03,-21.55,-0.91,0.13,-0.34,34.99,99.22,580.10,28.16,579.83,0
8056.84,-15.35,-68.02,-21.57,-0.92,0.14,-0.34,34.99,99.21,583.43,30.66,582.52,0
8056.85,-15.35,-68.02,-21.56,-0.92,0.14,-0.34,34.99,99.17,593.71,38.68,590.78,0
8056.86,-15.35,-68.03,-21.56,-0.92,0.14,-0.34,34.99,99.16,597.32,43.27,595.64,0
8056.87,-15.34,-68.03,-21.57,-0.91,0.13,-0.34,35.00,99.13,603.99,49.16,601.84,0
8056.88,-15.34,-68.03,-21.56,-0.91,0.13,-0.34,34.99,99.12,607.60,53.14,606.15,0
8056.89,-15.34,-68.03,-21.56,-0.92,0.14,-0.34,34.99,99.07,621.22,63.89,617.29,0
8056.91,-15.34,-68.03,-21.56,-0.92,0.14,-0.34,34.99,99.07,621.22,66.46,620.28,0
8056.92,-15.34,-68.03,-21.57,-0.92,0.14,-0.35,34.99,99.03,631.51,74.35,628.63,0
8056.93,-15.35,-68.03,-21.55,-0.92,0.13,-0.35,35.01,99.01,637.35,80.37,635.15,0
8056.94,-15.35,-68.03,-21.55,-0.91,0.14,-0.34,34.99,98.93,659.05,97.44,652.82,0
8056.95,-15.34,-68.03,-21.56,-0.91,0.13,-0.35,35.00,98.90,668.24,108.24,664.29,0
8056.96,-15.34,-68.03,-21.55,-0.92,0.14,-0.34,34.99,98.81,693.58,129.11,685.96,0
8056.97,-15.34,-68.03,-21.55,-0.92,0.14,-0.34,35.00,98.74,714.20,149.13,706.90,0
8056.98,-15.34,-68.03,-21.56,-0.91,0.13,-0.34,34.99,98.64,741.81,173.92,732.76,1
8056.99,-15.34,-68.03,-21.56,-0.92,0.14,-0.35,34.99,98.58,758.83,192.14,752.18,1
8057.00,-15.34,-68.03,-21.56,-0.92,0.13,-0.34,34.99,98.45,793.47,221.38,782.79,1
8057.01,-15.34,-68.03,-21.56,-0.91,0.14,-0.35,34.99,98.30,834.85,258.35,821.35,1
8057.02,-15.33,-68.03,-21.56,-0.91,0.14,-0.34,34.99,98.22,859.19,284.77,849.55,1
8057.03,-15.33,-68.03,-21.56,-0.92,0.14,-0.35,34.99,98.07,900.65,320.76,887.52,1
8057.04,-15.33,-68.03,-21.56,-0.92,0.14,-0.35,34.99,97.98,925.05,346.67,915.59,1
8057.05,-15.33,-68.02,-21.57,-0.91,0.13,-0.35,34.99,97.81,973.61,387.42,958.74,1
8057.06,-15.33,-68.02,-21.56,-0.91,0.13,-0.34,35.01,97.73,996.65,413.31,987.20,1
8057.07,-15.32,-68.02,-21.56,-0.92,0.14,-0.34,34.99,97.54,1049.83,457.11,1033.84,1
8057.08,-15.32,-68.02,-21.57,-0.92,0.14,-0.35,35.00,97.43,1081.37,489.71,1069.48,1
8057.09,-15.32,-68.02,-21.56,-0.91,0.13,-0.35,34.99,97.25,1130.16,531.74,1114.82,1
8057.10,-15.32,-68.02,-21.56,-0.92,0.13,-0.34,34.99,97.09,1175.34,573.48,1160.11,1
8057.11,-15.33,-68.02,-21.56,-0.92,0.14,-0.34,34.99,96.99,1203.33,602.39,1192.78,1
8057.12,-15.32,-68.02,-21.56,-0.92,0.14,-0.34,34.99,96.78,1262.78,650.71,1245.14,1
8057.13,-15.31,-68.02,-21.57,-0.92,0.14,-0.34,34.99,96.61,1311.82,696.39,1295.15,1
8057.14,-15.32,-68.02,-21.56,-0.91,0.14,-0.34,34.99,96.48,1350.43,733.55,1336.87,1
8057.15,-15.31,-68.02,-21.56,-0.92,0.14,-0.34,34.99,96.30,1399.61,775.98,1384.13,1
8057.16,-15.31,-68.02,-21.57,-0.92,0.14,-0.34,34.99,96.22,1424.37,801.80,1414.94,1
8057.17,-15.31,-68.02,-21.56,-0.91,0.13,-0.35,34.99,95.99,1487.63,851.17,1469.61,1
8057.18,-15.30,-68.02,-21.57,-0.92,0.14,-0.34,34.99,95.82,1537.00,896.45,1520.47,1
8057.19,-15.30,-68.02,-21.56,-0.92,0.14,-0.34,34.99,95.71,1568.72,927.57,1557.36,1
8057.20,-15.30,-68.02,-21.57,-0.91,0.13,-0.35,35.00,95.54,1618.22,967.73,1603.56,1
8057.21,-15.30,-68.02,-21.57,-0.91,0.13,-0.35,34.99,95.31,1682.12,1020.64,1662.81,1
8057.22,-15.30,-68.02,-21.57,-0.92,0.14,-0.34,34.99,95.13,1735.23,1068.82,1717.65,1
8057.23,-15.29,-68.02,-21.57,-0.91,0.13,-0.34,34.99,94.93,1792.17,1118.31,1774.10,1
8057.24,-15.30,-68.02,-21.57,-0.91,0.13,-0.35,34.99,94.82,1824.13,1149.71,1812.67,1
8057.25,-15.29,-68.02,-21.57,-0.92,0.14,-0.34,34.99,94.62,1881.21,1194.47,1864.87,1
8057.26,-15.29,-68.02,-21.58,-0.92,0.14,-0.34,34.99,94.52,1909.79,1221.80,1899.82,1
8057.27,-15.29,-68.02,-21.58,-0.92,0.13,-0.34,34.99,94.31,1970.49,1267.79,1953.71,1
8057.28,-15.29,-68.02,-21.58,-0.91,0.13,-0.34,34.99,94.23,1995.38,1292.41,1986.40,1
8057.29,-15.29,-68.02,-21.58,-0.92,0.14,-0.34,34.99,94.05,2045.51,1329.65,2031.92,1
8057.30,-15.28,-68.02,-21.58,-0.92,0.14,-0.34,34.99,93.93,2081.48,1359.75,2070.50,1
8057.31,-15.28,-68.02,-21.58,-0.91,0.13,-0.34,34.99,93.72,2142.50,1406.08,2125.59,1
8057.32,-15.28,-68.02,-21.59,-0.91,0.14,-0.34,34.99,93.62,2171.30,1433.01,2161.47,1
8057.33,-15.28,-68.02,-21.58,-0.91,0.14,-0.35,34.98,93.51,2203.62,1457.23,2194.78,1
8057.34,-15.28,-68.02,-21.58,-0.92,0.13,-0.34,34.99,93.30,2264.85,1501.71,2248.62,1
8057.35,-15.28,-68.02,-21.58,-0.91,0.13,-0.35,34.99,93.09,2326.20,1551.47,2308.04,1
8057.36,-15.27,-68.02,-21.59,-0.91,0.14,-0.34,34.99,93.02,2347.84,1573.43,2339.82,1
8057.37,-15.27,-68.02,-21.59,-0.92,0.14,-0.35,34.99,92.82,2405.82,1614.41,2390.87,1
8057.38,-15.27,-68.01,-21.59,-0.92,0.14,-0.34,35.01,92.62,2462.73,1659.48,2446.28,1
8057.39,-15.26,-68.01,-21.59,-0.91,0.13,-0.34,34.99,92.51,2496.51,1688.56,2485.90,1
8057.40,-15.26,-68.02,-21.58,-0.91,0.14,-0.35,35.01,92.31,2553.57,1730.23,2538.36,1
8057.41,-15.26,-68.01,-21.59,-0.92,0.14,-0.34,34.99,92.10,2616.62,1779.44,2598.66,1
8057.42,-15.26,-68.02,-21.59,-0.92,0.14,-0.34,34.99,92.00,2645.83,1805.75,2636.23,1
8057.43,-15.26,-68.01,-21.59,-0.91,0.13,-0.34,34.99,91.82,2700.49,1844.39,2686.38,1
8057.44,-15.26,-68.01,-21.59,-0.92,0.14,-0.34,35.00,91.61,2761.45,1890.75,2744.53,1
8057.45,-15.26,-68.01,-21.59,-0.92,0.14,-0.35,35.00,91.50,2794.35,1918.48,2784.23,1
8057.46,-15.25,-68.01,-21.60,-0.91,0.14,-0.34,34.99,91.32,2846.87,1955.43,2833.38,1
8057.47,-15.26,-68.01,-21.60,-0.91,0.14,-0.34,34.99,91.12,2905.72,1999.29,2889.71,1
8057.48,-15.25,-68.01,-21.60,-0.92,0.13,-0.34,34.99,91.03,2935.18,2023.35,2926.40,1
8057.49,-15.24,-68.01,-21.60,-0.92,0.14,-0.34,34.99,90.82,2997.77,2066.19,2982.13,1
8057.50,-15.24,-68.01,-21.60,-0.91,0.14,-0.34,35.00,90.66,3044.63,2102.37,3031.43,1
8057.51,-15.24,-68.01,-21.61,-0.91,0.14,-0.34,34.99,90.52,3086.48,2132.95,3075.32,1
8057.52,-15.24,-68.01,-21.60,-0.92,0.14,-0.34,35.01,90.34,3140.66,2170.90,3126.81,1
8057.53,-15.23,-68.01,-21.61,-0.92,0.14,-0.34,34.99,90.25,3167.64,2190.79,3160.38,1
8057.54,-15.23,-68.01,-21.61,-0.91,0.14,-0.34,34.99,90.06,3223.45,2226.82,3210.30,1
8057.55,-15.23,-68.01,-21.61,-0.92,0.14,-0.34,35.01,89.88,3277.85,2265.95,3263.57,1
8057.56,-15.22,-68.01,-21.61,-0.92,0.14,-0.34,35.00,89.77,3312.46,2291.29,3303.21,1
8057.57,-15.22,-68.01,-21.62,-0.92,0.14,-0.35,34.99,89.60,3360.98,2322.99,3349.41,1
8057.58,-15.22,-68.01,-21.61,-0.91,0.14,-0.34,34.99,89.51,3390.85,2342.63,3383.68,1
8057.59,-15.22,-68.01,-21.61,-0.91,0.14,-0.34,34.99,89.32,3446.73,2377.95,3433.84,1
8057.60,-15.22,-68.01,-21.61,-0.92,0.14,-0.34,34.99,89.15,3499.08,2414.71,3485.67,1
8057.61,-15.22,-68.01,-21.62,-0.92,0.14,-0.35,34.99,89.04,3532.71,2438.02,3524.20,1
8057.62,-15.22,-68.01,-21.62,-0.91,0.13,-0.34,35.00,88.88,3580.33,2467.86,3569.44,1
8057.63,-15.21,-68.01,-21.62,-0.92,0.14,-0.34,34.99,88.69,3637.76,2506.45,3623.67,1
8057.64,-15.21,-68.01,-21.62,-0.92,0.13,-0.34,34.99,88.52,3690.40,2543.71,3676.80,1
8057.65,-15.21,-68.01,-21.62,-0.91,0.13,-0.34,35.01,88.42,3719.65,2563.37,3712.48,1
8057.66,-15.21,-68.01,-21.63,-0.91,0.14,-0.34,34.99,88.25,3773.35,2596.09,3761.40,1
8057.67,-15.21,-68.01,-21.62,-0.92,0.14,-0.35,34.99,88.08,3822.54,2628.86,3810.58,1
